TIME: 0.000063, ROLL: 0.000000, PITCH: 0.000000, YAW: 0.000000, X: 0.000000, Y: 0.000000, ALTITUDE: 0.000000, VX: 0.000000, VY: 0.000000, VZ: 0.000000 
TIME: 0.053148, ROLL: 0.006054, PITCH: 0.012355, YAW: 0.000568, X: 0.000000, Y: 0.000000, ALTITUDE: 0.000000, VX: 0.000000, VY: 0.000000, VZ: 0.000000 
TIME: 0.105899, ROLL: 0.006054, PITCH: 0.012355, YAW: 0.000568, X: 0.000000, Y: 0.000000, ALTITUDE: 0.000000, VX: 0.000000, VY: 0.000000, VZ: 0.000000 
TIME: 0.158896, ROLL: 0.006054, PITCH: 0.012355, YAW: 0.000568, X: 0.000000, Y: 0.000000, ALTITUDE: 0.000000, VX: 0.000000, VY: 0.000000, VZ: 0.000000 
TIME: 0.211816, ROLL: 0.006056, PITCH: 0.012299, YAW: 0.000561, X: 0.000000, Y: 0.000000, ALTITUDE: 0.000000, VX: 0.000000, VY: 0.000000, VZ: 0.000000 
TIME: 0.264761, ROLL: 0.006056, PITCH: 0.012299, YAW: 0.000561, X: 0.000000, Y: 0.000000, ALTITUDE: 0.000000, VX: 0.000000, VY: 0.000000, VZ: 0.000000 
TIME: 0.317595, ROLL: 0.006056, PITCH: 0.012299, YAW: 0.000561, X: 0.000000, Y: 0.000000, ALTITUDE: 0.000000, VX: 0.000000, VY: 0.000000, VZ: 0.000000 
TIME: 0.370525, ROLL: 0.006056, PITCH: 0.012299, YAW: 0.000561, X: 0.000000, Y: 0.000000, ALTITUDE: 0.000000, VX: 0.000000, VY: 0.000000, VZ: 0.000000 
TIME: 0.424033, ROLL: 0.006026, PITCH: 0.012602, YAW: 0.000547, X: 0.000000, Y: 0.000000, ALTITUDE: 0.000000, VX: 0.000000, VY: 0.000000, VZ: 0.000000 
TIME: 0.477372, ROLL: 0.006026, PITCH: 0.012602, YAW: 0.000547, X: 0.000000, Y: 0.000000, ALTITUDE: 0.000000, VX: 0.000000, VY: 0.000000, VZ: 0.000000 
TIME: 0.530505, ROLL: 0.006026, PITCH: 0.012602, YAW: 0.000547, X: 0.000000, Y: 0.000000, ALTITUDE: 0.000000, VX: 0.000000, VY: 0.000000, VZ: 0.000000 
TIME: 0.583718, ROLL: 0.006026, PITCH: 0.012602, YAW: 0.000547, X: 0.000000, Y: 0.000000, ALTITUDE: 0.000000, VX: 0.000000, VY: 0.000000, VZ: 0.000000 
TIME: 0.637305, ROLL: 0.005949, PITCH: 0.012462, YAW: 0.000585, X: 0.000000, Y: 0.000000, ALTITUDE: 0.000000, VX: 0.000000, VY: 0.000000, VZ: 0.000000 
TIME: 0.690940, ROLL: 0.005949, PITCH: 0.012462, YAW: 0.000585, X: 0.000000, Y: 0.000000, ALTITUDE: 0.000000, VX: 0.000000, VY: 0.000000, VZ: 0.000000 
TIME: 0.744683, ROLL: 0.005949, PITCH: 0.012462, YAW: 0.000585, X: 0.000000, Y: 0.000000, ALTITUDE: 0.000000, VX: 0.000000, VY: 0.000000, VZ: 0.000000 
TIME: 0.798004, ROLL: 0.005949, PITCH: 0.012462, YAW: 0.000585, X: 0.000000, Y: 0.000000, ALTITUDE: 0.000000, VX: 0.000000, VY: 0.000000, VZ: 0.000000 
TIME: 0.851586, ROLL: 0.005832, PITCH: 0.012309, YAW: 0.000576, X: 0.000000, Y: 0.000000, ALTITUDE: 0.000000, VX: 0.000000, VY: 0.000000, VZ: 0.000000 
TIME: 0.904658, ROLL: 0.005832, PITCH: 0.012309, YAW: 0.000576, X: 0.000000, Y: 0.000000, ALTITUDE: 0.000000, VX: 0.000000, VY: 0.000000, VZ: 0.000000 
TIME: 0.957958, ROLL: 0.005832, PITCH: 0.012309, YAW: 0.000576, X: 0.000000, Y: 0.000000, ALTITUDE: 0.000000, VX: 0.000000, VY: 0.000000, VZ: 0.000000 
TIME: 1.011101, ROLL: 0.005832, PITCH: 0.012309, YAW: 0.000576, X: 0.000000, Y: 0.000000, ALTITUDE: 0.000000, VX: 0.000000, VY: 0.000000, VZ: 0.000000 
TIME: 1.064271, ROLL: 0.005832, PITCH: 0.012309, YAW: 0.000576, X: 0.000000, Y: 0.000000, ALTITUDE: 0.000000, VX: 0.000000, VY: 0.000000, VZ: 0.000000 
TIME: 1.117260, ROLL: 0.005904, PITCH: 0.012341, YAW: 0.000625, X: 0.000000, Y: 0.000000, ALTITUDE: 0.000000, VX: 0.000000, VY: 0.000000, VZ: 0.000000 
TIME: 1.170443, ROLL: 0.005904, PITCH: 0.012341, YAW: 0.000625, X: 0.000000, Y: 0.000000, ALTITUDE: 0.000000, VX: 0.000000, VY: 0.000000, VZ: 0.000000 
TIME: 1.223143, ROLL: 0.005904, PITCH: 0.012341, YAW: 0.000625, X: 0.000000, Y: 0.000000, ALTITUDE: 0.000000, VX: 0.000000, VY: 0.000000, VZ: 0.000000 
TIME: 1.275797, ROLL: 0.005933, PITCH: 0.012165, YAW: 0.000671, X: 0.000000, Y: 0.000000, ALTITUDE: 0.000000, VX: 0.000000, VY: 0.000000, VZ: 0.000000 
TIME: 1.328392, ROLL: 0.005933, PITCH: 0.012165, YAW: 0.000671, X: 0.000000, Y: 0.000000, ALTITUDE: 0.000000, VX: 0.000000, VY: 0.000000, VZ: 0.000000 
TIME: 1.381140, ROLL: 0.005933, PITCH: 0.012165, YAW: 0.000671, X: 0.000000, Y: 0.000000, ALTITUDE: 0.000000, VX: 0.000000, VY: 0.000000, VZ: 0.000000 
TIME: 1.435841, ROLL: 0.005933, PITCH: 0.012165, YAW: 0.000671, X: 0.000000, Y: 0.000000, ALTITUDE: 0.000000, VX: 0.000000, VY: 0.000000, VZ: 0.000000 
TIME: 1.489587, ROLL: 0.005983, PITCH: 0.012101, YAW: 0.000660, X: 0.000000, Y: 0.000000, ALTITUDE: 0.000000, VX: 0.000000, VY: 0.000000, VZ: 0.000000 
TIME: 1.500492, ROLL: 0.005983, PITCH: 0.012101, YAW: 0.000660, X: 0.000000, Y: 0.000000, ALTITUDE: 0.000000, VX: 0.000000, VY: 0.000000, VZ: 0.000000 
TIME: 1.540048, ROLL: 0.005983, PITCH: 0.012101, YAW: 0.000660, X: 0.000000, Y: 0.000000, ALTITUDE: 0.000000, VX: 0.000000, VY: 0.000000, VZ: 0.000000 
TIME: 1.574092, ROLL: 0.005983, PITCH: 0.012101, YAW: 0.000660, X: 0.000000, Y: 0.000000, ALTITUDE: 0.000000, VX: 0.000000, VY: 0.000000, VZ: 0.000000 
TIME: 1.614204, ROLL: 0.006068, PITCH: 0.012035, YAW: 0.000616, X: 0.000000, Y: 0.000000, ALTITUDE: 0.000000, VX: 0.000000, VY: 0.000000, VZ: 0.000000 
TIME: 1.647657, ROLL: 0.006068, PITCH: 0.012035, YAW: 0.000616, X: 0.000000, Y: 0.000000, ALTITUDE: 0.000000, VX: 0.000000, VY: 0.000000, VZ: 0.000000 
TIME: 1.697393, ROLL: 0.006068, PITCH: 0.012035, YAW: 0.000616, X: 0.000000, Y: 0.000000, ALTITUDE: 0.000000, VX: 0.000000, VY: 0.000000, VZ: 0.000000 
TIME: 1.739492, ROLL: 0.006068, PITCH: 0.012035, YAW: 0.000616, X: 0.000000, Y: 0.000000, ALTITUDE: 0.000000, VX: 0.000000, VY: 0.000000, VZ: 0.000000 
TIME: 1.792196, ROLL: 0.006164, PITCH: 0.012136, YAW: 0.000618, X: 0.000000, Y: 0.000000, ALTITUDE: 0.000000, VX: 0.000000, VY: 0.000000, VZ: 0.000000 
TIME: 1.844963, ROLL: 0.006164, PITCH: 0.012136, YAW: 0.000618, X: 0.000000, Y: 0.000000, ALTITUDE: 0.000000, VX: 0.000000, VY: 0.000000, VZ: 0.000000 
TIME: 1.897688, ROLL: 0.006164, PITCH: 0.012136, YAW: 0.000618, X: 0.000000, Y: 0.000000, ALTITUDE: 0.000000, VX: 0.000000, VY: 0.000000, VZ: 0.000000 
TIME: 1.950739, ROLL: 0.006164, PITCH: 0.012136, YAW: 0.000618, X: 0.000000, Y: 0.000000, ALTITUDE: 0.000000, VX: 0.000000, VY: 0.000000, VZ: 0.000000 
TIME: 2.003282, ROLL: 0.006164, PITCH: 0.012136, YAW: 0.000618, X: 0.000000, Y: 0.000000, ALTITUDE: 0.000000, VX: 0.000000, VY: 0.000000, VZ: 0.000000 
TIME: 2.056049, ROLL: 0.006023, PITCH: 0.012143, YAW: 0.000564, X: 0.000000, Y: 0.000000, ALTITUDE: 0.000000, VX: 0.000000, VY: 0.000000, VZ: 0.000000 
TIME: 2.108688, ROLL: 0.006023, PITCH: 0.012143, YAW: 0.000564, X: 0.000000, Y: 0.000000, ALTITUDE: 0.000000, VX: 0.000000, VY: 0.000000, VZ: 0.000000 
TIME: 2.161530, ROLL: 0.006023, PITCH: 0.012143, YAW: 0.000564, X: 0.000000, Y: 0.000000, ALTITUDE: 0.000000, VX: 0.000000, VY: 0.000000, VZ: 0.000000 
TIME: 2.214349, ROLL: 0.005968, PITCH: 0.012233, YAW: 0.000586, X: 0.000000, Y: 0.000000, ALTITUDE: 0.000000, VX: 0.000000, VY: 0.000000, VZ: 0.000000 
TIME: 2.267163, ROLL: 0.005968, PITCH: 0.012233, YAW: 0.000586, X: 0.000000, Y: 0.000000, ALTITUDE: 0.000000, VX: 0.000000, VY: 0.000000, VZ: 0.000000 
TIME: 2.319737, ROLL: 0.005968, PITCH: 0.012233, YAW: 0.000586, X: 0.000000, Y: 0.000000, ALTITUDE: 0.000000, VX: 0.000000, VY: 0.000000, VZ: 0.000000 
TIME: 2.372606, ROLL: 0.005968, PITCH: 0.012233, YAW: 0.000586, X: 0.000000, Y: 0.000000, ALTITUDE: 0.000000, VX: 0.000000, VY: 0.000000, VZ: 0.000000 
TIME: 2.426962, ROLL: 0.006033, PITCH: 0.012212, YAW: 0.000616, X: 0.000000, Y: 0.000000, ALTITUDE: 0.000000, VX: 0.000000, VY: 0.000000, VZ: 0.000000 
TIME: 2.479866, ROLL: 0.006033, PITCH: 0.012212, YAW: 0.000616, X: 0.000000, Y: 0.000000, ALTITUDE: 0.000000, VX: 0.000000, VY: 0.000000, VZ: 0.000000 
TIME: 2.532445, ROLL: 0.006033, PITCH: 0.012212, YAW: 0.000616, X: 0.000000, Y: 0.000000, ALTITUDE: 0.000000, VX: 0.000000, VY: 0.000000, VZ: 0.000000 
TIME: 2.585384, ROLL: 0.006033, PITCH: 0.012212, YAW: 0.000616, X: 0.000000, Y: 0.000000, ALTITUDE: 0.000000, VX: 0.000000, VY: 0.000000, VZ: 0.000000 
TIME: 2.638154, ROLL: 0.006027, PITCH: 0.012369, YAW: 0.000634, X: 0.000000, Y: 0.000000, ALTITUDE: 0.000000, VX: 0.000000, VY: 0.000000, VZ: 0.000000 
TIME: 2.690857, ROLL: 0.006027, PITCH: 0.012369, YAW: 0.000634, X: 0.000000, Y: 0.000000, ALTITUDE: 0.000000, VX: 0.000000, VY: 0.000000, VZ: 0.000000 
TIME: 2.743850, ROLL: 0.006027, PITCH: 0.012369, YAW: 0.000634, X: 0.000000, Y: 0.000000, ALTITUDE: 0.000000, VX: 0.000000, VY: 0.000000, VZ: 0.000000 
TIME: 2.796524, ROLL: 0.006027, PITCH: 0.012369, YAW: 0.000634, X: 0.000000, Y: 0.000000, ALTITUDE: 0.000000, VX: 0.000000, VY: 0.000000, VZ: 0.000000 
TIME: 2.849289, ROLL: 0.005858, PITCH: 0.012347, YAW: 0.000607, X: 0.000000, Y: 0.000000, ALTITUDE: 0.000000, VX: 0.000000, VY: 0.000000, VZ: 0.000000 
TIME: 2.902457, ROLL: 0.005858, PITCH: 0.012347, YAW: 0.000607, X: 0.000000, Y: 0.000000, ALTITUDE: 0.000000, VX: 0.000000, VY: 0.000000, VZ: 0.000000 
TIME: 2.955391, ROLL: 0.005858, PITCH: 0.012347, YAW: 0.000607, X: 0.000000, Y: 0.000000, ALTITUDE: 0.000000, VX: 0.000000, VY: 0.000000, VZ: 0.000000 
TIME: 3.008553, ROLL: 0.005858, PITCH: 0.012347, YAW: 0.000607, X: 0.000000, Y: 0.000000, ALTITUDE: 0.000000, VX: 0.000000, VY: 0.000000, VZ: 0.000000 
TIME: 3.061485, ROLL: 0.005858, PITCH: 0.012347, YAW: 0.000607, X: 0.000000, Y: 0.000000, ALTITUDE: 0.000000, VX: 0.000000, VY: 0.000000, VZ: 0.000000 
TIME: 3.114357, ROLL: 0.005837, PITCH: 0.012409, YAW: 0.000620, X: 0.000000, Y: 0.000000, ALTITUDE: 0.000000, VX: 0.000000, VY: 0.000000, VZ: 0.000000 
TIME: 3.167058, ROLL: 0.005837, PITCH: 0.012409, YAW: 0.000620, X: 0.000000, Y: 0.000000, ALTITUDE: 0.000000, VX: 0.000000, VY: 0.000000, VZ: 0.000000 
TIME: 3.219818, ROLL: 0.005837, PITCH: 0.012409, YAW: 0.000620, X: 0.000000, Y: 0.000000, ALTITUDE: 0.000000, VX: 0.000000, VY: 0.000000, VZ: 0.000000 
TIME: 3.272797, ROLL: 0.005813, PITCH: 0.012362, YAW: 0.000635, X: 0.000000, Y: 0.000000, ALTITUDE: 0.000000, VX: 0.000000, VY: 0.000000, VZ: 0.000000 
TIME: 3.325432, ROLL: 0.005813, PITCH: 0.012362, YAW: 0.000635, X: 0.000000, Y: 0.000000, ALTITUDE: 0.000000, VX: 0.000000, VY: 0.000000, VZ: 0.000000 
TIME: 3.377936, ROLL: 0.005813, PITCH: 0.012362, YAW: 0.000635, X: 0.000000, Y: 0.000000, ALTITUDE: 0.000000, VX: 0.000000, VY: 0.000000, VZ: 0.000000 
TIME: 3.430561, ROLL: 0.005813, PITCH: 0.012362, YAW: 0.000635, X: 0.000000, Y: 0.000000, ALTITUDE: 0.000000, VX: 0.000000, VY: 0.000000, VZ: 0.000000 
TIME: 3.483563, ROLL: 0.005909, PITCH: 0.012166, YAW: 0.000637, X: 0.000000, Y: 0.000000, ALTITUDE: 0.000000, VX: 0.000000, VY: 0.000000, VZ: 0.000000 
TIME: 3.536341, ROLL: 0.005909, PITCH: 0.012166, YAW: 0.000637, X: 0.000000, Y: 0.000000, ALTITUDE: 0.000000, VX: 0.000000, VY: 0.000000, VZ: 0.000000 
TIME: 3.575598, ROLL: 0.005909, PITCH: 0.012166, YAW: 0.000637, X: 0.000000, Y: 0.000000, ALTITUDE: 0.000000, VX: 0.000000, VY: 0.000000, VZ: 0.000000 
TIME: 3.591136, ROLL: 0.005909, PITCH: 0.012166, YAW: 0.000637, X: 0.000000, Y: 0.000000, ALTITUDE: 0.000000, VX: 0.000000, VY: 0.000000, VZ: 0.000000 
TIME: 3.643957, ROLL: 0.005909, PITCH: 0.012166, YAW: 0.000637, X: 0.000000, Y: 0.000000, ALTITUDE: 0.000000, VX: 0.000000, VY: 0.000000, VZ: 0.000000 
TIME: 3.696661, ROLL: 0.005909, PITCH: 0.012166, YAW: 0.000637, X: 0.000000, Y: 0.000000, ALTITUDE: 0.000000, VX: 0.000000, VY: 0.000000, VZ: 0.000000 
TIME: 3.749513, ROLL: 0.005738, PITCH: 0.012072, YAW: 0.000615, X: 0.000000, Y: 0.000000, ALTITUDE: 0.000000, VX: 0.000000, VY: 0.000000, VZ: 0.000000 
TIME: 3.802369, ROLL: 0.005738, PITCH: 0.012072, YAW: 0.000615, X: 0.000000, Y: 0.000000, ALTITUDE: 0.000000, VX: 0.000000, VY: 0.000000, VZ: 0.000000 
TIME: 3.855055, ROLL: 0.005881, PITCH: 0.011986, YAW: 0.000640, X: 0.000000, Y: 0.000000, ALTITUDE: 0.000000, VX: 0.000000, VY: 0.000000, VZ: 0.000000 
TIME: 3.907434, ROLL: 0.005881, PITCH: 0.011986, YAW: 0.000640, X: 0.000000, Y: 0.000000, ALTITUDE: 0.000000, VX: 0.000000, VY: 0.000000, VZ: 0.000000 
TIME: 3.960165, ROLL: 0.005881, PITCH: 0.011986, YAW: 0.000640, X: 0.000000, Y: 0.000000, ALTITUDE: 0.000000, VX: 0.000000, VY: 0.000000, VZ: 0.000000 
TIME: 4.012878, ROLL: 0.005881, PITCH: 0.011986, YAW: 0.000640, X: 0.000000, Y: 0.000000, ALTITUDE: 0.000000, VX: 0.000000, VY: 0.000000, VZ: 0.000000 
TIME: 4.065618, ROLL: 0.005881, PITCH: 0.011986, YAW: 0.000640, X: 0.000000, Y: 0.000000, ALTITUDE: 0.000000, VX: 0.000000, VY: 0.000000, VZ: 0.000000 
TIME: 4.118533, ROLL: 0.005881, PITCH: 0.011986, YAW: 0.000640, X: 0.000000, Y: 0.000000, ALTITUDE: 0.000000, VX: 0.000000, VY: 0.000000, VZ: 0.000000 
TIME: 4.171362, ROLL: 0.005780, PITCH: 0.012056, YAW: 0.000664, X: 0.000000, Y: 0.000000, ALTITUDE: 0.000000, VX: 0.000000, VY: 0.000000, VZ: 0.000000 
TIME: 4.224243, ROLL: 0.005780, PITCH: 0.012056, YAW: 0.000664, X: 0.000000, Y: 0.000000, ALTITUDE: 0.000000, VX: 0.000000, VY: 0.000000, VZ: 0.000000 
TIME: 4.277084, ROLL: 0.006007, PITCH: 0.012266, YAW: 0.000671, X: 0.000000, Y: 0.000000, ALTITUDE: 0.000000, VX: 0.000000, VY: 0.000000, VZ: 0.000000 
TIME: 4.329916, ROLL: 0.006007, PITCH: 0.012266, YAW: 0.000671, X: 0.000000, Y: 0.000000, ALTITUDE: 0.000000, VX: 0.000000, VY: 0.000000, VZ: 0.000000 
TIME: 4.382408, ROLL: 0.006007, PITCH: 0.012266, YAW: 0.000671, X: 0.000000, Y: 0.000000, ALTITUDE: 0.000000, VX: 0.000000, VY: 0.000000, VZ: 0.000000 
TIME: 4.435139, ROLL: 0.006007, PITCH: 0.012266, YAW: 0.000671, X: 0.000000, Y: 0.000000, ALTITUDE: 0.000000, VX: 0.000000, VY: 0.000000, VZ: 0.000000 
TIME: 4.487992, ROLL: 0.005980, PITCH: 0.012351, YAW: 0.000663, X: 0.000000, Y: 0.000000, ALTITUDE: 0.000000, VX: 0.000000, VY: 0.000000, VZ: 0.000000 
TIME: 4.540709, ROLL: 0.005980, PITCH: 0.012351, YAW: 0.000663, X: 0.000000, Y: 0.000000, ALTITUDE: 0.000000, VX: 0.000000, VY: 0.000000, VZ: 0.000000 
TIME: 4.593319, ROLL: 0.005980, PITCH: 0.012351, YAW: 0.000663, X: 0.000000, Y: 0.000000, ALTITUDE: 0.000000, VX: 0.000000, VY: 0.000000, VZ: 0.000000 
TIME: 4.646170, ROLL: 0.005980, PITCH: 0.012351, YAW: 0.000663, X: 0.000000, Y: 0.000000, ALTITUDE: 0.000000, VX: 0.000000, VY: 0.000000, VZ: 0.000000 
TIME: 4.698869, ROLL: 0.005933, PITCH: 0.012394, YAW: 0.000625, X: 0.000000, Y: 0.000000, ALTITUDE: 0.000000, VX: 0.000000, VY: 0.000000, VZ: 0.000000 
TIME: 4.751735, ROLL: 0.005933, PITCH: 0.012394, YAW: 0.000625, X: 0.000000, Y: 0.000000, ALTITUDE: 0.000000, VX: 0.000000, VY: 0.000000, VZ: 0.000000 
TIME: 4.804557, ROLL: 0.005933, PITCH: 0.012394, YAW: 0.000625, X: 0.000000, Y: 0.000000, ALTITUDE: 0.000000, VX: 0.000000, VY: 0.000000, VZ: 0.000000 
TIME: 4.857208, ROLL: 0.005933, PITCH: 0.012394, YAW: 0.000625, X: 0.000000, Y: 0.000000, ALTITUDE: 0.000000, VX: 0.000000, VY: 0.000000, VZ: 0.000000 
TIME: 4.910025, ROLL: 0.005864, PITCH: 0.012324, YAW: 0.000573, X: 0.000000, Y: 0.000000, ALTITUDE: 0.000000, VX: 0.000000, VY: 0.000000, VZ: 0.000000 
TIME: 4.962848, ROLL: 0.005864, PITCH: 0.012324, YAW: 0.000573, X: 0.000000, Y: 0.000000, ALTITUDE: 0.000000, VX: 0.000000, VY: 0.000000, VZ: 0.000000 
TIME: 5.015567, ROLL: 0.005864, PITCH: 0.012324, YAW: 0.000573, X: 0.000000, Y: 0.000000, ALTITUDE: 0.000000, VX: 0.000000, VY: 0.000000, VZ: 0.000000 
TIME: 5.068349, ROLL: 0.005864, PITCH: 0.012324, YAW: 0.000573, X: 0.000000, Y: 0.000000, ALTITUDE: 0.000000, VX: 0.000000, VY: 0.000000, VZ: 0.000000 
TIME: 5.120155, ROLL: 0.005864, PITCH: 0.012324, YAW: 0.000573, X: 0.000000, Y: 0.000000, ALTITUDE: 0.000000, VX: 0.000000, VY: 0.000000, VZ: 0.000000 
TIME: 5.173300, ROLL: 0.005788, PITCH: 0.012126, YAW: 0.000578, X: 0.000000, Y: 0.000000, ALTITUDE: 0.000000, VX: 0.000000, VY: 0.000000, VZ: 0.000000 
TIME: 5.225989, ROLL: 0.005788, PITCH: 0.012126, YAW: 0.000578, X: 0.000000, Y: 0.000000, ALTITUDE: 0.000000, VX: 0.000000, VY: 0.000000, VZ: 0.000000 
TIME: 5.278584, ROLL: 0.005788, PITCH: 0.012126, YAW: 0.000578, X: 0.000000, Y: 0.000000, ALTITUDE: 0.000000, VX: 0.000000, VY: 0.000000, VZ: 0.000000 
TIME: 5.331437, ROLL: 0.005780, PITCH: 0.012264, YAW: 0.000628, X: 0.000000, Y: 0.000000, ALTITUDE: 0.000000, VX: 0.000000, VY: 0.000000, VZ: 0.000000 
TIME: 5.384303, ROLL: 0.005780, PITCH: 0.012264, YAW: 0.000628, X: 0.000000, Y: 0.000000, ALTITUDE: 0.000000, VX: 0.000000, VY: 0.000000, VZ: 0.000000 
TIME: 5.437041, ROLL: 0.005780, PITCH: 0.012264, YAW: 0.000628, X: 0.000000, Y: 0.000000, ALTITUDE: 0.000000, VX: 0.000000, VY: 0.000000, VZ: 0.000000 
TIME: 5.489569, ROLL: 0.005780, PITCH: 0.012264, YAW: 0.000628, X: 0.000000, Y: 0.000000, ALTITUDE: 0.000000, VX: 0.000000, VY: 0.000000, VZ: 0.000000 
TIME: 5.542531, ROLL: 0.006045, PITCH: 0.012426, YAW: 0.000620, X: 0.000000, Y: 0.000000, ALTITUDE: 0.000000, VX: 0.000000, VY: 0.000000, VZ: 0.000000 
TIME: 5.595318, ROLL: 0.006045, PITCH: 0.012426, YAW: 0.000620, X: 0.000000, Y: 0.000000, ALTITUDE: 0.000000, VX: 0.000000, VY: 0.000000, VZ: 0.000000 
TIME: 5.648034, ROLL: 0.006045, PITCH: 0.012426, YAW: 0.000620, X: 0.000000, Y: 0.000000, ALTITUDE: 0.000000, VX: 0.000000, VY: 0.000000, VZ: 0.000000 
TIME: 5.700774, ROLL: 0.006045, PITCH: 0.012426, YAW: 0.000620, X: 0.000000, Y: 0.000000, ALTITUDE: 0.000000, VX: 0.000000, VY: 0.000000, VZ: 0.000000 
TIME: 5.753493, ROLL: 0.006029, PITCH: 0.012511, YAW: 0.000623, X: 0.000000, Y: 0.000000, ALTITUDE: 0.000000, VX: 0.000000, VY: 0.000000, VZ: 0.000000 
TIME: 5.806277, ROLL: 0.006029, PITCH: 0.012511, YAW: 0.000623, X: 0.000000, Y: 0.000000, ALTITUDE: 0.000000, VX: 0.000000, VY: 0.000000, VZ: 0.000000 
TIME: 5.858955, ROLL: 0.006029, PITCH: 0.012511, YAW: 0.000623, X: 0.000000, Y: 0.000000, ALTITUDE: 0.000000, VX: 0.000000, VY: 0.000000, VZ: 0.000000 
TIME: 5.911731, ROLL: 0.006029, PITCH: 0.012511, YAW: 0.000623, X: 0.000000, Y: 0.000000, ALTITUDE: 0.000000, VX: 0.000000, VY: 0.000000, VZ: 0.000000 
TIME: 5.964447, ROLL: 0.006029, PITCH: 0.012511, YAW: 0.000623, X: 0.000000, Y: 0.000000, ALTITUDE: 0.000000, VX: 0.000000, VY: 0.000000, VZ: 0.000000 
TIME: 6.017284, ROLL: 0.005989, PITCH: 0.012392, YAW: 0.000671, X: 0.000000, Y: 0.000000, ALTITUDE: 0.000000, VX: 0.000000, VY: 0.000000, VZ: 0.000000 
TIME: 6.069956, ROLL: 0.005989, PITCH: 0.012392, YAW: 0.000671, X: 0.000000, Y: 0.000000, ALTITUDE: 0.000000, VX: 0.000000, VY: 0.000000, VZ: 0.000000 
TIME: 6.122809, ROLL: 0.005989, PITCH: 0.012392, YAW: 0.000671, X: 0.000000, Y: 0.000000, ALTITUDE: 0.000000, VX: 0.000000, VY: 0.000000, VZ: 0.000000 
TIME: 6.175564, ROLL: 0.005989, PITCH: 0.012392, YAW: 0.000671, X: 0.000000, Y: 0.000000, ALTITUDE: 0.000000, VX: 0.000000, VY: 0.000000, VZ: 0.000000 
TIME: 6.228465, ROLL: 0.005877, PITCH: 0.012462, YAW: 0.000703, X: 0.000000, Y: 0.000000, ALTITUDE: 0.000000, VX: 0.000000, VY: 0.000000, VZ: 0.000000 
TIME: 6.281082, ROLL: 0.005877, PITCH: 0.012462, YAW: 0.000703, X: 0.000000, Y: 0.000000, ALTITUDE: 0.000000, VX: 0.000000, VY: 0.000000, VZ: 0.000000 
TIME: 6.333809, ROLL: 0.005877, PITCH: 0.012462, YAW: 0.000703, X: 0.000000, Y: 0.000000, ALTITUDE: 0.000000, VX: 0.000000, VY: 0.000000, VZ: 0.000000 
TIME: 6.386362, ROLL: 0.005877, PITCH: 0.012462, YAW: 0.000703, X: 0.000000, Y: 0.000000, ALTITUDE: 0.000000, VX: 0.000000, VY: 0.000000, VZ: 0.000000 
TIME: 6.439160, ROLL: 0.006074, PITCH: 0.012552, YAW: 0.000703, X: 0.000000, Y: 0.000000, ALTITUDE: 0.000000, VX: 0.000000, VY: 0.000000, VZ: 0.000000 
TIME: 6.491771, ROLL: 0.006074, PITCH: 0.012552, YAW: 0.000703, X: 0.000000, Y: 0.000000, ALTITUDE: 0.000000, VX: 0.000000, VY: 0.000000, VZ: 0.000000 
TIME: 6.544398, ROLL: 0.006074, PITCH: 0.012552, YAW: 0.000703, X: 0.000000, Y: 0.000000, ALTITUDE: 0.000000, VX: 0.000000, VY: 0.000000, VZ: 0.000000 
TIME: 6.597199, ROLL: 0.006074, PITCH: 0.012552, YAW: 0.000703, X: 0.000000, Y: 0.000000, ALTITUDE: 0.000000, VX: 0.000000, VY: 0.000000, VZ: 0.000000 
TIME: 6.649878, ROLL: 0.006073, PITCH: 0.012432, YAW: 0.000705, X: 0.000000, Y: 0.000000, ALTITUDE: 0.000000, VX: 0.000000, VY: 0.000000, VZ: 0.000000 
TIME: 6.702559, ROLL: 0.006073, PITCH: 0.012432, YAW: 0.000705, X: 0.000000, Y: 0.000000, ALTITUDE: 0.000000, VX: 0.000000, VY: 0.000000, VZ: 0.000000 
TIME: 6.754403, ROLL: 0.006073, PITCH: 0.012432, YAW: 0.000705, X: 0.000000, Y: 0.000000, ALTITUDE: 0.000000, VX: 0.000000, VY: 0.000000, VZ: 0.000000 
TIME: 6.807128, ROLL: 0.006073, PITCH: 0.012432, YAW: 0.000705, X: 0.000000, Y: 0.000000, ALTITUDE: 0.000000, VX: 0.000000, VY: 0.000000, VZ: 0.000000 
TIME: 6.859934, ROLL: 0.006101, PITCH: 0.012402, YAW: 0.000697, X: 0.000000, Y: 0.000000, ALTITUDE: 0.000000, VX: 0.000000, VY: 0.000000, VZ: 0.000000 
TIME: 6.912667, ROLL: 0.006101, PITCH: 0.012402, YAW: 0.000697, X: 0.000000, Y: 0.000000, ALTITUDE: 0.000000, VX: 0.000000, VY: 0.000000, VZ: 0.000000 
TIME: 6.965789, ROLL: 0.006101, PITCH: 0.012402, YAW: 0.000697, X: 0.000000, Y: 0.000000, ALTITUDE: 0.000000, VX: 0.000000, VY: 0.000000, VZ: 0.000000 
TIME: 7.018476, ROLL: 0.006101, PITCH: 0.012402, YAW: 0.000697, X: 0.000000, Y: 0.000000, ALTITUDE: 0.000000, VX: 0.000000, VY: 0.000000, VZ: 0.000000 
TIME: 7.071198, ROLL: 0.006101, PITCH: 0.012402, YAW: 0.000697, X: 0.000000, Y: 0.000000, ALTITUDE: 0.000000, VX: 0.000000, VY: 0.000000, VZ: 0.000000 
TIME: 7.124077, ROLL: 0.006116, PITCH: 0.012336, YAW: 0.000831, X: 0.000000, Y: 0.000000, ALTITUDE: 0.000000, VX: 0.000000, VY: 0.000000, VZ: 0.000000 
TIME: 7.176912, ROLL: 0.006116, PITCH: 0.012336, YAW: 0.000831, X: 0.000000, Y: 0.000000, ALTITUDE: 0.000000, VX: 0.000000, VY: 0.000000, VZ: 0.000000 
TIME: 7.229603, ROLL: 0.006116, PITCH: 0.012336, YAW: 0.000831, X: 0.000000, Y: 0.000000, ALTITUDE: 0.000000, VX: 0.000000, VY: 0.000000, VZ: 0.000000 
TIME: 7.282310, ROLL: 0.006116, PITCH: 0.012336, YAW: 0.000831, X: 0.000000, Y: 0.000000, ALTITUDE: 0.000000, VX: 0.000000, VY: 0.000000, VZ: 0.000000 
TIME: 7.335122, ROLL: 0.005350, PITCH: 0.011882, YAW: -0.000959, X: 0.000000, Y: 0.000000, ALTITUDE: 0.000000, VX: 0.000000, VY: 0.000000, VZ: 0.000000 
TIME: 7.387950, ROLL: 0.005350, PITCH: 0.011882, YAW: -0.000959, X: 0.000000, Y: 0.000000, ALTITUDE: 0.000000, VX: 0.000000, VY: 0.000000, VZ: 0.000000 
TIME: 7.440605, ROLL: 0.005350, PITCH: 0.011882, YAW: -0.000959, X: 0.000000, Y: 0.000000, ALTITUDE: 0.000000, VX: 0.000000, VY: 0.000000, VZ: 0.000000 
TIME: 7.493336, ROLL: 0.005350, PITCH: 0.011882, YAW: -0.000959, X: 0.000000, Y: 0.000000, ALTITUDE: 0.000000, VX: 0.000000, VY: 0.000000, VZ: 0.000000 
TIME: 7.546401, ROLL: 0.005865, PITCH: 0.011243, YAW: 0.000673, X: 0.000000, Y: 0.000000, ALTITUDE: 0.000000, VX: 0.000000, VY: 0.000000, VZ: 0.000000 
TIME: 7.599234, ROLL: 0.005865, PITCH: 0.011243, YAW: 0.000673, X: 0.000000, Y: 0.000000, ALTITUDE: 0.000000, VX: 0.000000, VY: 0.000000, VZ: 0.000000 
TIME: 7.651898, ROLL: 0.005865, PITCH: 0.011243, YAW: 0.000673, X: 0.000000, Y: 0.000000, ALTITUDE: 0.000000, VX: 0.000000, VY: 0.000000, VZ: 0.000000 
TIME: 7.704293, ROLL: 0.005865, PITCH: 0.011243, YAW: 0.000673, X: 0.000000, Y: 0.000000, ALTITUDE: 0.000000, VX: 0.000000, VY: 0.000000, VZ: 0.000000 
TIME: 7.757339, ROLL: 0.006160, PITCH: 0.012069, YAW: 0.001259, X: 0.000000, Y: 0.000000, ALTITUDE: 0.000000, VX: 0.000000, VY: 0.000000, VZ: 0.000000 
TIME: 7.810234, ROLL: 0.006160, PITCH: 0.012069, YAW: 0.001259, X: 0.000000, Y: 0.000000, ALTITUDE: 0.000000, VX: 0.000000, VY: 0.000000, VZ: 0.000000 
TIME: 7.862988, ROLL: 0.006160, PITCH: 0.012069, YAW: 0.001259, X: 0.000000, Y: 0.000000, ALTITUDE: 0.000000, VX: 0.000000, VY: 0.000000, VZ: 0.000000 
TIME: 7.915739, ROLL: 0.006160, PITCH: 0.012069, YAW: 0.001259, X: 0.000000, Y: 0.000000, ALTITUDE: 0.000000, VX: 0.000000, VY: 0.000000, VZ: 0.000000 
TIME: 7.968797, ROLL: 0.006744, PITCH: 0.012811, YAW: 0.000226, X: 0.000000, Y: 0.000000, ALTITUDE: 0.000000, VX: 0.000000, VY: 0.000000, VZ: 0.000000 
TIME: 8.021568, ROLL: 0.006744, PITCH: 0.012811, YAW: 0.000226, X: 0.000000, Y: 0.000000, ALTITUDE: 0.000000, VX: 0.000000, VY: 0.000000, VZ: 0.000000 
TIME: 8.074367, ROLL: 0.006744, PITCH: 0.012811, YAW: 0.000226, X: 0.000000, Y: 0.000000, ALTITUDE: 0.000000, VX: 0.000000, VY: 0.000000, VZ: 0.000000 
TIME: 8.127137, ROLL: 0.006744, PITCH: 0.012811, YAW: 0.000226, X: 0.000000, Y: 0.000000, ALTITUDE: 0.000000, VX: 0.000000, VY: 0.000000, VZ: 0.000000 
TIME: 8.180011, ROLL: 0.007650, PITCH: 0.011405, YAW: -0.001620, X: 0.000000, Y: 0.000000, ALTITUDE: 0.000000, VX: 0.000000, VY: 0.000000, VZ: 0.000000 
TIME: 8.232874, ROLL: 0.007650, PITCH: 0.011405, YAW: -0.001620, X: 0.000000, Y: 0.000000, ALTITUDE: 0.000000, VX: 0.000000, VY: 0.000000, VZ: 0.000000 
TIME: 8.285619, ROLL: 0.007650, PITCH: 0.011405, YAW: -0.001620, X: 0.000000, Y: 0.000000, ALTITUDE: 0.000000, VX: 0.000000, VY: 0.000000, VZ: 0.000000 
TIME: 8.338310, ROLL: 0.007650, PITCH: 0.011405, YAW: -0.001620, X: 0.000000, Y: 0.000000, ALTITUDE: 0.000000, VX: 0.000000, VY: 0.000000, VZ: 0.000000 
TIME: 8.391626, ROLL: 0.008251, PITCH: 0.012601, YAW: -0.002286, X: 0.000000, Y: 0.000000, ALTITUDE: 0.000000, VX: 0.000000, VY: 0.000000, VZ: 0.000000 
TIME: 8.444584, ROLL: 0.008251, PITCH: 0.012601, YAW: -0.002286, X: 0.000000, Y: 0.000000, ALTITUDE: 0.000000, VX: 0.000000, VY: 0.000000, VZ: 0.000000 
TIME: 8.497247, ROLL: 0.007895, PITCH: 0.010898, YAW: 0.014877, X: 0.000000, Y: 0.000000, ALTITUDE: 0.000000, VX: 0.000000, VY: 0.000000, VZ: 0.000000 
TIME: 8.550002, ROLL: 0.007895, PITCH: 0.010898, YAW: 0.014877, X: 0.000000, Y: 0.000000, ALTITUDE: 0.000000, VX: 0.000000, VY: 0.000000, VZ: 0.000000 
TIME: 8.602586, ROLL: 0.007895, PITCH: 0.010898, YAW: 0.014877, X: 0.000000, Y: 0.000000, ALTITUDE: 0.000000, VX: 0.000000, VY: 0.000000, VZ: 0.000000 
TIME: 8.655536, ROLL: 0.007895, PITCH: 0.010898, YAW: 0.014877, X: 0.000000, Y: 0.000000, ALTITUDE: 0.000000, VX: 0.000000, VY: 0.000000, VZ: 0.000000 
TIME: 8.708380, ROLL: 0.002903, PITCH: -0.008639, YAW: 0.013242, X: 0.000000, Y: 0.000000, ALTITUDE: 0.000000, VX: 0.000000, VY: 0.000000, VZ: 0.000000 
TIME: 8.761163, ROLL: 0.002903, PITCH: -0.008639, YAW: 0.013242, X: 0.000000, Y: 0.000000, ALTITUDE: 0.000000, VX: 0.000000, VY: 0.000000, VZ: 0.000000 
TIME: 8.814112, ROLL: 0.002903, PITCH: -0.008639, YAW: 0.013242, X: 0.000000, Y: 0.000000, ALTITUDE: 0.000000, VX: 0.000000, VY: 0.000000, VZ: 0.000000 
TIME: 8.867007, ROLL: 0.002903, PITCH: -0.008639, YAW: 0.013242, X: 0.000000, Y: 0.000000, ALTITUDE: 0.000000, VX: 0.000000, VY: 0.000000, VZ: 0.000000 
TIME: 8.919907, ROLL: -0.020511, PITCH: -0.004796, YAW: 0.003107, X: 0.000000, Y: 0.000000, ALTITUDE: 0.000000, VX: 0.000000, VY: 0.000000, VZ: 0.000000 
TIME: 8.972459, ROLL: -0.020511, PITCH: -0.004796, YAW: 0.003107, X: 0.000000, Y: 0.000000, ALTITUDE: 0.000000, VX: 0.000000, VY: 0.000000, VZ: 0.000000 
TIME: 9.025457, ROLL: -0.020511, PITCH: -0.004796, YAW: 0.003107, X: 0.010753, Y: -0.007214, ALTITUDE: 0.016659, VX: 0.050204, VY: -0.033681, VZ: -0.200658 
TIME: 9.078409, ROLL: -0.020511, PITCH: -0.004796, YAW: 0.003107, X: 0.010753, Y: -0.007214, ALTITUDE: 0.016659, VX: 0.050204, VY: -0.033681, VZ: -0.200658 
TIME: 9.131269, ROLL: 0.010398, PITCH: 0.014620, YAW: -0.000218, X: 0.010753, Y: -0.007214, ALTITUDE: 0.016659, VX: 0.050204, VY: -0.033681, VZ: -0.200658 
TIME: 9.184059, ROLL: 0.010398, PITCH: 0.014620, YAW: -0.000218, X: 0.010753, Y: -0.007214, ALTITUDE: 0.016659, VX: 0.050204, VY: -0.033681, VZ: -0.200658 
TIME: 9.237080, ROLL: 0.010398, PITCH: 0.014620, YAW: -0.000218, X: 0.018466, Y: -0.006927, ALTITUDE: 0.075021, VX: 0.041963, VY: 0.001559, VZ: -0.390344 
TIME: 9.289764, ROLL: 0.010398, PITCH: 0.014620, YAW: -0.000218, X: 0.018466, Y: -0.006927, ALTITUDE: 0.075021, VX: 0.041963, VY: 0.001559, VZ: -0.390344 
TIME: 9.342532, ROLL: 0.010398, PITCH: 0.014620, YAW: -0.000218, X: 0.018466, Y: -0.006927, ALTITUDE: 0.075021, VX: 0.041963, VY: 0.001559, VZ: -0.390344 
TIME: 9.395226, ROLL: 0.010398, PITCH: 0.014620, YAW: -0.000218, X: 0.018466, Y: -0.006927, ALTITUDE: 0.075021, VX: 0.041963, VY: 0.001559, VZ: -0.390344 
TIME: 9.448065, ROLL: 0.013513, PITCH: 0.023316, YAW: -0.006526, X: 0.022870, Y: 0.001960, ALTITUDE: 0.187531, VX: 0.019373, VY: 0.039101, VZ: -0.721887 
TIME: 9.500774, ROLL: 0.013513, PITCH: 0.023316, YAW: -0.006526, X: 0.022870, Y: 0.001960, ALTITUDE: 0.187531, VX: 0.019373, VY: 0.039101, VZ: -0.721887 
TIME: 9.553578, ROLL: -0.013805, PITCH: 0.018681, YAW: -0.007836, X: 0.022870, Y: 0.001960, ALTITUDE: 0.187531, VX: 0.019373, VY: 0.039101, VZ: -0.721887 
TIME: 9.606355, ROLL: -0.013805, PITCH: 0.018681, YAW: -0.007836, X: 0.023017, Y: 0.001602, ALTITUDE: 0.187531, VX: 0.001103, VY: -0.002692, VZ: -0.881043 
TIME: 9.659037, ROLL: -0.013805, PITCH: 0.018681, YAW: -0.007836, X: 0.023017, Y: 0.001602, ALTITUDE: 0.347356, VX: 0.001103, VY: -0.002692, VZ: -0.881043 
TIME: 9.711862, ROLL: -0.013805, PITCH: 0.018681, YAW: -0.007836, X: 0.023017, Y: 0.001602, ALTITUDE: 0.347356, VX: 0.001103, VY: -0.002692, VZ: -0.881043 
TIME: 9.764756, ROLL: 0.004180, PITCH: -0.001787, YAW: -0.005725, X: 0.023017, Y: 0.001602, ALTITUDE: 0.347356, VX: 0.001103, VY: -0.002692, VZ: -0.881043 
TIME: 9.817848, ROLL: 0.004180, PITCH: -0.001787, YAW: -0.005725, X: 0.066297, Y: -0.043621, ALTITUDE: 0.347356, VX: 0.205224, VY: -0.214436, VZ: -0.935113 
TIME: 9.870532, ROLL: 0.004180, PITCH: -0.001787, YAW: -0.005725, X: 0.066297, Y: -0.043621, ALTITUDE: 0.561347, VX: 0.205224, VY: -0.214436, VZ: -0.935113 
TIME: 9.923158, ROLL: 0.004180, PITCH: -0.001787, YAW: -0.005725, X: 0.066297, Y: -0.043621, ALTITUDE: 0.561347, VX: 0.205224, VY: -0.214436, VZ: -0.935113 
TIME: 9.975945, ROLL: 0.039833, PITCH: 0.037374, YAW: -0.000895, X: 0.066297, Y: -0.043621, ALTITUDE: 0.561347, VX: 0.205224, VY: -0.214436, VZ: -0.935113 
TIME: 10.028856, ROLL: 0.039833, PITCH: 0.037374, YAW: -0.000895, X: 0.102690, Y: -0.084845, ALTITUDE: 0.561347, VX: 0.172823, VY: -0.195763, VZ: -0.691120 
TIME: 10.081581, ROLL: 0.039833, PITCH: 0.037374, YAW: -0.000895, X: 0.102690, Y: -0.084845, ALTITUDE: 0.561347, VX: 0.172823, VY: -0.195763, VZ: -0.691120 
TIME: 10.133767, ROLL: 0.039833, PITCH: 0.037374, YAW: -0.000895, X: 0.102690, Y: -0.084845, ALTITUDE: 0.726728, VX: 0.172823, VY: -0.195763, VZ: -0.691120 
TIME: 10.186554, ROLL: 0.049133, PITCH: 0.048213, YAW: 0.003321, X: 0.102690, Y: -0.084845, ALTITUDE: 0.726728, VX: 0.172823, VY: -0.195763, VZ: -0.691120 
TIME: 10.239525, ROLL: 0.049133, PITCH: 0.048213, YAW: 0.003321, X: 0.109540, Y: -0.107417, ALTITUDE: 0.843994, VX: 0.031974, VY: -0.105358, VZ: -0.430241 
TIME: 10.292169, ROLL: 0.049133, PITCH: 0.048213, YAW: 0.003321, X: 0.109540, Y: -0.107417, ALTITUDE: 0.843994, VX: 0.031974, VY: -0.105358, VZ: -0.430241 
TIME: 10.344817, ROLL: 0.049133, PITCH: 0.048213, YAW: 0.003321, X: 0.109540, Y: -0.107417, ALTITUDE: 0.843994, VX: 0.031974, VY: -0.105358, VZ: -0.430241 
TIME: 10.397553, ROLL: 0.049133, PITCH: 0.048213, YAW: 0.003321, X: 0.109540, Y: -0.107417, ALTITUDE: 0.843994, VX: 0.031974, VY: -0.105358, VZ: -0.430241 
TIME: 10.450344, ROLL: 0.041284, PITCH: 0.035563, YAW: 0.002705, X: 0.106885, Y: -0.099876, ALTITUDE: 0.843994, VX: -0.011340, VY: 0.032216, VZ: -0.249174 
TIME: 10.502931, ROLL: 0.041284, PITCH: 0.035563, YAW: 0.002705, X: 0.106885, Y: -0.099876, ALTITUDE: 0.923183, VX: -0.011340, VY: 0.032216, VZ: -0.249174 
TIME: 10.555728, ROLL: 0.041284, PITCH: 0.035563, YAW: 0.002705, X: 0.106885, Y: -0.099876, ALTITUDE: 0.923183, VX: -0.011340, VY: 0.032216, VZ: -0.249174 
TIME: 10.608567, ROLL: 0.019188, PITCH: 0.027038, YAW: 0.000665, X: 0.106885, Y: -0.099876, ALTITUDE: 0.923183, VX: -0.011340, VY: 0.032216, VZ: -0.249174 
TIME: 10.661441, ROLL: 0.019188, PITCH: 0.027038, YAW: 0.000665, X: 0.100833, Y: -0.080405, ALTITUDE: 0.971399, VX: -0.032928, VY: 0.105926, VZ: -0.132527 
TIME: 10.714085, ROLL: 0.019188, PITCH: 0.027038, YAW: 0.000665, X: 0.100833, Y: -0.080405, ALTITUDE: 0.971399, VX: -0.032928, VY: 0.105926, VZ: -0.132527 
TIME: 10.766845, ROLL: 0.019188, PITCH: 0.027038, YAW: 0.000665, X: 0.100833, Y: -0.080405, ALTITUDE: 0.971399, VX: -0.032928, VY: 0.105926, VZ: -0.132527 
TIME: 10.819592, ROLL: 0.008855, PITCH: 0.020512, YAW: 0.000071, X: 0.100833, Y: -0.080405, ALTITUDE: 0.971399, VX: -0.032928, VY: 0.105926, VZ: -0.132527 
TIME: 10.872399, ROLL: 0.008855, PITCH: 0.020512, YAW: 0.000071, X: 0.091309, Y: -0.048306, ALTITUDE: 0.995336, VX: -0.044937, VY: 0.151454, VZ: -0.057961 
TIME: 10.925030, ROLL: 0.008855, PITCH: 0.020512, YAW: 0.000071, X: 0.091309, Y: -0.048306, ALTITUDE: 0.995336, VX: -0.044937, VY: 0.151454, VZ: -0.057961 
TIME: 10.977812, ROLL: 0.008855, PITCH: 0.020512, YAW: 0.000071, X: 0.091309, Y: -0.048306, ALTITUDE: 0.995336, VX: -0.044937, VY: 0.151454, VZ: -0.057961 
TIME: 11.030648, ROLL: 0.005566, PITCH: 0.019084, YAW: -0.000205, X: 0.091309, Y: -0.048306, ALTITUDE: 0.995336, VX: -0.044937, VY: 0.151454, VZ: -0.057961 
TIME: 11.083544, ROLL: 0.005566, PITCH: 0.019084, YAW: -0.000205, X: 0.081029, Y: -0.010089, ALTITUDE: 1.008198, VX: -0.048952, VY: 0.181981, VZ: -0.016795 
TIME: 11.136227, ROLL: 0.005566, PITCH: 0.019084, YAW: -0.000205, X: 0.081029, Y: -0.010089, ALTITUDE: 1.008198, VX: -0.048952, VY: 0.181981, VZ: -0.016795 
TIME: 11.189265, ROLL: 0.005566, PITCH: 0.019084, YAW: -0.000205, X: 0.081029, Y: -0.010089, ALTITUDE: 1.008198, VX: -0.048952, VY: 0.181981, VZ: -0.016795 
TIME: 11.242063, ROLL: -0.016462, PITCH: 0.015353, YAW: -0.001836, X: 0.081029, Y: -0.010089, ALTITUDE: 1.008198, VX: -0.048952, VY: 0.181981, VZ: -0.016795 
TIME: 11.294914, ROLL: -0.016462, PITCH: 0.015353, YAW: -0.001836, X: 0.068315, Y: 0.025597, ALTITUDE: 1.022126, VX: -0.060325, VY: 0.169331, VZ: -0.016368 
TIME: 11.347623, ROLL: -0.016462, PITCH: 0.015353, YAW: -0.001836, X: 0.068315, Y: 0.025597, ALTITUDE: 1.022126, VX: -0.060325, VY: 0.169331, VZ: -0.016368 
TIME: 11.400186, ROLL: -0.016462, PITCH: 0.015353, YAW: -0.001836, X: 0.068315, Y: 0.025597, ALTITUDE: 1.022126, VX: -0.060325, VY: 0.169331, VZ: -0.016368 
TIME: 11.452991, ROLL: -0.016462, PITCH: 0.015353, YAW: -0.001836, X: 0.068315, Y: 0.025597, ALTITUDE: 1.022126, VX: -0.060325, VY: 0.169331, VZ: -0.016368 
TIME: 11.505900, ROLL: -0.020995, PITCH: 0.011351, YAW: -0.001984, X: 0.053547, Y: 0.052478, ALTITUDE: 1.022126, VX: -0.059861, VY: 0.108960, VZ: 0.011517 
TIME: 11.558622, ROLL: -0.020995, PITCH: 0.011351, YAW: -0.001984, X: 0.053547, Y: 0.052478, ALTITUDE: 1.020425, VX: -0.059861, VY: 0.108960, VZ: 0.011517 
TIME: 11.611381, ROLL: -0.020995, PITCH: 0.011351, YAW: -0.001984, X: 0.053547, Y: 0.052478, ALTITUDE: 1.020425, VX: -0.059861, VY: 0.108960, VZ: 0.011517 
TIME: 11.664006, ROLL: 0.006127, PITCH: 0.002591, YAW: -0.007771, X: 0.053547, Y: 0.052478, ALTITUDE: 1.020425, VX: -0.059861, VY: 0.108960, VZ: 0.011517 
TIME: 11.716901, ROLL: 0.006127, PITCH: 0.002591, YAW: -0.007771, X: 0.046947, Y: 0.074305, ALTITUDE: 1.015993, VX: -0.037734, VY: 0.124779, VZ: 0.025055 
TIME: 11.769385, ROLL: 0.006127, PITCH: 0.002591, YAW: -0.007771, X: 0.046947, Y: 0.074305, ALTITUDE: 1.015993, VX: -0.037734, VY: 0.124779, VZ: 0.025055 
TIME: 11.822100, ROLL: 0.006127, PITCH: 0.002591, YAW: -0.007771, X: 0.046947, Y: 0.074305, ALTITUDE: 1.015993, VX: -0.037734, VY: 0.124779, VZ: 0.025055 
TIME: 11.874942, ROLL: -0.054419, PITCH: 0.006711, YAW: -0.009975, X: 0.046947, Y: 0.074305, ALTITUDE: 1.015993, VX: -0.037734, VY: 0.124779, VZ: 0.025055 
TIME: 11.927408, ROLL: -0.054419, PITCH: 0.006711, YAW: -0.009975, X: 0.039346, Y: 0.089267, ALTITUDE: 1.005453, VX: -0.034146, VY: 0.067218, VZ: 0.016047 
TIME: 11.980067, ROLL: -0.054419, PITCH: 0.006711, YAW: -0.009975, X: 0.039346, Y: 0.089267, ALTITUDE: 1.005453, VX: -0.034146, VY: 0.067218, VZ: 0.016047 
TIME: 12.033360, ROLL: -0.054419, PITCH: 0.006711, YAW: -0.009975, X: 0.039346, Y: 0.089267, ALTITUDE: 1.005453, VX: -0.034146, VY: 0.067218, VZ: 0.016047 
TIME: 12.086460, ROLL: -0.030239, PITCH: 0.011744, YAW: -0.007076, X: 0.039346, Y: 0.089267, ALTITUDE: 1.005453, VX: -0.034146, VY: 0.067218, VZ: 0.016047 
TIME: 12.121962, ROLL: -0.030239, PITCH: 0.011744, YAW: -0.007076, X: 0.041191, Y: 0.087379, ALTITUDE: 0.999151, VX: 0.009493, VY: -0.009712, VZ: 0.010356 
TIME: 12.168789, ROLL: -0.030239, PITCH: 0.011744, YAW: -0.007076, X: 0.041191, Y: 0.087379, ALTITUDE: 0.999151, VX: 0.009493, VY: -0.009712, VZ: 0.010356 
TIME: 12.221413, ROLL: -0.030239, PITCH: 0.011744, YAW: -0.007076, X: 0.041191, Y: 0.087379, ALTITUDE: 0.999151, VX: 0.009493, VY: -0.009712, VZ: 0.010356 
TIME: 12.274129, ROLL: -0.021568, PITCH: 0.029123, YAW: -0.004269, X: 0.041191, Y: 0.087379, ALTITUDE: 0.999151, VX: 0.009493, VY: -0.009712, VZ: 0.010356 
TIME: 12.327026, ROLL: -0.021568, PITCH: 0.029123, YAW: -0.004269, X: 0.040796, Y: 0.084170, ALTITUDE: 0.991294, VX: -0.002019, VY: -0.016379, VZ: 0.004364 
TIME: 12.379964, ROLL: -0.021568, PITCH: 0.029123, YAW: -0.004269, X: 0.040796, Y: 0.084170, ALTITUDE: 0.991294, VX: -0.002019, VY: -0.016379, VZ: 0.004364 
TIME: 12.433947, ROLL: -0.021568, PITCH: 0.029123, YAW: -0.004269, X: 0.040796, Y: 0.084170, ALTITUDE: 0.991294, VX: -0.002019, VY: -0.016379, VZ: 0.004364 
TIME: 12.486562, ROLL: -0.021568, PITCH: 0.029123, YAW: -0.004269, X: 0.040796, Y: 0.084170, ALTITUDE: 0.991294, VX: -0.002019, VY: -0.016379, VZ: 0.004364 
TIME: 12.540247, ROLL: -0.024979, PITCH: 0.014286, YAW: 0.002613, X: 0.040848, Y: 0.071333, ALTITUDE: 0.983147, VX: 0.000226, VY: -0.054973, VZ: 0.008276 
TIME: 12.593182, ROLL: -0.024979, PITCH: 0.014286, YAW: 0.002613, X: 0.040848, Y: 0.071333, ALTITUDE: 0.983147, VX: 0.000226, VY: -0.054973, VZ: 0.008276 
TIME: 12.646228, ROLL: -0.024979, PITCH: 0.014286, YAW: 0.002613, X: 0.040848, Y: 0.071333, ALTITUDE: 0.983147, VX: 0.000226, VY: -0.054973, VZ: 0.008276 
TIME: 12.699382, ROLL: -0.014883, PITCH: 0.006098, YAW: 0.005902, X: 0.040848, Y: 0.071333, ALTITUDE: 0.983147, VX: 0.000226, VY: -0.054973, VZ: 0.008276 
TIME: 12.752467, ROLL: -0.014883, PITCH: 0.006098, YAW: 0.005902, X: 0.047062, Y: 0.056322, ALTITUDE: 0.978813, VX: 0.032798, VY: -0.079234, VZ: 0.001947 
TIME: 12.805135, ROLL: -0.014883, PITCH: 0.006098, YAW: 0.005902, X: 0.047062, Y: 0.056322, ALTITUDE: 0.978813, VX: 0.032798, VY: -0.079234, VZ: 0.001947 
TIME: 12.858031, ROLL: -0.014883, PITCH: 0.006098, YAW: 0.005902, X: 0.047062, Y: 0.056322, ALTITUDE: 0.978813, VX: 0.032798, VY: -0.079234, VZ: 0.001947 
TIME: 12.910907, ROLL: -0.012955, PITCH: 0.023519, YAW: 0.005803, X: 0.047062, Y: 0.056322, ALTITUDE: 0.978813, VX: 0.032798, VY: -0.079234, VZ: 0.001947 
TIME: 12.963795, ROLL: -0.012955, PITCH: 0.023519, YAW: 0.005803, X: 0.055378, Y: 0.034726, ALTITUDE: 0.979775, VX: 0.038800, VY: -0.100762, VZ: -0.009413 
TIME: 13.016540, ROLL: -0.012955, PITCH: 0.023519, YAW: 0.005803, X: 0.055378, Y: 0.034726, ALTITUDE: 0.979775, VX: 0.038800, VY: -0.100762, VZ: -0.009413 
TIME: 13.069647, ROLL: -0.012955, PITCH: 0.023519, YAW: 0.005803, X: 0.055378, Y: 0.034726, ALTITUDE: 0.979775, VX: 0.038800, VY: -0.100762, VZ: -0.009413 
TIME: 13.122444, ROLL: -0.021774, PITCH: 0.035707, YAW: 0.004045, X: 0.055378, Y: 0.034726, ALTITUDE: 0.979775, VX: 0.038800, VY: -0.100762, VZ: -0.009413 
TIME: 13.175290, ROLL: -0.021774, PITCH: 0.035707, YAW: 0.004045, X: 0.059238, Y: 0.009036, ALTITUDE: 0.981444, VX: 0.018453, VY: -0.122802, VZ: -0.023052 
TIME: 13.227896, ROLL: -0.021774, PITCH: 0.035707, YAW: 0.004045, X: 0.059238, Y: 0.009036, ALTITUDE: 0.981444, VX: 0.018453, VY: -0.122802, VZ: -0.023052 
TIME: 13.280559, ROLL: -0.021774, PITCH: 0.035707, YAW: 0.004045, X: 0.059238, Y: 0.009036, ALTITUDE: 0.981444, VX: 0.018453, VY: -0.122802, VZ: -0.023052 
TIME: 13.312478, ROLL: 0.001605, PITCH: 0.021078, YAW: -0.002227, X: 0.059238, Y: 0.009036, ALTITUDE: 0.981444, VX: 0.018453, VY: -0.122802, VZ: -0.023052 
TIME: 13.322836, ROLL: 0.001605, PITCH: 0.021078, YAW: -0.002227, X: 0.062332, Y: -0.015904, ALTITUDE: 0.983249, VX: 0.016795, VY: -0.135418, VZ: -0.023000 
TIME: 13.336133, ROLL: 0.001605, PITCH: 0.021078, YAW: -0.002227, X: 0.062332, Y: -0.015904, ALTITUDE: 0.983249, VX: 0.016795, VY: -0.135418, VZ: -0.023000 
TIME: 13.388688, ROLL: 0.001605, PITCH: 0.021078, YAW: -0.002227, X: 0.062332, Y: -0.015904, ALTITUDE: 0.983249, VX: 0.016795, VY: -0.135418, VZ: -0.023000 
TIME: 13.441389, ROLL: 0.001605, PITCH: 0.021078, YAW: -0.002227, X: 0.062332, Y: -0.015904, ALTITUDE: 0.983249, VX: 0.016795, VY: -0.135418, VZ: -0.023000 
TIME: 13.494783, ROLL: 0.026896, PITCH: 0.017887, YAW: -0.010190, X: 0.062044, Y: -0.030319, ALTITUDE: 0.983249, VX: -0.001757, VY: -0.088164, VZ: -0.022349 
TIME: 13.547357, ROLL: 0.026896, PITCH: 0.017887, YAW: -0.010190, X: 0.062044, Y: -0.030319, ALTITUDE: 0.993844, VX: -0.001757, VY: -0.088164, VZ: -0.022349 
TIME: 13.600180, ROLL: 0.026896, PITCH: 0.017887, YAW: -0.010190, X: 0.062044, Y: -0.030319, ALTITUDE: 0.993844, VX: -0.001757, VY: -0.088164, VZ: -0.022349 
TIME: 13.652790, ROLL: 0.009730, PITCH: 0.021604, YAW: -0.009980, X: 0.062044, Y: -0.030319, ALTITUDE: 0.993844, VX: -0.001757, VY: -0.088164, VZ: -0.022349 
TIME: 13.702783, ROLL: 0.009730, PITCH: 0.021604, YAW: -0.009980, X: 0.058578, Y: -0.038102, ALTITUDE: 0.992857, VX: -0.019125, VY: -0.042945, VZ: -0.013317 
TIME: 13.716234, ROLL: 0.009730, PITCH: 0.021604, YAW: -0.009980, X: 0.058578, Y: -0.038102, ALTITUDE: 0.992857, VX: -0.019125, VY: -0.042945, VZ: -0.013317 
TIME: 13.726134, ROLL: 0.009730, PITCH: 0.021604, YAW: -0.009980, X: 0.058578, Y: -0.038102, ALTITUDE: 0.992857, VX: -0.019125, VY: -0.042945, VZ: -0.013317 
TIME: 13.777018, ROLL: 0.004940, PITCH: 0.023672, YAW: -0.008034, X: 0.058578, Y: -0.038102, ALTITUDE: 0.992857, VX: -0.019125, VY: -0.042945, VZ: -0.013317 
TIME: 13.829702, ROLL: 0.004940, PITCH: 0.023672, YAW: -0.008034, X: 0.053029, Y: -0.042543, ALTITUDE: 0.993291, VX: -0.044463, VY: -0.035581, VZ: -0.009655 
TIME: 13.882822, ROLL: 0.004940, PITCH: 0.023672, YAW: -0.008034, X: 0.053029, Y: -0.042543, ALTITUDE: 0.993291, VX: -0.044463, VY: -0.035581, VZ: -0.009655 
TIME: 13.921677, ROLL: 0.004940, PITCH: 0.023672, YAW: -0.008034, X: 0.053029, Y: -0.042543, ALTITUDE: 0.993291, VX: -0.044463, VY: -0.035581, VZ: -0.009655 
TIME: 13.948854, ROLL: 0.012790, PITCH: 0.018995, YAW: -0.002981, X: 0.053029, Y: -0.042543, ALTITUDE: 0.993291, VX: -0.044463, VY: -0.035581, VZ: -0.009655 
TIME: 14.002285, ROLL: 0.012790, PITCH: 0.018995, YAW: -0.002981, X: 0.042568, Y: -0.045682, ALTITUDE: 0.990994, VX: -0.060971, VY: -0.018296, VZ: -0.004997 
TIME: 14.055175, ROLL: 0.012790, PITCH: 0.018995, YAW: -0.002981, X: 0.042568, Y: -0.045682, ALTITUDE: 0.990994, VX: -0.060971, VY: -0.018296, VZ: -0.004997 
TIME: 14.108081, ROLL: 0.012790, PITCH: 0.018995, YAW: -0.002981, X: 0.042568, Y: -0.045682, ALTITUDE: 0.990994, VX: -0.060971, VY: -0.018296, VZ: -0.004997 
TIME: 14.160750, ROLL: 0.016131, PITCH: 0.025308, YAW: 0.007532, X: 0.042568, Y: -0.045682, ALTITUDE: 0.990994, VX: -0.060971, VY: -0.018296, VZ: -0.004997 
TIME: 14.213513, ROLL: 0.016131, PITCH: 0.025308, YAW: 0.007532, X: 0.023720, Y: -0.039885, ALTITUDE: 0.989812, VX: -0.087209, VY: 0.026819, VZ: -0.012140 
TIME: 14.266179, ROLL: 0.016131, PITCH: 0.025308, YAW: 0.007532, X: 0.023720, Y: -0.039885, ALTITUDE: 0.989812, VX: -0.087209, VY: 0.026819, VZ: -0.012140 
TIME: 14.319467, ROLL: 0.016131, PITCH: 0.025308, YAW: 0.007532, X: 0.023720, Y: -0.039885, ALTITUDE: 0.989812, VX: -0.087209, VY: 0.026819, VZ: -0.012140 
TIME: 14.373135, ROLL: 0.016131, PITCH: 0.025308, YAW: 0.007532, X: 0.023720, Y: -0.039885, ALTITUDE: 0.989812, VX: -0.087209, VY: 0.026819, VZ: -0.012140 
TIME: 14.425964, ROLL: 0.005043, PITCH: 0.015785, YAW: 0.012753, X: -0.004597, Y: -0.032719, ALTITUDE: 0.987862, VX: -0.123564, VY: 0.031272, VZ: -0.017324 
TIME: 14.478629, ROLL: 0.005043, PITCH: 0.015785, YAW: 0.012753, X: -0.004597, Y: -0.032719, ALTITUDE: 0.987862, VX: -0.123564, VY: 0.031272, VZ: -0.017324 
TIME: 14.531406, ROLL: 0.005043, PITCH: 0.015785, YAW: 0.012753, X: -0.004597, Y: -0.032719, ALTITUDE: 0.987862, VX: -0.123564, VY: 0.031272, VZ: -0.017324 
TIME: 14.584826, ROLL: -0.000311, PITCH: -0.003850, YAW: 0.020918, X: -0.004597, Y: -0.032719, ALTITUDE: 0.987862, VX: -0.123564, VY: 0.031272, VZ: -0.017324 
TIME: 14.639655, ROLL: -0.000311, PITCH: -0.003850, YAW: 0.020918, X: -0.027820, Y: -0.027136, ALTITUDE: 0.991404, VX: -0.120061, VY: 0.028863, VZ: -0.016291 
TIME: 14.694073, ROLL: -0.000311, PITCH: -0.003850, YAW: 0.020918, X: -0.027820, Y: -0.027136, ALTITUDE: 0.991404, VX: -0.120061, VY: 0.028863, VZ: -0.016291 
TIME: 14.747275, ROLL: -0.000311, PITCH: -0.003850, YAW: 0.020918, X: -0.027820, Y: -0.027136, ALTITUDE: 0.991404, VX: -0.120061, VY: 0.028863, VZ: -0.016291 
TIME: 14.799993, ROLL: -0.009309, PITCH: -0.001989, YAW: 0.023392, X: -0.027820, Y: -0.027136, ALTITUDE: 0.991404, VX: -0.120061, VY: 0.028863, VZ: -0.016291 
TIME: 14.852695, ROLL: -0.009309, PITCH: -0.001989, YAW: 0.023392, X: -0.050639, Y: -0.024915, ALTITUDE: 0.994764, VX: -0.101717, VY: 0.009900, VZ: -0.015841 
TIME: 14.905309, ROLL: -0.009309, PITCH: -0.001989, YAW: 0.023392, X: -0.050639, Y: -0.024915, ALTITUDE: 0.994764, VX: -0.101717, VY: 0.009900, VZ: -0.015841 
TIME: 14.959212, ROLL: -0.009309, PITCH: -0.001989, YAW: 0.023392, X: -0.050639, Y: -0.024915, ALTITUDE: 0.994764, VX: -0.101717, VY: 0.009900, VZ: -0.015841 
TIME: 15.013737, ROLL: 0.013579, PITCH: -0.008409, YAW: 0.018573, X: -0.050639, Y: -0.024915, ALTITUDE: 0.994764, VX: -0.101717, VY: 0.009900, VZ: -0.015841 
TIME: 15.067111, ROLL: 0.013579, PITCH: -0.008409, YAW: 0.018573, X: -0.070493, Y: -0.023367, ALTITUDE: 0.990629, VX: -0.097379, VY: 0.007591, VZ: -0.011832 
TIME: 15.120466, ROLL: 0.013579, PITCH: -0.008409, YAW: 0.018573, X: -0.070493, Y: -0.023367, ALTITUDE: 0.990629, VX: -0.097379, VY: 0.007591, VZ: -0.011832 
TIME: 15.173679, ROLL: 0.013579, PITCH: -0.008409, YAW: 0.018573, X: -0.070493, Y: -0.023367, ALTITUDE: 0.990629, VX: -0.097379, VY: 0.007591, VZ: -0.011832 
TIME: 15.226797, ROLL: 0.009033, PITCH: -0.020899, YAW: 0.014519, X: -0.070493, Y: -0.023367, ALTITUDE: 0.990629, VX: -0.097379, VY: 0.007591, VZ: -0.011832 
TIME: 15.279822, ROLL: 0.009033, PITCH: -0.020899, YAW: 0.014519, X: -0.082975, Y: -0.016681, ALTITUDE: 0.990331, VX: -0.059912, VY: 0.032095, VZ: -0.015654 
TIME: 15.332477, ROLL: 0.009033, PITCH: -0.020899, YAW: 0.014519, X: -0.082975, Y: -0.016681, ALTITUDE: 0.990331, VX: -0.059912, VY: 0.032095, VZ: -0.015654 
TIME: 15.385254, ROLL: 0.009033, PITCH: -0.020899, YAW: 0.014519, X: -0.082975, Y: -0.016681, ALTITUDE: 0.990331, VX: -0.059912, VY: 0.032095, VZ: -0.015654 
TIME: 15.438430, ROLL: 0.009033, PITCH: -0.020899, YAW: 0.014519, X: -0.082975, Y: -0.016681, ALTITUDE: 0.990331, VX: -0.059912, VY: 0.032095, VZ: -0.015654 
TIME: 15.491322, ROLL: -0.003071, PITCH: -0.013306, YAW: 0.007476, X: -0.086965, Y: -0.010900, ALTITUDE: 0.994150, VX: -0.016849, VY: 0.024411, VZ: -0.014986 
TIME: 15.543907, ROLL: -0.003071, PITCH: -0.013306, YAW: 0.007476, X: -0.086965, Y: -0.010900, ALTITUDE: 0.994150, VX: -0.016849, VY: 0.024411, VZ: -0.014986 
TIME: 15.596403, ROLL: -0.003071, PITCH: -0.013306, YAW: 0.007476, X: -0.086965, Y: -0.010900, ALTITUDE: 0.994150, VX: -0.016849, VY: 0.024411, VZ: -0.014986 
TIME: 15.649636, ROLL: 0.005647, PITCH: -0.015194, YAW: 0.003763, X: -0.086965, Y: -0.010900, ALTITUDE: 0.994150, VX: -0.016849, VY: 0.024411, VZ: -0.014986 
TIME: 15.702431, ROLL: 0.005647, PITCH: -0.015194, YAW: 0.003763, X: -0.085837, Y: -0.006193, ALTITUDE: 0.991665, VX: 0.005979, VY: 0.024959, VZ: -0.012074 
TIME: 15.755085, ROLL: 0.005647, PITCH: -0.015194, YAW: 0.003763, X: -0.085837, Y: -0.006193, ALTITUDE: 0.991665, VX: 0.005979, VY: 0.024959, VZ: -0.012074 
TIME: 15.807796, ROLL: 0.005647, PITCH: -0.015194, YAW: 0.003763, X: -0.085837, Y: -0.006193, ALTITUDE: 0.991665, VX: 0.005979, VY: 0.024959, VZ: -0.012074 
TIME: 15.860914, ROLL: -0.002087, PITCH: -0.011986, YAW: 0.004367, X: -0.085837, Y: -0.006193, ALTITUDE: 0.991665, VX: 0.005979, VY: 0.024959, VZ: -0.012074 
TIME: 15.914736, ROLL: -0.002087, PITCH: -0.011986, YAW: 0.004367, X: -0.079089, Y: 0.001839, ALTITUDE: 0.992873, VX: 0.031166, VY: 0.037095, VZ: -0.016993 
TIME: 15.967213, ROLL: -0.002087, PITCH: -0.011986, YAW: 0.004367, X: -0.079089, Y: 0.001839, ALTITUDE: 0.992873, VX: 0.031166, VY: 0.037095, VZ: -0.016993 
TIME: 16.019926, ROLL: -0.002087, PITCH: -0.011986, YAW: 0.004367, X: -0.079089, Y: 0.001839, ALTITUDE: 0.992873, VX: 0.031166, VY: 0.037095, VZ: -0.016993 
TIME: 16.072439, ROLL: -0.004532, PITCH: -0.008883, YAW: 0.009635, X: -0.079089, Y: 0.001839, ALTITUDE: 0.992873, VX: 0.031166, VY: 0.037095, VZ: -0.016993 
TIME: 16.125992, ROLL: -0.004532, PITCH: -0.008883, YAW: 0.009635, X: -0.069012, Y: 0.009640, ALTITUDE: 0.992873, VX: 0.044999, VY: 0.034834, VZ: -0.014062 
TIME: 16.178972, ROLL: -0.004532, PITCH: -0.008883, YAW: 0.009635, X: -0.069012, Y: 0.009640, ALTITUDE: 0.989411, VX: 0.044999, VY: 0.034834, VZ: -0.014062 
TIME: 16.231804, ROLL: -0.004532, PITCH: -0.008883, YAW: 0.009635, X: -0.069012, Y: 0.009640, ALTITUDE: 0.989411, VX: 0.044999, VY: 0.034834, VZ: -0.014062 
TIME: 16.284555, ROLL: -0.014955, PITCH: -0.011798, YAW: 0.014745, X: -0.069012, Y: 0.009640, ALTITUDE: 0.989411, VX: 0.044999, VY: 0.034834, VZ: -0.014062 
TIME: 16.337418, ROLL: -0.014955, PITCH: -0.011798, YAW: 0.014745, X: -0.055219, Y: 0.013309, ALTITUDE: 0.991133, VX: 0.071855, VY: 0.019115, VZ: -0.023006 
TIME: 16.389936, ROLL: -0.014955, PITCH: -0.011798, YAW: 0.014745, X: -0.055219, Y: 0.013309, ALTITUDE: 0.991133, VX: 0.071855, VY: 0.019115, VZ: -0.023006 
TIME: 16.443947, ROLL: -0.014955, PITCH: -0.011798, YAW: 0.014745, X: -0.055219, Y: 0.013309, ALTITUDE: 0.991133, VX: 0.071855, VY: 0.019115, VZ: -0.023006 
TIME: 16.465246, ROLL: -0.014955, PITCH: -0.011798, YAW: 0.014745, X: -0.055219, Y: 0.013309, ALTITUDE: 0.991133, VX: 0.071855, VY: 0.019115, VZ: -0.023006 
TIME: 16.474878, ROLL: -0.016489, PITCH: -0.002743, YAW: 0.016857, X: -0.037500, Y: 0.010356, ALTITUDE: 0.991133, VX: 0.095851, VY: -0.015974, VZ: -0.028495 
TIME: 16.486191, ROLL: -0.016489, PITCH: -0.002743, YAW: 0.016857, X: -0.037500, Y: 0.010356, ALTITUDE: 0.995706, VX: 0.095851, VY: -0.015974, VZ: -0.028495 
TIME: 16.497484, ROLL: -0.016489, PITCH: -0.002743, YAW: 0.016857, X: -0.037500, Y: 0.010356, ALTITUDE: 0.995706, VX: 0.095851, VY: -0.015974, VZ: -0.028495 
TIME: 16.509371, ROLL: 0.014232, PITCH: 0.001535, YAW: 0.014230, X: -0.037500, Y: 0.010356, ALTITUDE: 0.995706, VX: 0.095851, VY: -0.015974, VZ: -0.028495 
TIME: 16.521355, ROLL: 0.014232, PITCH: 0.001535, YAW: 0.014230, X: -0.034020, Y: 0.009906, ALTITUDE: 0.997601, VX: 0.093472, VY: -0.012085, VZ: -0.017702 
TIME: 16.537361, ROLL: 0.014232, PITCH: 0.001535, YAW: 0.014230, X: -0.034020, Y: 0.009906, ALTITUDE: 0.997601, VX: 0.093472, VY: -0.012085, VZ: -0.017702 
TIME: 16.547146, ROLL: 0.014232, PITCH: 0.001535, YAW: 0.014230, X: -0.034020, Y: 0.009906, ALTITUDE: 0.997601, VX: 0.093472, VY: -0.012085, VZ: -0.017702 
TIME: 16.568726, ROLL: 0.012780, PITCH: 0.004344, YAW: 0.008899, X: -0.034020, Y: 0.009906, ALTITUDE: 0.997601, VX: 0.093472, VY: -0.012085, VZ: -0.017702 
TIME: 16.621599, ROLL: 0.012780, PITCH: 0.004344, YAW: 0.008899, X: -0.028168, Y: 0.012416, ALTITUDE: 0.998642, VX: 0.094391, VY: 0.040484, VZ: -0.003358 
TIME: 16.674465, ROLL: 0.012780, PITCH: 0.004344, YAW: 0.008899, X: -0.028168, Y: 0.012416, ALTITUDE: 0.998642, VX: 0.094391, VY: 0.040484, VZ: -0.003358 
TIME: 16.727100, ROLL: 0.012780, PITCH: 0.004344, YAW: 0.008899, X: -0.028168, Y: 0.012416, ALTITUDE: 0.998642, VX: 0.094391, VY: 0.040484, VZ: -0.003358 
TIME: 16.779566, ROLL: -0.012523, PITCH: 0.014262, YAW: 0.011104, X: -0.028168, Y: 0.012416, ALTITUDE: 0.998642, VX: 0.094391, VY: 0.040484, VZ: -0.003358 
TIME: 16.832663, ROLL: -0.012523, PITCH: 0.014262, YAW: 0.011104, X: -0.009059, Y: 0.016447, ALTITUDE: 0.994220, VX: 0.088526, VY: 0.018674, VZ: 0.000956 
TIME: 16.885347, ROLL: -0.012523, PITCH: 0.014262, YAW: 0.011104, X: -0.009059, Y: 0.016447, ALTITUDE: 0.994220, VX: 0.088526, VY: 0.018674, VZ: 0.000956 
TIME: 16.938023, ROLL: -0.012523, PITCH: 0.014262, YAW: 0.011104, X: -0.009059, Y: 0.016447, ALTITUDE: 0.994220, VX: 0.088526, VY: 0.018674, VZ: 0.000956 
TIME: 16.990715, ROLL: 0.013454, PITCH: 0.018540, YAW: 0.018881, X: -0.009059, Y: 0.016447, ALTITUDE: 0.994220, VX: 0.088526, VY: 0.018674, VZ: 0.000956 
TIME: 17.036400, ROLL: 0.013454, PITCH: 0.018540, YAW: 0.018881, X: 0.006371, Y: 0.022915, ALTITUDE: 0.993993, VX: 0.072430, VY: 0.030360, VZ: -0.004576 
TIME: 17.047916, ROLL: 0.013454, PITCH: 0.018540, YAW: 0.018881, X: 0.006371, Y: 0.022915, ALTITUDE: 0.993993, VX: 0.072430, VY: 0.030360, VZ: -0.004576 
TIME: 17.063431, ROLL: 0.013454, PITCH: 0.018540, YAW: 0.018881, X: 0.006371, Y: 0.022915, ALTITUDE: 0.993993, VX: 0.072430, VY: 0.030360, VZ: -0.004576 
TIME: 17.075443, ROLL: 0.013454, PITCH: 0.018540, YAW: 0.018881, X: 0.006371, Y: 0.022915, ALTITUDE: 0.993993, VX: 0.072430, VY: 0.030360, VZ: -0.004576 
TIME: 17.090681, ROLL: 0.027685, PITCH: 0.023602, YAW: 0.031301, X: 0.010905, Y: 0.025345, ALTITUDE: 0.993993, VX: 0.054805, VY: 0.029378, VZ: -0.018667 
TIME: 17.102209, ROLL: 0.027685, PITCH: 0.023602, YAW: 0.031301, X: 0.010905, Y: 0.025345, ALTITUDE: 1.004737, VX: 0.054805, VY: 0.029378, VZ: -0.018667 
TIME: 17.128231, ROLL: 0.027685, PITCH: 0.023602, YAW: 0.031301, X: 0.010905, Y: 0.025345, ALTITUDE: 1.004737, VX: 0.054805, VY: 0.029378, VZ: -0.018667 
TIME: 17.165743, ROLL: 0.010411, PITCH: 0.016324, YAW: 0.040603, X: 0.010905, Y: 0.025345, ALTITUDE: 1.004737, VX: 0.054805, VY: 0.029378, VZ: -0.018667 
TIME: 17.218874, ROLL: 0.010411, PITCH: 0.016324, YAW: 0.040603, X: 0.012463, Y: 0.037156, ALTITUDE: 1.013102, VX: 0.017282, VY: 0.131067, VZ: -0.013445 
TIME: 17.271526, ROLL: 0.010411, PITCH: 0.016324, YAW: 0.040603, X: 0.012463, Y: 0.037156, ALTITUDE: 1.013102, VX: 0.017282, VY: 0.131067, VZ: -0.013445 
TIME: 17.324110, ROLL: 0.010411, PITCH: 0.016324, YAW: 0.040603, X: 0.012463, Y: 0.037156, ALTITUDE: 1.013102, VX: 0.017282, VY: 0.131067, VZ: -0.013445 
TIME: 17.377029, ROLL: 0.010411, PITCH: 0.016324, YAW: 0.040603, X: 0.012463, Y: 0.037156, ALTITUDE: 1.013102, VX: 0.017282, VY: 0.131067, VZ: -0.013445 
TIME: 17.430649, ROLL: -0.031259, PITCH: 0.016581, YAW: 0.043263, X: 0.016549, Y: 0.052350, ALTITUDE: 1.013102, VX: 0.016018, VY: 0.059551, VZ: -0.026745 
TIME: 17.459211, ROLL: -0.031259, PITCH: 0.016581, YAW: 0.043263, X: 0.016549, Y: 0.052350, ALTITUDE: 1.013092, VX: 0.016018, VY: 0.059551, VZ: -0.026745 
TIME: 17.512365, ROLL: -0.031259, PITCH: 0.016581, YAW: 0.043263, X: 0.016549, Y: 0.052350, ALTITUDE: 1.013092, VX: 0.016018, VY: 0.059551, VZ: -0.026745 
TIME: 17.565014, ROLL: -0.026176, PITCH: 0.014771, YAW: 0.040742, X: 0.016549, Y: 0.052350, ALTITUDE: 1.013092, VX: 0.016018, VY: 0.059551, VZ: -0.026745 
TIME: 17.618761, ROLL: -0.026176, PITCH: 0.014771, YAW: 0.040742, X: 0.018235, Y: 0.056087, ALTITUDE: 1.016727, VX: 0.011597, VY: 0.025719, VZ: -0.014776 
TIME: 17.671921, ROLL: -0.026176, PITCH: 0.014771, YAW: 0.040742, X: 0.018235, Y: 0.056087, ALTITUDE: 1.016727, VX: 0.011597, VY: 0.025719, VZ: -0.014776 
TIME: 17.724358, ROLL: -0.026176, PITCH: 0.014771, YAW: 0.040742, X: 0.018235, Y: 0.056087, ALTITUDE: 1.016727, VX: 0.011597, VY: 0.025719, VZ: -0.014776 
TIME: 17.777109, ROLL: 0.012699, PITCH: 0.010705, YAW: 0.038235, X: 0.018235, Y: 0.056087, ALTITUDE: 1.016727, VX: 0.011597, VY: 0.025719, VZ: -0.014776 
TIME: 17.829815, ROLL: 0.012699, PITCH: 0.010705, YAW: 0.038235, X: 0.021592, Y: 0.054464, ALTITUDE: 1.003001, VX: 0.015910, VY: -0.007694, VZ: 0.008033 
TIME: 17.882513, ROLL: 0.012699, PITCH: 0.010705, YAW: 0.038235, X: 0.021592, Y: 0.054464, ALTITUDE: 1.003001, VX: 0.015910, VY: -0.007694, VZ: 0.008033 
TIME: 17.935148, ROLL: 0.012699, PITCH: 0.010705, YAW: 0.038235, X: 0.021592, Y: 0.054464, ALTITUDE: 1.003001, VX: 0.015910, VY: -0.007694, VZ: 0.008033 
TIME: 17.954700, ROLL: 0.012699, PITCH: 0.010705, YAW: 0.038235, X: 0.021592, Y: 0.054464, ALTITUDE: 1.003001, VX: 0.015910, VY: -0.007694, VZ: 0.008033 
TIME: 17.964087, ROLL: 0.030420, PITCH: 0.005162, YAW: 0.035275, X: 0.024569, Y: 0.072156, ALTITUDE: 1.003001, VX: 0.016839, VY: 0.100068, VZ: -0.010748 
TIME: 17.979959, ROLL: 0.030420, PITCH: 0.005162, YAW: 0.035275, X: 0.024569, Y: 0.072156, ALTITUDE: 0.990882, VX: 0.016839, VY: 0.100068, VZ: -0.010748 
TIME: 18.017624, ROLL: 0.030420, PITCH: 0.005162, YAW: 0.035275, X: 0.024569, Y: 0.072156, ALTITUDE: 0.990882, VX: 0.016839, VY: 0.100068, VZ: -0.010748 
TIME: 18.070627, ROLL: -0.006189, PITCH: 0.016939, YAW: 0.031550, X: 0.024569, Y: 0.072156, ALTITUDE: 0.990882, VX: 0.016839, VY: 0.100068, VZ: -0.010748 
TIME: 18.123684, ROLL: -0.006189, PITCH: 0.016939, YAW: 0.031550, X: 0.026283, Y: 0.080162, ALTITUDE: 0.985971, VX: 0.014050, VY: 0.065631, VZ: -0.023417 
TIME: 18.176453, ROLL: -0.006189, PITCH: 0.016939, YAW: 0.031550, X: 0.026283, Y: 0.080162, ALTITUDE: 0.985971, VX: 0.014050, VY: 0.065631, VZ: -0.023417 
TIME: 18.229246, ROLL: -0.006189, PITCH: 0.016939, YAW: 0.031550, X: 0.026283, Y: 0.080162, ALTITUDE: 0.985971, VX: 0.014050, VY: 0.065631, VZ: -0.023417 
TIME: 18.282043, ROLL: -0.025248, PITCH: 0.011103, YAW: 0.027010, X: 0.026283, Y: 0.080162, ALTITUDE: 0.985971, VX: 0.014050, VY: 0.065631, VZ: -0.023417 
TIME: 18.333841, ROLL: -0.025248, PITCH: 0.011103, YAW: 0.027010, X: 0.028328, Y: 0.088119, ALTITUDE: 0.997684, VX: 0.009821, VY: 0.038210, VZ: -0.026314 
TIME: 18.348629, ROLL: -0.025248, PITCH: 0.011103, YAW: 0.027010, X: 0.028328, Y: 0.088119, ALTITUDE: 0.997684, VX: 0.009821, VY: 0.038210, VZ: -0.026314 
TIME: 18.366764, ROLL: -0.025248, PITCH: 0.011103, YAW: 0.027010, X: 0.028328, Y: 0.088119, ALTITUDE: 0.997684, VX: 0.009821, VY: 0.038210, VZ: -0.026314 
TIME: 18.381304, ROLL: 0.020719, PITCH: 0.012589, YAW: 0.017923, X: 0.028328, Y: 0.088119, ALTITUDE: 0.997684, VX: 0.009821, VY: 0.038210, VZ: -0.026314 
TIME: 18.396757, ROLL: 0.020719, PITCH: 0.012589, YAW: 0.017923, X: 0.030569, Y: 0.087733, ALTITUDE: 0.992407, VX: 0.023621, VY: -0.004064, VZ: -0.014517 
TIME: 18.407206, ROLL: 0.020719, PITCH: 0.012589, YAW: 0.017923, X: 0.030569, Y: 0.087733, ALTITUDE: 0.992407, VX: 0.023621, VY: -0.004064, VZ: -0.014517 
TIME: 18.461239, ROLL: 0.020719, PITCH: 0.012589, YAW: 0.017923, X: 0.030569, Y: 0.087733, ALTITUDE: 0.992407, VX: 0.023621, VY: -0.004064, VZ: -0.014517 
TIME: 18.514353, ROLL: 0.038640, PITCH: 0.006049, YAW: 0.006595, X: 0.030569, Y: 0.087733, ALTITUDE: 0.992407, VX: 0.023621, VY: -0.004064, VZ: -0.014517 
TIME: 18.567951, ROLL: 0.038640, PITCH: 0.006049, YAW: 0.006595, X: 0.031631, Y: 0.106520, ALTITUDE: 0.991994, VX: 0.007599, VY: 0.134432, VZ: -0.014306 
TIME: 18.620979, ROLL: 0.038640, PITCH: 0.006049, YAW: 0.006595, X: 0.031631, Y: 0.106520, ALTITUDE: 0.991994, VX: 0.007599, VY: 0.134432, VZ: -0.014306 
TIME: 18.674206, ROLL: 0.038640, PITCH: 0.006049, YAW: 0.006595, X: 0.031631, Y: 0.106520, ALTITUDE: 0.991994, VX: 0.007599, VY: 0.134432, VZ: -0.014306 
TIME: 18.727600, ROLL: 0.038640, PITCH: 0.006049, YAW: 0.006595, X: 0.031631, Y: 0.106520, ALTITUDE: 0.991994, VX: 0.007599, VY: 0.134432, VZ: -0.014306 
TIME: 18.781391, ROLL: -0.019530, PITCH: 0.009597, YAW: -0.005545, X: 0.032479, Y: 0.130575, ALTITUDE: 0.991994, VX: 0.003571, VY: 0.101308, VZ: -0.001448 
TIME: 18.834555, ROLL: -0.019530, PITCH: 0.009597, YAW: -0.005545, X: 0.032479, Y: 0.130575, ALTITUDE: 0.993906, VX: 0.003571, VY: 0.101308, VZ: -0.001448 
TIME: 18.887695, ROLL: -0.019530, PITCH: 0.009597, YAW: -0.005545, X: 0.032479, Y: 0.130575, ALTITUDE: 0.993906, VX: 0.003571, VY: 0.101308, VZ: -0.001448 
TIME: 18.940847, ROLL: -0.006415, PITCH: 0.006102, YAW: -0.015145, X: 0.032479, Y: 0.130575, ALTITUDE: 0.993906, VX: 0.003571, VY: 0.101308, VZ: -0.001448 
TIME: 18.994764, ROLL: -0.006415, PITCH: 0.006102, YAW: -0.015145, X: 0.033712, Y: 0.145585, ALTITUDE: 0.995122, VX: 0.006495, VY: 0.079053, VZ: -0.002143 
TIME: 19.047348, ROLL: -0.006415, PITCH: 0.006102, YAW: -0.015145, X: 0.033712, Y: 0.145585, ALTITUDE: 0.995122, VX: 0.006495, VY: 0.079053, VZ: -0.002143 
TIME: 19.100031, ROLL: -0.006415, PITCH: 0.006102, YAW: -0.015145, X: 0.033712, Y: 0.145585, ALTITUDE: 0.995122, VX: 0.006495, VY: 0.079053, VZ: -0.002143 
