TIME: 0.000573, ROLL: 0.000000, PITCH: 0.000000, YAW: 0.000000, X: 0.000000, Y: 0.000000, ALTITUDE: 0.000000, VX: 0.000000, VY: 0.000000, VZ: 0.000000 
TIME: 0.054643, ROLL: 0.013947, PITCH: 0.022963, YAW: -0.000530, X: 0.000000, Y: 0.000000, ALTITUDE: 0.000000, VX: 0.000000, VY: 0.000000, VZ: 0.000000 
TIME: 0.107482, ROLL: 0.013947, PITCH: 0.022963, YAW: -0.000530, X: 0.000000, Y: 0.000000, ALTITUDE: -0.000000, VX: 0.000000, VY: 0.000000, VZ: 0.000000 
TIME: 0.160328, ROLL: 0.013947, PITCH: 0.022963, YAW: -0.000530, X: 0.000000, Y: 0.000000, ALTITUDE: -0.000000, VX: 0.000000, VY: 0.000000, VZ: 0.000000 
TIME: 0.213257, ROLL: 0.013878, PITCH: 0.023110, YAW: -0.000561, X: 0.000000, Y: 0.000000, ALTITUDE: -0.000000, VX: 0.000000, VY: 0.000000, VZ: 0.000000 
TIME: 0.266147, ROLL: 0.013878, PITCH: 0.023110, YAW: -0.000561, X: 0.000000, Y: 0.000000, ALTITUDE: -0.000000, VX: 0.000000, VY: 0.000000, VZ: 0.000000 
TIME: 0.320319, ROLL: 0.013878, PITCH: 0.023110, YAW: -0.000561, X: 0.000000, Y: 0.000000, ALTITUDE: -0.000000, VX: 0.000000, VY: 0.000000, VZ: 0.000000 
TIME: 0.373930, ROLL: 0.013878, PITCH: 0.023110, YAW: -0.000561, X: 0.000000, Y: 0.000000, ALTITUDE: -0.000000, VX: 0.000000, VY: 0.000000, VZ: 0.000000 
TIME: 0.427161, ROLL: 0.013930, PITCH: 0.023241, YAW: -0.000579, X: 0.000000, Y: 0.000000, ALTITUDE: -0.000000, VX: 0.000000, VY: 0.000000, VZ: 0.000000 
TIME: 0.480678, ROLL: 0.013930, PITCH: 0.023241, YAW: -0.000579, X: 0.000000, Y: 0.000000, ALTITUDE: -0.000000, VX: 0.000000, VY: 0.000000, VZ: 0.000000 
TIME: 0.533808, ROLL: 0.013930, PITCH: 0.023241, YAW: -0.000579, X: 0.000000, Y: 0.000000, ALTITUDE: -0.000000, VX: 0.000000, VY: 0.000000, VZ: 0.000000 
TIME: 0.587525, ROLL: 0.013930, PITCH: 0.023241, YAW: -0.000579, X: 0.000000, Y: 0.000000, ALTITUDE: -0.000000, VX: 0.000000, VY: 0.000000, VZ: 0.000000 
TIME: 0.640950, ROLL: 0.013966, PITCH: 0.023068, YAW: -0.000586, X: 0.000000, Y: 0.000000, ALTITUDE: -0.000000, VX: 0.000000, VY: 0.000000, VZ: 0.000000 
TIME: 0.694591, ROLL: 0.013966, PITCH: 0.023068, YAW: -0.000586, X: 0.000000, Y: 0.000000, ALTITUDE: -0.000000, VX: 0.000000, VY: 0.000000, VZ: 0.000000 
TIME: 0.747896, ROLL: 0.013966, PITCH: 0.023068, YAW: -0.000586, X: 0.000000, Y: 0.000000, ALTITUDE: -0.000000, VX: 0.000000, VY: 0.000000, VZ: 0.000000 
TIME: 0.801300, ROLL: 0.013966, PITCH: 0.023068, YAW: -0.000586, X: 0.000000, Y: 0.000000, ALTITUDE: -0.000000, VX: 0.000000, VY: 0.000000, VZ: 0.000000 
TIME: 0.854415, ROLL: 0.014148, PITCH: 0.023114, YAW: -0.000634, X: 0.000000, Y: 0.000000, ALTITUDE: -0.000000, VX: 0.000000, VY: 0.000000, VZ: 0.000000 
TIME: 0.907402, ROLL: 0.014148, PITCH: 0.023114, YAW: -0.000634, X: 0.000000, Y: 0.000000, ALTITUDE: -0.000000, VX: 0.000000, VY: 0.000000, VZ: 0.000000 
TIME: 0.960458, ROLL: 0.014148, PITCH: 0.023114, YAW: -0.000634, X: 0.000000, Y: 0.000000, ALTITUDE: -0.000000, VX: 0.000000, VY: 0.000000, VZ: 0.000000 
TIME: 1.013418, ROLL: 0.014148, PITCH: 0.023114, YAW: -0.000634, X: 0.000000, Y: 0.000000, ALTITUDE: -0.000000, VX: 0.000000, VY: 0.000000, VZ: 0.000000 
TIME: 1.067708, ROLL: 0.014148, PITCH: 0.023114, YAW: -0.000634, X: 0.000000, Y: 0.000000, ALTITUDE: -0.000000, VX: 0.000000, VY: 0.000000, VZ: 0.000000 
TIME: 1.120615, ROLL: 0.014108, PITCH: 0.023131, YAW: -0.000633, X: 0.000000, Y: 0.000000, ALTITUDE: -0.000000, VX: 0.000000, VY: 0.000000, VZ: 0.000000 
TIME: 1.173516, ROLL: 0.014108, PITCH: 0.023131, YAW: -0.000633, X: 0.000000, Y: 0.000000, ALTITUDE: -0.000000, VX: 0.000000, VY: 0.000000, VZ: 0.000000 
TIME: 1.226058, ROLL: 0.014108, PITCH: 0.023131, YAW: -0.000633, X: 0.000000, Y: 0.000000, ALTITUDE: -0.000000, VX: 0.000000, VY: 0.000000, VZ: 0.000000 
TIME: 1.279130, ROLL: 0.014081, PITCH: 0.023123, YAW: -0.000661, X: 0.000000, Y: 0.000000, ALTITUDE: -0.000000, VX: 0.000000, VY: 0.000000, VZ: 0.000000 
TIME: 1.332340, ROLL: 0.014081, PITCH: 0.023123, YAW: -0.000661, X: 0.000000, Y: 0.000000, ALTITUDE: -0.000000, VX: 0.000000, VY: 0.000000, VZ: 0.000000 
TIME: 1.385849, ROLL: 0.014081, PITCH: 0.023123, YAW: -0.000661, X: 0.000000, Y: 0.000000, ALTITUDE: -0.000000, VX: 0.000000, VY: 0.000000, VZ: 0.000000 
TIME: 1.419216, ROLL: 0.014081, PITCH: 0.023123, YAW: -0.000661, X: 0.000000, Y: 0.000000, ALTITUDE: -0.000000, VX: 0.000000, VY: 0.000000, VZ: 0.000000 
TIME: 1.441921, ROLL: 0.013931, PITCH: 0.023026, YAW: -0.000703, X: 0.000000, Y: 0.000000, ALTITUDE: -0.000000, VX: 0.000000, VY: 0.000000, VZ: 0.000000 
TIME: 1.469348, ROLL: 0.013931, PITCH: 0.023026, YAW: -0.000703, X: 0.000000, Y: 0.000000, ALTITUDE: -0.000000, VX: 0.000000, VY: 0.000000, VZ: 0.000000 
TIME: 1.506152, ROLL: 0.013931, PITCH: 0.023026, YAW: -0.000703, X: 0.000000, Y: 0.000000, ALTITUDE: -0.000000, VX: 0.000000, VY: 0.000000, VZ: 0.000000 
TIME: 1.548865, ROLL: 0.013931, PITCH: 0.023026, YAW: -0.000703, X: 0.000000, Y: 0.000000, ALTITUDE: -0.000000, VX: 0.000000, VY: 0.000000, VZ: 0.000000 
TIME: 1.601778, ROLL: 0.013728, PITCH: 0.023149, YAW: -0.000739, X: 0.000000, Y: 0.000000, ALTITUDE: -0.000000, VX: 0.000000, VY: 0.000000, VZ: 0.000000 
TIME: 1.654659, ROLL: 0.013728, PITCH: 0.023149, YAW: -0.000739, X: 0.000000, Y: 0.000000, ALTITUDE: -0.000000, VX: 0.000000, VY: 0.000000, VZ: 0.000000 
TIME: 1.707546, ROLL: 0.013728, PITCH: 0.023149, YAW: -0.000739, X: 0.000000, Y: 0.000000, ALTITUDE: -0.000000, VX: 0.000000, VY: 0.000000, VZ: 0.000000 
TIME: 1.760037, ROLL: 0.013728, PITCH: 0.023149, YAW: -0.000739, X: 0.000000, Y: 0.000000, ALTITUDE: -0.000000, VX: 0.000000, VY: 0.000000, VZ: 0.000000 
TIME: 1.812778, ROLL: 0.013666, PITCH: 0.023093, YAW: -0.000747, X: 0.000000, Y: 0.000000, ALTITUDE: -0.000000, VX: 0.000000, VY: 0.000000, VZ: 0.000000 
TIME: 1.865537, ROLL: 0.013666, PITCH: 0.023093, YAW: -0.000747, X: 0.000000, Y: 0.000000, ALTITUDE: -0.000000, VX: 0.000000, VY: 0.000000, VZ: 0.000000 
TIME: 1.918226, ROLL: 0.013666, PITCH: 0.023093, YAW: -0.000747, X: 0.000000, Y: 0.000000, ALTITUDE: -0.000000, VX: 0.000000, VY: 0.000000, VZ: 0.000000 
TIME: 1.970998, ROLL: 0.013666, PITCH: 0.023093, YAW: -0.000747, X: 0.000000, Y: 0.000000, ALTITUDE: -0.000000, VX: 0.000000, VY: 0.000000, VZ: 0.000000 
TIME: 2.023859, ROLL: 0.013666, PITCH: 0.023093, YAW: -0.000747, X: 0.000000, Y: 0.000000, ALTITUDE: -0.000000, VX: 0.000000, VY: 0.000000, VZ: 0.000000 
TIME: 2.076862, ROLL: 0.013776, PITCH: 0.023161, YAW: -0.000750, X: 0.000000, Y: 0.000000, ALTITUDE: -0.000000, VX: 0.000000, VY: 0.000000, VZ: 0.000000 
TIME: 2.129997, ROLL: 0.013776, PITCH: 0.023161, YAW: -0.000750, X: 0.000000, Y: 0.000000, ALTITUDE: -0.000000, VX: 0.000000, VY: 0.000000, VZ: 0.000000 
TIME: 2.161737, ROLL: 0.013776, PITCH: 0.023161, YAW: -0.000750, X: 0.000000, Y: 0.000000, ALTITUDE: -0.000000, VX: 0.000000, VY: 0.000000, VZ: 0.000000 
TIME: 2.210781, ROLL: 0.014248, PITCH: 0.023227, YAW: -0.000766, X: 0.000000, Y: 0.000000, ALTITUDE: -0.000000, VX: 0.000000, VY: 0.000000, VZ: 0.000000 
TIME: 2.263653, ROLL: 0.014248, PITCH: 0.023227, YAW: -0.000766, X: 0.000000, Y: 0.000000, ALTITUDE: -0.000000, VX: 0.000000, VY: 0.000000, VZ: 0.000000 
TIME: 2.316326, ROLL: 0.014248, PITCH: 0.023227, YAW: -0.000766, X: 0.000000, Y: 0.000000, ALTITUDE: -0.000000, VX: 0.000000, VY: 0.000000, VZ: 0.000000 
TIME: 2.369830, ROLL: 0.014248, PITCH: 0.023227, YAW: -0.000766, X: 0.000000, Y: 0.000000, ALTITUDE: -0.000000, VX: 0.000000, VY: 0.000000, VZ: 0.000000 
TIME: 2.422642, ROLL: 0.014006, PITCH: 0.023433, YAW: -0.000815, X: 0.000000, Y: 0.000000, ALTITUDE: -0.000000, VX: 0.000000, VY: 0.000000, VZ: 0.000000 
TIME: 2.475712, ROLL: 0.014006, PITCH: 0.023433, YAW: -0.000815, X: 0.000000, Y: 0.000000, ALTITUDE: -0.000000, VX: 0.000000, VY: 0.000000, VZ: 0.000000 
TIME: 2.528778, ROLL: 0.014006, PITCH: 0.023433, YAW: -0.000815, X: 0.000000, Y: 0.000000, ALTITUDE: -0.000000, VX: 0.000000, VY: 0.000000, VZ: 0.000000 
TIME: 2.581819, ROLL: 0.014006, PITCH: 0.023433, YAW: -0.000815, X: 0.000000, Y: 0.000000, ALTITUDE: -0.000000, VX: 0.000000, VY: 0.000000, VZ: 0.000000 
TIME: 2.634540, ROLL: 0.014141, PITCH: 0.023257, YAW: -0.000846, X: 0.000000, Y: 0.000000, ALTITUDE: -0.000000, VX: 0.000000, VY: 0.000000, VZ: 0.000000 
TIME: 2.687582, ROLL: 0.014141, PITCH: 0.023257, YAW: -0.000846, X: 0.000000, Y: 0.000000, ALTITUDE: -0.000000, VX: 0.000000, VY: 0.000000, VZ: 0.000000 
TIME: 2.740631, ROLL: 0.014141, PITCH: 0.023257, YAW: -0.000846, X: 0.000000, Y: 0.000000, ALTITUDE: -0.000000, VX: 0.000000, VY: 0.000000, VZ: 0.000000 
TIME: 2.793390, ROLL: 0.014141, PITCH: 0.023257, YAW: -0.000846, X: 0.000000, Y: 0.000000, ALTITUDE: -0.000000, VX: 0.000000, VY: 0.000000, VZ: 0.000000 
TIME: 2.846813, ROLL: 0.014095, PITCH: 0.023160, YAW: -0.000856, X: 0.000000, Y: 0.000000, ALTITUDE: -0.000000, VX: 0.000000, VY: 0.000000, VZ: 0.000000 
TIME: 2.870206, ROLL: 0.014095, PITCH: 0.023160, YAW: -0.000856, X: 0.000000, Y: 0.000000, ALTITUDE: -0.000000, VX: 0.000000, VY: 0.000000, VZ: 0.000000 
TIME: 2.879665, ROLL: 0.014095, PITCH: 0.023160, YAW: -0.000856, X: 0.000000, Y: 0.000000, ALTITUDE: -0.000000, VX: 0.000000, VY: 0.000000, VZ: 0.000000 
TIME: 2.895881, ROLL: 0.014095, PITCH: 0.023160, YAW: -0.000856, X: 0.000000, Y: 0.000000, ALTITUDE: -0.000000, VX: 0.000000, VY: 0.000000, VZ: 0.000000 
TIME: 2.905521, ROLL: 0.014095, PITCH: 0.023160, YAW: -0.000856, X: 0.000000, Y: 0.000000, ALTITUDE: -0.000000, VX: 0.000000, VY: 0.000000, VZ: 0.000000 
TIME: 2.929695, ROLL: 0.014125, PITCH: 0.023305, YAW: -0.000893, X: 0.000000, Y: 0.000000, ALTITUDE: -0.000000, VX: 0.000000, VY: 0.000000, VZ: 0.000000 
TIME: 2.982456, ROLL: 0.014125, PITCH: 0.023305, YAW: -0.000893, X: 0.000000, Y: 0.000000, ALTITUDE: -0.000000, VX: 0.000000, VY: 0.000000, VZ: 0.000000 
TIME: 3.035924, ROLL: 0.014125, PITCH: 0.023305, YAW: -0.000893, X: 0.000000, Y: 0.000000, ALTITUDE: -0.000000, VX: 0.000000, VY: 0.000000, VZ: 0.000000 
TIME: 3.088683, ROLL: 0.014135, PITCH: 0.023294, YAW: -0.000830, X: 0.000000, Y: 0.000000, ALTITUDE: -0.000000, VX: 0.000000, VY: 0.000000, VZ: 0.000000 
TIME: 3.141248, ROLL: 0.014135, PITCH: 0.023294, YAW: -0.000830, X: 0.000000, Y: 0.000000, ALTITUDE: -0.000000, VX: 0.000000, VY: 0.000000, VZ: 0.000000 
TIME: 3.193995, ROLL: 0.014135, PITCH: 0.023294, YAW: -0.000830, X: 0.000000, Y: 0.000000, ALTITUDE: -0.000000, VX: 0.000000, VY: 0.000000, VZ: 0.000000 
TIME: 3.246740, ROLL: 0.014135, PITCH: 0.023294, YAW: -0.000830, X: 0.000000, Y: 0.000000, ALTITUDE: -0.000000, VX: 0.000000, VY: 0.000000, VZ: 0.000000 
TIME: 3.299577, ROLL: 0.014075, PITCH: 0.023218, YAW: -0.000843, X: 0.000000, Y: 0.000000, ALTITUDE: -0.000000, VX: 0.000000, VY: 0.000000, VZ: 0.000000 
TIME: 3.352220, ROLL: 0.014075, PITCH: 0.023218, YAW: -0.000843, X: 0.000000, Y: 0.000000, ALTITUDE: -0.000000, VX: 0.000000, VY: 0.000000, VZ: 0.000000 
TIME: 3.404892, ROLL: 0.014075, PITCH: 0.023218, YAW: -0.000843, X: 0.000000, Y: 0.000000, ALTITUDE: -0.000000, VX: 0.000000, VY: 0.000000, VZ: 0.000000 
TIME: 3.457618, ROLL: 0.014075, PITCH: 0.023218, YAW: -0.000843, X: 0.000000, Y: 0.000000, ALTITUDE: -0.000000, VX: 0.000000, VY: 0.000000, VZ: 0.000000 
TIME: 3.510584, ROLL: 0.013891, PITCH: 0.023234, YAW: -0.000857, X: 0.000000, Y: 0.000000, ALTITUDE: -0.000000, VX: 0.000000, VY: 0.000000, VZ: 0.000000 
TIME: 3.563474, ROLL: 0.013891, PITCH: 0.023234, YAW: -0.000857, X: 0.000000, Y: 0.000000, ALTITUDE: -0.000000, VX: 0.000000, VY: 0.000000, VZ: 0.000000 
TIME: 3.616843, ROLL: 0.013891, PITCH: 0.023234, YAW: -0.000857, X: 0.000000, Y: 0.000000, ALTITUDE: -0.000000, VX: 0.000000, VY: 0.000000, VZ: 0.000000 
TIME: 3.669028, ROLL: 0.013891, PITCH: 0.023234, YAW: -0.000857, X: 0.000000, Y: 0.000000, ALTITUDE: -0.000000, VX: 0.000000, VY: 0.000000, VZ: 0.000000 
TIME: 3.721812, ROLL: 0.013855, PITCH: 0.023238, YAW: -0.000840, X: 0.000000, Y: 0.000000, ALTITUDE: -0.000000, VX: 0.000000, VY: 0.000000, VZ: 0.000000 
TIME: 3.774817, ROLL: 0.013855, PITCH: 0.023238, YAW: -0.000840, X: 0.000000, Y: 0.000000, ALTITUDE: -0.000000, VX: 0.000000, VY: 0.000000, VZ: 0.000000 
TIME: 3.827327, ROLL: 0.013855, PITCH: 0.023238, YAW: -0.000840, X: 0.000000, Y: 0.000000, ALTITUDE: -0.000000, VX: 0.000000, VY: 0.000000, VZ: 0.000000 
TIME: 3.879912, ROLL: 0.013855, PITCH: 0.023238, YAW: -0.000840, X: 0.000000, Y: 0.000000, ALTITUDE: -0.000000, VX: 0.000000, VY: 0.000000, VZ: 0.000000 
TIME: 3.932757, ROLL: 0.013855, PITCH: 0.023238, YAW: -0.000840, X: 0.000000, Y: 0.000000, ALTITUDE: -0.000000, VX: 0.000000, VY: 0.000000, VZ: 0.000000 
TIME: 3.985248, ROLL: 0.013839, PITCH: 0.023191, YAW: -0.000819, X: 0.000000, Y: 0.000000, ALTITUDE: -0.000000, VX: 0.000000, VY: 0.000000, VZ: 0.000000 
TIME: 4.038024, ROLL: 0.013839, PITCH: 0.023191, YAW: -0.000819, X: 0.000000, Y: 0.000000, ALTITUDE: -0.000000, VX: 0.000000, VY: 0.000000, VZ: 0.000000 
TIME: 4.090795, ROLL: 0.013839, PITCH: 0.023191, YAW: -0.000819, X: 0.000000, Y: 0.000000, ALTITUDE: -0.000000, VX: 0.000000, VY: 0.000000, VZ: 0.000000 
TIME: 4.143496, ROLL: 0.013839, PITCH: 0.023191, YAW: -0.000819, X: 0.000000, Y: 0.000000, ALTITUDE: -0.000000, VX: 0.000000, VY: 0.000000, VZ: 0.000000 
TIME: 4.196149, ROLL: 0.013839, PITCH: 0.023191, YAW: -0.000819, X: 0.000000, Y: 0.000000, ALTITUDE: -0.000000, VX: 0.000000, VY: 0.000000, VZ: 0.000000 
TIME: 4.249063, ROLL: 0.013687, PITCH: 0.023327, YAW: -0.000812, X: 0.000000, Y: 0.000000, ALTITUDE: -0.000000, VX: 0.000000, VY: 0.000000, VZ: 0.000000 
TIME: 4.301911, ROLL: 0.013687, PITCH: 0.023327, YAW: -0.000812, X: 0.000000, Y: 0.000000, ALTITUDE: -0.000000, VX: 0.000000, VY: 0.000000, VZ: 0.000000 
TIME: 4.354582, ROLL: 0.013687, PITCH: 0.023327, YAW: -0.000812, X: 0.000000, Y: 0.000000, ALTITUDE: -0.000000, VX: 0.000000, VY: 0.000000, VZ: 0.000000 
TIME: 4.407417, ROLL: 0.013804, PITCH: 0.023094, YAW: -0.000819, X: 0.000000, Y: 0.000000, ALTITUDE: -0.000000, VX: 0.000000, VY: 0.000000, VZ: 0.000000 
TIME: 4.460152, ROLL: 0.013804, PITCH: 0.023094, YAW: -0.000819, X: 0.000000, Y: 0.000000, ALTITUDE: -0.000000, VX: 0.000000, VY: 0.000000, VZ: 0.000000 
TIME: 4.512871, ROLL: 0.013804, PITCH: 0.023094, YAW: -0.000819, X: 0.000000, Y: 0.000000, ALTITUDE: -0.000000, VX: 0.000000, VY: 0.000000, VZ: 0.000000 
TIME: 4.565573, ROLL: 0.013804, PITCH: 0.023094, YAW: -0.000819, X: 0.000000, Y: 0.000000, ALTITUDE: -0.000000, VX: 0.000000, VY: 0.000000, VZ: 0.000000 
TIME: 4.618347, ROLL: 0.013984, PITCH: 0.023174, YAW: -0.000841, X: 0.000000, Y: 0.000000, ALTITUDE: -0.000000, VX: 0.000000, VY: 0.000000, VZ: 0.000000 
TIME: 4.671088, ROLL: 0.013984, PITCH: 0.023174, YAW: -0.000841, X: 0.000000, Y: 0.000000, ALTITUDE: -0.000000, VX: 0.000000, VY: 0.000000, VZ: 0.000000 
TIME: 4.723764, ROLL: 0.013984, PITCH: 0.023174, YAW: -0.000841, X: 0.000000, Y: 0.000000, ALTITUDE: -0.000000, VX: 0.000000, VY: 0.000000, VZ: 0.000000 
TIME: 4.776656, ROLL: 0.013984, PITCH: 0.023174, YAW: -0.000841, X: 0.000000, Y: 0.000000, ALTITUDE: -0.000000, VX: 0.000000, VY: 0.000000, VZ: 0.000000 
TIME: 4.829472, ROLL: 0.013984, PITCH: 0.023174, YAW: -0.000841, X: 0.000000, Y: 0.000000, ALTITUDE: -0.000000, VX: 0.000000, VY: 0.000000, VZ: 0.000000 
TIME: 4.882373, ROLL: 0.013745, PITCH: 0.023315, YAW: -0.000819, X: 0.000000, Y: 0.000000, ALTITUDE: -0.000000, VX: 0.000000, VY: 0.000000, VZ: 0.000000 
TIME: 4.934971, ROLL: 0.013745, PITCH: 0.023315, YAW: -0.000819, X: 0.000000, Y: 0.000000, ALTITUDE: -0.000000, VX: 0.000000, VY: 0.000000, VZ: 0.000000 
TIME: 4.987838, ROLL: 0.013745, PITCH: 0.023315, YAW: -0.000819, X: 0.000000, Y: 0.000000, ALTITUDE: -0.000000, VX: 0.000000, VY: 0.000000, VZ: 0.000000 
TIME: 5.040612, ROLL: 0.013745, PITCH: 0.023315, YAW: -0.000819, X: 0.000000, Y: 0.000000, ALTITUDE: -0.000000, VX: 0.000000, VY: 0.000000, VZ: 0.000000 
TIME: 5.093533, ROLL: 0.013802, PITCH: 0.023260, YAW: -0.000826, X: 0.000000, Y: 0.000000, ALTITUDE: -0.000000, VX: 0.000000, VY: 0.000000, VZ: 0.000000 
TIME: 5.146228, ROLL: 0.013802, PITCH: 0.023260, YAW: -0.000826, X: 0.000000, Y: 0.000000, ALTITUDE: -0.000000, VX: 0.000000, VY: 0.000000, VZ: 0.000000 
TIME: 5.198965, ROLL: 0.014010, PITCH: 0.023372, YAW: -0.000788, X: 0.000000, Y: 0.000000, ALTITUDE: -0.000000, VX: 0.000000, VY: 0.000000, VZ: 0.000000 
TIME: 5.251450, ROLL: 0.014010, PITCH: 0.023372, YAW: -0.000788, X: 0.000000, Y: 0.000000, ALTITUDE: -0.000000, VX: 0.000000, VY: 0.000000, VZ: 0.000000 
TIME: 5.304267, ROLL: 0.014010, PITCH: 0.023372, YAW: -0.000788, X: 0.000000, Y: 0.000000, ALTITUDE: -0.000000, VX: 0.000000, VY: 0.000000, VZ: 0.000000 
TIME: 5.356920, ROLL: 0.014010, PITCH: 0.023372, YAW: -0.000788, X: 0.000000, Y: 0.000000, ALTITUDE: -0.000000, VX: 0.000000, VY: 0.000000, VZ: 0.000000 
TIME: 5.409695, ROLL: 0.013935, PITCH: 0.023461, YAW: -0.000812, X: 0.000000, Y: 0.000000, ALTITUDE: -0.000000, VX: 0.000000, VY: 0.000000, VZ: 0.000000 
TIME: 5.462314, ROLL: 0.013935, PITCH: 0.023461, YAW: -0.000812, X: 0.000000, Y: 0.000000, ALTITUDE: -0.000000, VX: 0.000000, VY: 0.000000, VZ: 0.000000 
TIME: 5.515061, ROLL: 0.013935, PITCH: 0.023461, YAW: -0.000812, X: 0.000000, Y: 0.000000, ALTITUDE: -0.000000, VX: 0.000000, VY: 0.000000, VZ: 0.000000 
TIME: 5.567654, ROLL: 0.013935, PITCH: 0.023461, YAW: -0.000812, X: 0.000000, Y: 0.000000, ALTITUDE: -0.000000, VX: 0.000000, VY: 0.000000, VZ: 0.000000 
TIME: 5.620391, ROLL: 0.013979, PITCH: 0.023379, YAW: -0.000821, X: 0.000000, Y: 0.000000, ALTITUDE: -0.000000, VX: 0.000000, VY: 0.000000, VZ: 0.000000 
TIME: 5.672618, ROLL: 0.013979, PITCH: 0.023379, YAW: -0.000821, X: 0.000000, Y: 0.000000, ALTITUDE: -0.000000, VX: 0.000000, VY: 0.000000, VZ: 0.000000 
TIME: 5.725380, ROLL: 0.013979, PITCH: 0.023379, YAW: -0.000821, X: 0.000000, Y: 0.000000, ALTITUDE: -0.000000, VX: 0.000000, VY: 0.000000, VZ: 0.000000 
TIME: 5.777748, ROLL: 0.013979, PITCH: 0.023379, YAW: -0.000821, X: 0.000000, Y: 0.000000, ALTITUDE: -0.000000, VX: 0.000000, VY: 0.000000, VZ: 0.000000 
TIME: 5.830479, ROLL: 0.013863, PITCH: 0.023318, YAW: -0.000788, X: 0.000000, Y: 0.000000, ALTITUDE: -0.000000, VX: 0.000000, VY: 0.000000, VZ: 0.000000 
TIME: 5.883068, ROLL: 0.013863, PITCH: 0.023318, YAW: -0.000788, X: 0.000000, Y: 0.000000, ALTITUDE: -0.000000, VX: 0.000000, VY: 0.000000, VZ: 0.000000 
TIME: 5.935829, ROLL: 0.013863, PITCH: 0.023318, YAW: -0.000788, X: 0.000000, Y: 0.000000, ALTITUDE: -0.000000, VX: 0.000000, VY: 0.000000, VZ: 0.000000 
TIME: 5.988490, ROLL: 0.013863, PITCH: 0.023318, YAW: -0.000788, X: 0.000000, Y: 0.000000, ALTITUDE: -0.000000, VX: 0.000000, VY: 0.000000, VZ: 0.000000 
TIME: 6.041349, ROLL: 0.013863, PITCH: 0.023318, YAW: -0.000788, X: 0.000000, Y: 0.000000, ALTITUDE: -0.000000, VX: 0.000000, VY: 0.000000, VZ: 0.000000 
TIME: 6.094049, ROLL: 0.013863, PITCH: 0.023318, YAW: -0.000788, X: 0.000000, Y: 0.000000, ALTITUDE: -0.000000, VX: 0.000000, VY: 0.000000, VZ: 0.000000 
TIME: 6.146724, ROLL: 0.013863, PITCH: 0.023318, YAW: -0.000788, X: 0.000000, Y: 0.000000, ALTITUDE: -0.000000, VX: 0.000000, VY: 0.000000, VZ: 0.000000 
TIME: 6.199648, ROLL: 0.014009, PITCH: 0.023319, YAW: -0.000811, X: 0.000000, Y: 0.000000, ALTITUDE: -0.000000, VX: 0.000000, VY: 0.000000, VZ: 0.000000 
TIME: 6.252472, ROLL: 0.014003, PITCH: 0.023261, YAW: -0.000830, X: 0.000000, Y: 0.000000, ALTITUDE: -0.000000, VX: 0.000000, VY: 0.000000, VZ: 0.000000 
TIME: 6.305140, ROLL: 0.014003, PITCH: 0.023261, YAW: -0.000830, X: 0.000000, Y: 0.000000, ALTITUDE: -0.000000, VX: 0.000000, VY: 0.000000, VZ: 0.000000 
TIME: 6.357910, ROLL: 0.014003, PITCH: 0.023261, YAW: -0.000830, X: 0.000000, Y: 0.000000, ALTITUDE: -0.000000, VX: 0.000000, VY: 0.000000, VZ: 0.000000 
TIME: 6.410617, ROLL: 0.014003, PITCH: 0.023261, YAW: -0.000830, X: 0.000000, Y: 0.000000, ALTITUDE: -0.000000, VX: 0.000000, VY: 0.000000, VZ: 0.000000 
TIME: 6.463327, ROLL: 0.014081, PITCH: 0.023222, YAW: -0.000884, X: 0.000000, Y: 0.000000, ALTITUDE: -0.000000, VX: 0.000000, VY: 0.000000, VZ: 0.000000 
TIME: 6.516154, ROLL: 0.014081, PITCH: 0.023222, YAW: -0.000884, X: 0.000000, Y: 0.000000, ALTITUDE: -0.000000, VX: 0.000000, VY: 0.000000, VZ: 0.000000 
TIME: 6.568818, ROLL: 0.014081, PITCH: 0.023222, YAW: -0.000884, X: 0.000000, Y: 0.000000, ALTITUDE: -0.000000, VX: 0.000000, VY: 0.000000, VZ: 0.000000 
TIME: 6.621554, ROLL: 0.014081, PITCH: 0.023222, YAW: -0.000884, X: 0.000000, Y: 0.000000, ALTITUDE: -0.000000, VX: 0.000000, VY: 0.000000, VZ: 0.000000 
TIME: 6.674358, ROLL: 0.014026, PITCH: 0.023177, YAW: -0.000932, X: 0.000000, Y: 0.000000, ALTITUDE: -0.000000, VX: 0.000000, VY: 0.000000, VZ: 0.000000 
TIME: 6.726856, ROLL: 0.014026, PITCH: 0.023177, YAW: -0.000932, X: 0.000000, Y: 0.000000, ALTITUDE: -0.000000, VX: 0.000000, VY: 0.000000, VZ: 0.000000 
TIME: 6.779671, ROLL: 0.014026, PITCH: 0.023177, YAW: -0.000932, X: 0.000000, Y: 0.000000, ALTITUDE: -0.000000, VX: 0.000000, VY: 0.000000, VZ: 0.000000 
TIME: 6.832383, ROLL: 0.014026, PITCH: 0.023177, YAW: -0.000932, X: 0.000000, Y: 0.000000, ALTITUDE: -0.000000, VX: 0.000000, VY: 0.000000, VZ: 0.000000 
TIME: 6.885063, ROLL: 0.014106, PITCH: 0.023179, YAW: -0.000937, X: 0.000000, Y: 0.000000, ALTITUDE: -0.000000, VX: 0.000000, VY: 0.000000, VZ: 0.000000 
TIME: 6.937730, ROLL: 0.014106, PITCH: 0.023179, YAW: -0.000937, X: 0.000000, Y: 0.000000, ALTITUDE: -0.000000, VX: 0.000000, VY: 0.000000, VZ: 0.000000 
TIME: 6.990381, ROLL: 0.014106, PITCH: 0.023179, YAW: -0.000937, X: 0.000000, Y: 0.000000, ALTITUDE: -0.000000, VX: 0.000000, VY: 0.000000, VZ: 0.000000 
TIME: 7.043103, ROLL: 0.014106, PITCH: 0.023179, YAW: -0.000937, X: 0.000000, Y: 0.000000, ALTITUDE: -0.000000, VX: 0.000000, VY: 0.000000, VZ: 0.000000 
TIME: 7.095850, ROLL: 0.014106, PITCH: 0.023179, YAW: -0.000937, X: 0.000000, Y: 0.000000, ALTITUDE: -0.000000, VX: 0.000000, VY: 0.000000, VZ: 0.000000 
TIME: 7.148619, ROLL: 0.014201, PITCH: 0.023005, YAW: -0.000945, X: 0.000000, Y: 0.000000, ALTITUDE: -0.000000, VX: 0.000000, VY: 0.000000, VZ: 0.000000 
TIME: 7.201451, ROLL: 0.014201, PITCH: 0.023005, YAW: -0.000945, X: 0.000000, Y: 0.000000, ALTITUDE: -0.000000, VX: 0.000000, VY: 0.000000, VZ: 0.000000 
TIME: 7.254143, ROLL: 0.014201, PITCH: 0.023005, YAW: -0.000945, X: 0.000000, Y: 0.000000, ALTITUDE: -0.000000, VX: 0.000000, VY: 0.000000, VZ: 0.000000 
TIME: 7.306831, ROLL: 0.014147, PITCH: 0.023026, YAW: -0.000982, X: 0.000000, Y: 0.000000, ALTITUDE: -0.000000, VX: 0.000000, VY: 0.000000, VZ: 0.000000 
TIME: 7.359587, ROLL: 0.014147, PITCH: 0.023026, YAW: -0.000982, X: 0.000000, Y: 0.000000, ALTITUDE: -0.000000, VX: 0.000000, VY: 0.000000, VZ: 0.000000 
TIME: 7.412280, ROLL: 0.014147, PITCH: 0.023026, YAW: -0.000982, X: 0.000000, Y: 0.000000, ALTITUDE: -0.000000, VX: 0.000000, VY: 0.000000, VZ: 0.000000 
TIME: 7.465074, ROLL: 0.014147, PITCH: 0.023026, YAW: -0.000982, X: 0.000000, Y: 0.000000, ALTITUDE: -0.000000, VX: 0.000000, VY: 0.000000, VZ: 0.000000 
TIME: 7.517735, ROLL: 0.014044, PITCH: 0.022813, YAW: -0.000983, X: 0.000000, Y: 0.000000, ALTITUDE: -0.000000, VX: 0.000000, VY: 0.000000, VZ: 0.000000 
TIME: 7.570353, ROLL: 0.014044, PITCH: 0.022813, YAW: -0.000983, X: 0.000000, Y: 0.000000, ALTITUDE: -0.000000, VX: 0.000000, VY: 0.000000, VZ: 0.000000 
TIME: 7.622977, ROLL: 0.014044, PITCH: 0.022813, YAW: -0.000983, X: 0.000000, Y: 0.000000, ALTITUDE: -0.000000, VX: 0.000000, VY: 0.000000, VZ: 0.000000 
TIME: 7.675685, ROLL: 0.014044, PITCH: 0.022813, YAW: -0.000983, X: 0.000000, Y: 0.000000, ALTITUDE: -0.000000, VX: 0.000000, VY: 0.000000, VZ: 0.000000 
TIME: 7.728371, ROLL: 0.013907, PITCH: 0.022938, YAW: -0.001003, X: 0.000000, Y: 0.000000, ALTITUDE: -0.000000, VX: 0.000000, VY: 0.000000, VZ: 0.000000 
TIME: 7.780836, ROLL: 0.013907, PITCH: 0.022938, YAW: -0.001003, X: 0.000000, Y: 0.000000, ALTITUDE: -0.000000, VX: 0.000000, VY: 0.000000, VZ: 0.000000 
TIME: 7.833454, ROLL: 0.013907, PITCH: 0.022938, YAW: -0.001003, X: 0.000000, Y: 0.000000, ALTITUDE: -0.000000, VX: 0.000000, VY: 0.000000, VZ: 0.000000 
TIME: 7.886116, ROLL: 0.013907, PITCH: 0.022938, YAW: -0.001003, X: 0.000000, Y: 0.000000, ALTITUDE: -0.000000, VX: 0.000000, VY: 0.000000, VZ: 0.000000 
TIME: 7.938825, ROLL: 0.013702, PITCH: 0.022943, YAW: -0.001008, X: 0.000000, Y: 0.000000, ALTITUDE: -0.000000, VX: 0.000000, VY: 0.000000, VZ: 0.000000 
TIME: 7.991665, ROLL: 0.013702, PITCH: 0.022943, YAW: -0.001008, X: 0.000000, Y: 0.000000, ALTITUDE: -0.000000, VX: 0.000000, VY: 0.000000, VZ: 0.000000 
TIME: 8.044267, ROLL: 0.013702, PITCH: 0.022943, YAW: -0.001008, X: 0.000000, Y: 0.000000, ALTITUDE: -0.000000, VX: 0.000000, VY: 0.000000, VZ: 0.000000 
TIME: 8.097073, ROLL: 0.013702, PITCH: 0.022943, YAW: -0.001008, X: 0.000000, Y: 0.000000, ALTITUDE: -0.000000, VX: 0.000000, VY: 0.000000, VZ: 0.000000 
TIME: 8.149847, ROLL: 0.013702, PITCH: 0.022943, YAW: -0.001008, X: 0.000000, Y: 0.000000, ALTITUDE: -0.000000, VX: 0.000000, VY: 0.000000, VZ: 0.000000 
TIME: 8.202751, ROLL: 0.013662, PITCH: 0.023191, YAW: -0.000981, X: 0.000000, Y: 0.000000, ALTITUDE: -0.000000, VX: 0.000000, VY: 0.000000, VZ: 0.000000 
TIME: 8.255423, ROLL: 0.013662, PITCH: 0.023191, YAW: -0.000981, X: 0.000000, Y: 0.000000, ALTITUDE: -0.000000, VX: 0.000000, VY: 0.000000, VZ: 0.000000 
TIME: 8.308066, ROLL: 0.013662, PITCH: 0.023191, YAW: -0.000981, X: 0.000000, Y: 0.000000, ALTITUDE: -0.000000, VX: 0.000000, VY: 0.000000, VZ: 0.000000 
TIME: 8.360700, ROLL: 0.013772, PITCH: 0.023166, YAW: -0.001058, X: 0.000000, Y: 0.000000, ALTITUDE: -0.000000, VX: 0.000000, VY: 0.000000, VZ: 0.000000 
TIME: 8.413001, ROLL: 0.013772, PITCH: 0.023166, YAW: -0.001058, X: 0.000000, Y: 0.000000, ALTITUDE: -0.000000, VX: 0.000000, VY: 0.000000, VZ: 0.000000 
TIME: 8.465547, ROLL: 0.013772, PITCH: 0.023166, YAW: -0.001058, X: 0.000000, Y: 0.000000, ALTITUDE: -0.000000, VX: 0.000000, VY: 0.000000, VZ: 0.000000 
TIME: 8.518296, ROLL: 0.013772, PITCH: 0.023166, YAW: -0.001058, X: 0.000000, Y: 0.000000, ALTITUDE: -0.000000, VX: 0.000000, VY: 0.000000, VZ: 0.000000 
TIME: 8.571048, ROLL: 0.013841, PITCH: 0.023465, YAW: -0.001049, X: 0.000000, Y: 0.000000, ALTITUDE: -0.000000, VX: 0.000000, VY: 0.000000, VZ: 0.000000 
TIME: 8.623677, ROLL: 0.013841, PITCH: 0.023465, YAW: -0.001049, X: 0.000000, Y: 0.000000, ALTITUDE: -0.000000, VX: 0.000000, VY: 0.000000, VZ: 0.000000 
TIME: 8.676300, ROLL: 0.013841, PITCH: 0.023465, YAW: -0.001049, X: 0.000000, Y: 0.000000, ALTITUDE: -0.000000, VX: 0.000000, VY: 0.000000, VZ: 0.000000 
TIME: 8.728970, ROLL: 0.013841, PITCH: 0.023465, YAW: -0.001049, X: 0.000000, Y: 0.000000, ALTITUDE: -0.000000, VX: 0.000000, VY: 0.000000, VZ: 0.000000 
TIME: 8.781735, ROLL: 0.013768, PITCH: 0.023400, YAW: -0.001072, X: 0.000000, Y: 0.000000, ALTITUDE: -0.000000, VX: 0.000000, VY: 0.000000, VZ: 0.000000 
TIME: 8.834402, ROLL: 0.013768, PITCH: 0.023400, YAW: -0.001072, X: 0.000000, Y: 0.000000, ALTITUDE: -0.000000, VX: 0.000000, VY: 0.000000, VZ: 0.000000 
TIME: 8.887209, ROLL: 0.013768, PITCH: 0.023400, YAW: -0.001072, X: 0.000000, Y: 0.000000, ALTITUDE: -0.000000, VX: 0.000000, VY: 0.000000, VZ: 0.000000 
TIME: 8.939855, ROLL: 0.013768, PITCH: 0.023400, YAW: -0.001072, X: 0.000000, Y: 0.000000, ALTITUDE: -0.000000, VX: 0.000000, VY: 0.000000, VZ: 0.000000 
TIME: 8.992559, ROLL: 0.013945, PITCH: 0.023390, YAW: -0.001065, X: 0.000000, Y: 0.000000, ALTITUDE: -0.000000, VX: 0.000000, VY: 0.000000, VZ: 0.000000 
TIME: 9.045065, ROLL: 0.013945, PITCH: 0.023390, YAW: -0.001065, X: 0.000000, Y: 0.000000, ALTITUDE: -0.000000, VX: 0.000000, VY: 0.000000, VZ: 0.000000 
TIME: 9.097675, ROLL: 0.013945, PITCH: 0.023390, YAW: -0.001065, X: 0.000000, Y: 0.000000, ALTITUDE: -0.000000, VX: 0.000000, VY: 0.000000, VZ: 0.000000 
TIME: 9.150417, ROLL: 0.013945, PITCH: 0.023390, YAW: -0.001065, X: 0.000000, Y: 0.000000, ALTITUDE: -0.000000, VX: 0.000000, VY: 0.000000, VZ: 0.000000 
TIME: 9.202559, ROLL: 0.013945, PITCH: 0.023390, YAW: -0.001065, X: 0.000000, Y: 0.000000, ALTITUDE: -0.000000, VX: 0.000000, VY: 0.000000, VZ: 0.000000 
TIME: 9.255526, ROLL: 0.013291, PITCH: 0.023181, YAW: -0.000318, X: 0.000000, Y: 0.000000, ALTITUDE: -0.000000, VX: 0.000000, VY: 0.000000, VZ: 0.000000 
TIME: 9.308438, ROLL: 0.013291, PITCH: 0.023181, YAW: -0.000318, X: 0.000000, Y: 0.000000, ALTITUDE: -0.000000, VX: 0.000000, VY: 0.000000, VZ: 0.000000 
TIME: 9.361155, ROLL: 0.013291, PITCH: 0.023181, YAW: -0.000318, X: 0.000000, Y: 0.000000, ALTITUDE: -0.000000, VX: 0.000000, VY: 0.000000, VZ: 0.000000 
TIME: 9.413909, ROLL: 0.014538, PITCH: 0.022425, YAW: 0.000256, X: 0.000000, Y: 0.000000, ALTITUDE: -0.000000, VX: 0.000000, VY: 0.000000, VZ: 0.000000 
TIME: 9.466660, ROLL: 0.014538, PITCH: 0.022425, YAW: 0.000256, X: 0.000000, Y: 0.000000, ALTITUDE: -0.000000, VX: 0.000000, VY: 0.000000, VZ: 0.000000 
TIME: 9.519427, ROLL: 0.014538, PITCH: 0.022425, YAW: 0.000256, X: 0.000000, Y: 0.000000, ALTITUDE: -0.000000, VX: 0.000000, VY: 0.000000, VZ: 0.000000 
TIME: 9.572181, ROLL: 0.014538, PITCH: 0.022425, YAW: 0.000256, X: 0.000000, Y: 0.000000, ALTITUDE: -0.000000, VX: 0.000000, VY: 0.000000, VZ: 0.000000 
TIME: 9.625169, ROLL: 0.014500, PITCH: 0.022921, YAW: -0.000882, X: 0.000000, Y: 0.000000, ALTITUDE: -0.000000, VX: 0.000000, VY: 0.000000, VZ: 0.000000 
TIME: 9.678098, ROLL: 0.014500, PITCH: 0.022921, YAW: -0.000882, X: 0.000000, Y: 0.000000, ALTITUDE: -0.000000, VX: 0.000000, VY: 0.000000, VZ: 0.000000 
TIME: 9.730753, ROLL: 0.014500, PITCH: 0.022921, YAW: -0.000882, X: 0.000000, Y: 0.000000, ALTITUDE: -0.000000, VX: 0.000000, VY: 0.000000, VZ: 0.000000 
TIME: 9.783343, ROLL: 0.014500, PITCH: 0.022921, YAW: -0.000882, X: 0.000000, Y: 0.000000, ALTITUDE: -0.000000, VX: 0.000000, VY: 0.000000, VZ: 0.000000 
TIME: 9.836082, ROLL: 0.014021, PITCH: 0.022334, YAW: -0.001025, X: 0.000000, Y: 0.000000, ALTITUDE: -0.000000, VX: 0.000000, VY: 0.000000, VZ: 0.000000 
TIME: 9.888873, ROLL: 0.014021, PITCH: 0.022334, YAW: -0.001025, X: 0.000000, Y: 0.000000, ALTITUDE: -0.000000, VX: 0.000000, VY: 0.000000, VZ: 0.000000 
TIME: 9.941697, ROLL: 0.014021, PITCH: 0.022334, YAW: -0.001025, X: 0.000000, Y: 0.000000, ALTITUDE: -0.000000, VX: 0.000000, VY: 0.000000, VZ: 0.000000 
TIME: 9.993845, ROLL: 0.014021, PITCH: 0.022334, YAW: -0.001025, X: 0.000000, Y: 0.000000, ALTITUDE: -0.000000, VX: 0.000000, VY: 0.000000, VZ: 0.000000 
TIME: 10.046549, ROLL: 0.014505, PITCH: 0.022356, YAW: -0.010812, X: 0.000000, Y: 0.000000, ALTITUDE: -0.000000, VX: 0.000000, VY: 0.000000, VZ: 0.000000 
TIME: 10.099359, ROLL: 0.014505, PITCH: 0.022356, YAW: -0.010812, X: 0.000000, Y: 0.000000, ALTITUDE: -0.000000, VX: 0.000000, VY: 0.000000, VZ: 0.000000 
TIME: 10.152239, ROLL: 0.014505, PITCH: 0.022356, YAW: -0.010812, X: 0.000000, Y: 0.000000, ALTITUDE: -0.000000, VX: 0.000000, VY: 0.000000, VZ: 0.000000 
TIME: 10.204955, ROLL: 0.014505, PITCH: 0.022356, YAW: -0.010812, X: 0.000000, Y: 0.000000, ALTITUDE: -0.000000, VX: 0.000000, VY: 0.000000, VZ: 0.000000 
TIME: 10.257692, ROLL: 0.014505, PITCH: 0.022356, YAW: -0.010812, X: 0.000000, Y: 0.000000, ALTITUDE: -0.000000, VX: 0.000000, VY: 0.000000, VZ: 0.000000 
TIME: 10.310558, ROLL: 0.014810, PITCH: 0.019703, YAW: -0.024667, X: 0.000000, Y: 0.000000, ALTITUDE: -0.000000, VX: 0.000000, VY: 0.000000, VZ: 0.000000 
TIME: 10.363405, ROLL: 0.014810, PITCH: 0.019703, YAW: -0.024667, X: 0.000000, Y: 0.000000, ALTITUDE: -0.000000, VX: 0.000000, VY: 0.000000, VZ: 0.000000 
TIME: 10.416194, ROLL: 0.014810, PITCH: 0.019703, YAW: -0.024667, X: 0.000000, Y: 0.000000, ALTITUDE: -0.000000, VX: 0.000000, VY: 0.000000, VZ: 0.000000 
TIME: 10.469069, ROLL: 0.010932, PITCH: 0.022542, YAW: -0.015680, X: 0.000000, Y: 0.000000, ALTITUDE: -0.000000, VX: 0.000000, VY: 0.000000, VZ: 0.000000 
TIME: 10.521842, ROLL: 0.010932, PITCH: 0.022542, YAW: -0.015680, X: 0.000000, Y: 0.000000, ALTITUDE: -0.000000, VX: 0.000000, VY: 0.000000, VZ: 0.000000 
TIME: 10.574612, ROLL: 0.010932, PITCH: 0.022542, YAW: -0.015680, X: 0.000000, Y: 0.000000, ALTITUDE: -0.000000, VX: 0.000000, VY: 0.000000, VZ: 0.000000 
TIME: 10.627213, ROLL: 0.010932, PITCH: 0.022542, YAW: -0.015680, X: 0.000000, Y: 0.000000, ALTITUDE: -0.000000, VX: 0.000000, VY: 0.000000, VZ: 0.000000 
TIME: 10.680131, ROLL: -0.019744, PITCH: 0.040173, YAW: -0.007662, X: 0.000000, Y: 0.000000, ALTITUDE: -0.000000, VX: 0.000000, VY: 0.000000, VZ: 0.000000 
TIME: 10.733248, ROLL: -0.019744, PITCH: 0.040173, YAW: -0.007662, X: -0.004938, Y: -0.005183, ALTITUDE: -0.003619, VX: -0.023757, VY: -0.024937, VZ: -0.101408 
TIME: 10.786103, ROLL: -0.019744, PITCH: 0.040173, YAW: -0.007662, X: -0.004938, Y: -0.005183, ALTITUDE: -0.003619, VX: -0.023757, VY: -0.024937, VZ: -0.101408 
TIME: 10.838966, ROLL: -0.019744, PITCH: 0.040173, YAW: -0.007662, X: -0.004938, Y: -0.005183, ALTITUDE: -0.003619, VX: -0.023757, VY: -0.024937, VZ: -0.101408 
TIME: 10.892163, ROLL: -0.036322, PITCH: -0.005624, YAW: -0.001548, X: -0.004938, Y: -0.005183, ALTITUDE: -0.003619, VX: -0.023757, VY: -0.024937, VZ: -0.101408 
TIME: 10.945030, ROLL: -0.036322, PITCH: -0.005624, YAW: -0.001548, X: -0.009137, Y: -0.017263, ALTITUDE: -0.046816, VX: -0.018674, VY: -0.053729, VZ: -0.299410 
TIME: 10.997901, ROLL: -0.036322, PITCH: -0.005624, YAW: -0.001548, X: -0.009137, Y: -0.017263, ALTITUDE: -0.046816, VX: -0.018674, VY: -0.053729, VZ: -0.299410 
TIME: 11.050726, ROLL: -0.036322, PITCH: -0.005624, YAW: -0.001548, X: -0.009137, Y: -0.017263, ALTITUDE: -0.046816, VX: -0.018674, VY: -0.053729, VZ: -0.299410 
TIME: 11.103588, ROLL: 0.073762, PITCH: -0.014872, YAW: 0.005453, X: -0.009137, Y: -0.017263, ALTITUDE: -0.046816, VX: -0.018674, VY: -0.053729, VZ: -0.299410 
TIME: 11.156358, ROLL: 0.073762, PITCH: -0.014872, YAW: 0.005453, X: -0.008084, Y: -0.004052, ALTITUDE: -0.131216, VX: 0.005311, VY: 0.066674, VZ: -0.579336 
TIME: 11.209299, ROLL: 0.073762, PITCH: -0.014872, YAW: 0.005453, X: -0.008084, Y: -0.004052, ALTITUDE: -0.131216, VX: 0.005311, VY: 0.066674, VZ: -0.579336 
TIME: 11.262114, ROLL: 0.073762, PITCH: -0.014872, YAW: 0.005453, X: -0.008084, Y: -0.004052, ALTITUDE: -0.131216, VX: 0.005311, VY: 0.066674, VZ: -0.579336 
TIME: 11.314984, ROLL: 0.073762, PITCH: -0.014872, YAW: 0.005453, X: -0.008084, Y: -0.004052, ALTITUDE: -0.131216, VX: 0.005311, VY: 0.066674, VZ: -0.579336 
TIME: 11.367895, ROLL: -0.004314, PITCH: 0.013012, YAW: 0.003877, X: -0.024186, Y: 0.003116, ALTITUDE: -0.131216, VX: -0.069106, VY: 0.030762, VZ: -0.810065 
TIME: 11.420859, ROLL: -0.004314, PITCH: 0.013012, YAW: 0.003877, X: -0.024186, Y: 0.003116, ALTITUDE: -0.276146, VX: -0.069106, VY: 0.030762, VZ: -0.810065 
TIME: 11.473513, ROLL: -0.004314, PITCH: 0.013012, YAW: 0.003877, X: -0.024186, Y: 0.003116, ALTITUDE: -0.276146, VX: -0.069106, VY: 0.030762, VZ: -0.810065 
TIME: 11.526189, ROLL: -0.013559, PITCH: -0.007959, YAW: -0.004329, X: -0.024186, Y: 0.003116, ALTITUDE: -0.276146, VX: -0.069106, VY: 0.030762, VZ: -0.810065 
TIME: 11.578932, ROLL: -0.013559, PITCH: -0.007959, YAW: -0.004329, X: -0.043762, Y: 0.011059, ALTITUDE: -0.461406, VX: -0.103004, VY: 0.041796, VZ: -0.920564 
TIME: 11.631730, ROLL: -0.013559, PITCH: -0.007959, YAW: -0.004329, X: -0.043762, Y: 0.011059, ALTITUDE: -0.461406, VX: -0.103004, VY: 0.041796, VZ: -0.920564 
TIME: 11.684531, ROLL: -0.013559, PITCH: -0.007959, YAW: -0.004329, X: -0.043762, Y: 0.011059, ALTITUDE: -0.461406, VX: -0.103004, VY: 0.041796, VZ: -0.920564 
TIME: 11.737292, ROLL: 0.003558, PITCH: -0.033776, YAW: -0.014477, X: -0.043762, Y: 0.011059, ALTITUDE: -0.461406, VX: -0.103004, VY: 0.041796, VZ: -0.920564 
TIME: 11.790064, ROLL: 0.003558, PITCH: -0.033776, YAW: -0.014477, X: -0.050054, Y: 0.021461, ALTITUDE: -0.667271, VX: -0.029806, VY: 0.049274, VZ: -0.797494 
TIME: 11.843488, ROLL: 0.003558, PITCH: -0.033776, YAW: -0.014477, X: -0.050054, Y: 0.021461, ALTITUDE: -0.667271, VX: -0.029806, VY: 0.049274, VZ: -0.797494 
TIME: 11.891681, ROLL: 0.003558, PITCH: -0.033776, YAW: -0.014477, X: -0.050054, Y: 0.021461, ALTITUDE: -0.667271, VX: -0.029806, VY: 0.049274, VZ: -0.797494 
TIME: 11.935343, ROLL: -0.016854, PITCH: -0.030071, YAW: -0.020263, X: -0.050054, Y: 0.021461, ALTITUDE: -0.667271, VX: -0.029806, VY: 0.049274, VZ: -0.797494 
TIME: 11.988056, ROLL: -0.016854, PITCH: -0.030071, YAW: -0.020263, X: -0.034825, Y: -0.019449, ALTITUDE: -0.811051, VX: 0.071968, VY: -0.193334, VZ: -0.518946 
TIME: 12.040730, ROLL: -0.016854, PITCH: -0.030071, YAW: -0.020263, X: -0.034825, Y: -0.019449, ALTITUDE: -0.811051, VX: 0.071968, VY: -0.193334, VZ: -0.518946 
TIME: 12.093456, ROLL: -0.016854, PITCH: -0.030071, YAW: -0.020263, X: -0.034825, Y: -0.019449, ALTITUDE: -0.811051, VX: 0.071968, VY: -0.193334, VZ: -0.518946 
TIME: 12.146659, ROLL: 0.031510, PITCH: -0.009157, YAW: -0.020211, X: -0.034825, Y: -0.019449, ALTITUDE: -0.811051, VX: 0.071968, VY: -0.193334, VZ: -0.518946 
TIME: 12.199426, ROLL: 0.031510, PITCH: -0.009157, YAW: -0.020211, X: 0.017760, Y: -0.048620, ALTITUDE: -0.931473, VX: 0.265769, VY: -0.147434, VZ: -0.320135 
TIME: 12.252161, ROLL: 0.031510, PITCH: -0.009157, YAW: -0.020211, X: 0.017760, Y: -0.048620, ALTITUDE: -0.931473, VX: 0.265769, VY: -0.147434, VZ: -0.320135 
TIME: 12.304812, ROLL: 0.031510, PITCH: -0.009157, YAW: -0.020211, X: 0.017760, Y: -0.048620, ALTITUDE: -0.931473, VX: 0.265769, VY: -0.147434, VZ: -0.320135 
TIME: 12.358120, ROLL: 0.031510, PITCH: -0.009157, YAW: -0.020211, X: 0.017760, Y: -0.048620, ALTITUDE: -0.931473, VX: 0.265769, VY: -0.147434, VZ: -0.320135 
TIME: 12.410624, ROLL: 0.035027, PITCH: 0.033573, YAW: -0.019278, X: 0.102984, Y: -0.060904, ALTITUDE: -0.931473, VX: 0.353915, VY: -0.051009, VZ: -0.162676 
TIME: 12.463361, ROLL: 0.035027, PITCH: 0.033573, YAW: -0.019278, X: 0.102984, Y: -0.060904, ALTITUDE: -1.001725, VX: 0.353915, VY: -0.051009, VZ: -0.162676 
TIME: 12.516112, ROLL: 0.035027, PITCH: 0.033573, YAW: -0.019278, X: 0.102984, Y: -0.060904, ALTITUDE: -1.001725, VX: 0.353915, VY: -0.051009, VZ: -0.162676 
TIME: 12.569040, ROLL: 0.021975, PITCH: 0.060619, YAW: -0.024452, X: 0.102984, Y: -0.060904, ALTITUDE: -1.001725, VX: 0.353915, VY: -0.051009, VZ: -0.162676 
TIME: 12.623013, ROLL: 0.021975, PITCH: 0.060619, YAW: -0.024452, X: 0.155003, Y: -0.061943, ALTITUDE: -1.038422, VX: 0.273568, VY: -0.005466, VZ: -0.065557 
TIME: 12.675713, ROLL: 0.021975, PITCH: 0.060619, YAW: -0.024452, X: 0.155003, Y: -0.061943, ALTITUDE: -1.038422, VX: 0.273568, VY: -0.005466, VZ: -0.065557 
TIME: 12.728462, ROLL: 0.021975, PITCH: 0.060619, YAW: -0.024452, X: 0.155003, Y: -0.061943, ALTITUDE: -1.038422, VX: 0.273568, VY: -0.005466, VZ: -0.065557 
TIME: 12.781230, ROLL: 0.006130, PITCH: 0.067738, YAW: -0.031625, X: 0.155003, Y: -0.061943, ALTITUDE: -1.038422, VX: 0.273568, VY: -0.005466, VZ: -0.065557 
TIME: 12.833967, ROLL: 0.006130, PITCH: 0.067738, YAW: -0.031625, X: 0.207632, Y: -0.062437, ALTITUDE: -1.042345, VX: 0.258588, VY: -0.002426, VZ: -0.003399 
TIME: 12.887626, ROLL: 0.006130, PITCH: 0.067738, YAW: -0.031625, X: 0.207632, Y: -0.062437, ALTITUDE: -1.042345, VX: 0.258588, VY: -0.002426, VZ: -0.003399 
TIME: 12.921379, ROLL: 0.006130, PITCH: 0.067738, YAW: -0.031625, X: 0.207632, Y: -0.062437, ALTITUDE: -1.042345, VX: 0.258588, VY: -0.002426, VZ: -0.003399 
TIME: 12.970379, ROLL: 0.010143, PITCH: 0.077141, YAW: -0.038168, X: 0.207632, Y: -0.062437, ALTITUDE: -1.042345, VX: 0.258588, VY: -0.002426, VZ: -0.003399 
TIME: 13.023368, ROLL: 0.010143, PITCH: 0.077141, YAW: -0.038168, X: 0.243792, Y: -0.064132, ALTITUDE: -1.032170, VX: 0.188289, VY: -0.008829, VZ: 0.026413 
TIME: 13.076271, ROLL: 0.010143, PITCH: 0.077141, YAW: -0.038168, X: 0.243792, Y: -0.064132, ALTITUDE: -1.032170, VX: 0.188289, VY: -0.008829, VZ: 0.026413 
TIME: 13.129472, ROLL: 0.010143, PITCH: 0.077141, YAW: -0.038168, X: 0.243792, Y: -0.064132, ALTITUDE: -1.032170, VX: 0.188289, VY: -0.008829, VZ: 0.026413 
TIME: 13.182538, ROLL: 0.019328, PITCH: 0.084507, YAW: -0.042455, X: 0.243792, Y: -0.064132, ALTITUDE: -1.032170, VX: 0.188289, VY: -0.008829, VZ: 0.026413 
TIME: 13.235421, ROLL: 0.019328, PITCH: 0.084507, YAW: -0.042455, X: 0.261953, Y: -0.061460, ALTITUDE: -1.014350, VX: 0.086755, VY: 0.012768, VZ: 0.035579 
TIME: 13.288359, ROLL: 0.019328, PITCH: 0.084507, YAW: -0.042455, X: 0.261953, Y: -0.061460, ALTITUDE: -1.014350, VX: 0.086755, VY: 0.012768, VZ: 0.035579 
TIME: 13.340925, ROLL: 0.019328, PITCH: 0.084507, YAW: -0.042455, X: 0.261953, Y: -0.061460, ALTITUDE: -1.014350, VX: 0.086755, VY: 0.012768, VZ: 0.035579 
TIME: 13.397074, ROLL: 0.019328, PITCH: 0.084507, YAW: -0.042455, X: 0.261953, Y: -0.061460, ALTITUDE: -1.014350, VX: 0.086755, VY: 0.012768, VZ: 0.035579 
TIME: 13.449680, ROLL: 0.008784, PITCH: 0.079063, YAW: -0.041917, X: 0.261186, Y: -0.052888, ALTITUDE: -1.014350, VX: -0.003132, VY: 0.034981, VZ: 0.022988 
TIME: 13.502449, ROLL: 0.008784, PITCH: 0.079063, YAW: -0.041917, X: 0.261186, Y: -0.052888, ALTITUDE: -0.993717, VX: -0.003132, VY: 0.034981, VZ: 0.022988 
TIME: 13.555233, ROLL: 0.008784, PITCH: 0.079063, YAW: -0.041917, X: 0.261186, Y: -0.052888, ALTITUDE: -0.993717, VX: -0.003132, VY: 0.034981, VZ: 0.022988 
TIME: 13.608105, ROLL: 0.012098, PITCH: 0.068264, YAW: -0.036891, X: 0.261186, Y: -0.052888, ALTITUDE: -0.993717, VX: -0.003132, VY: 0.034981, VZ: 0.022988 
TIME: 13.661915, ROLL: 0.012098, PITCH: 0.068264, YAW: -0.036891, X: 0.252228, Y: -0.046962, ALTITUDE: -0.979770, VX: -0.048376, VY: 0.032001, VZ: 0.009011 
TIME: 13.711070, ROLL: 0.012098, PITCH: 0.068264, YAW: -0.036891, X: 0.252228, Y: -0.046962, ALTITUDE: -0.979770, VX: -0.048376, VY: 0.032001, VZ: 0.009011 
TIME: 13.734465, ROLL: 0.012098, PITCH: 0.068264, YAW: -0.036891, X: 0.252228, Y: -0.046962, ALTITUDE: -0.979770, VX: -0.048376, VY: 0.032001, VZ: 0.009011 
TIME: 13.787351, ROLL: 0.023920, PITCH: 0.063044, YAW: -0.030723, X: 0.252228, Y: -0.046962, ALTITUDE: -0.979770, VX: -0.048376, VY: 0.032001, VZ: 0.009011 
TIME: 13.840050, ROLL: 0.023920, PITCH: 0.063044, YAW: -0.030723, X: 0.237593, Y: -0.037669, ALTITUDE: -0.966703, VX: -0.080179, VY: 0.050914, VZ: -0.001691 
TIME: 13.893462, ROLL: 0.023920, PITCH: 0.063044, YAW: -0.030723, X: 0.237593, Y: -0.037669, ALTITUDE: -0.966703, VX: -0.080179, VY: 0.050914, VZ: -0.001691 
TIME: 13.947162, ROLL: 0.023920, PITCH: 0.063044, YAW: -0.030723, X: 0.237593, Y: -0.037669, ALTITUDE: -0.966703, VX: -0.080179, VY: 0.050914, VZ: -0.001691 
TIME: 13.999777, ROLL: 0.004246, PITCH: 0.058158, YAW: -0.023342, X: 0.237593, Y: -0.037669, ALTITUDE: -0.966703, VX: -0.080179, VY: 0.050914, VZ: -0.001691 
TIME: 14.052574, ROLL: 0.004246, PITCH: 0.058158, YAW: -0.023342, X: 0.214847, Y: -0.021732, ALTITUDE: -0.955927, VX: -0.108240, VY: 0.075838, VZ: -0.011642 
TIME: 14.105388, ROLL: 0.004246, PITCH: 0.058158, YAW: -0.023342, X: 0.214847, Y: -0.021732, ALTITUDE: -0.955927, VX: -0.108240, VY: 0.075838, VZ: -0.011642 
TIME: 14.158299, ROLL: 0.004246, PITCH: 0.058158, YAW: -0.023342, X: 0.214847, Y: -0.021732, ALTITUDE: -0.955927, VX: -0.108240, VY: 0.075838, VZ: -0.011642 
TIME: 14.194881, ROLL: -0.010706, PITCH: 0.055597, YAW: -0.015200, X: 0.214847, Y: -0.021732, ALTITUDE: -0.955927, VX: -0.108240, VY: 0.075838, VZ: -0.011642 
TIME: 14.213524, ROLL: -0.010706, PITCH: 0.055597, YAW: -0.015200, X: 0.188868, Y: -0.011944, ALTITUDE: -0.942319, VX: -0.133550, VY: 0.050321, VZ: -0.018026 
TIME: 14.225462, ROLL: -0.010706, PITCH: 0.055597, YAW: -0.015200, X: 0.188868, Y: -0.011944, ALTITUDE: -0.942319, VX: -0.133550, VY: 0.050321, VZ: -0.018026 
TIME: 14.242373, ROLL: -0.010706, PITCH: 0.055597, YAW: -0.015200, X: 0.188868, Y: -0.011944, ALTITUDE: -0.942319, VX: -0.133550, VY: 0.050321, VZ: -0.018026 
TIME: 14.254101, ROLL: -0.010706, PITCH: 0.055597, YAW: -0.015200, X: 0.188868, Y: -0.011944, ALTITUDE: -0.942319, VX: -0.133550, VY: 0.050321, VZ: -0.018026 
TIME: 14.268089, ROLL: -0.003114, PITCH: 0.043297, YAW: -0.008711, X: 0.179156, Y: -0.010209, ALTITUDE: -0.942319, VX: -0.160996, VY: 0.028746, VZ: -0.029198 
TIME: 14.278627, ROLL: -0.003114, PITCH: 0.043297, YAW: -0.008711, X: 0.179156, Y: -0.010209, ALTITUDE: -0.936503, VX: -0.160996, VY: 0.028746, VZ: -0.029198 
TIME: 14.295291, ROLL: -0.003114, PITCH: 0.043297, YAW: -0.008711, X: 0.179156, Y: -0.010209, ALTITUDE: -0.936503, VX: -0.160996, VY: 0.028746, VZ: -0.029198 
TIME: 14.307363, ROLL: -0.009883, PITCH: 0.032662, YAW: -0.002473, X: 0.179156, Y: -0.010209, ALTITUDE: -0.936503, VX: -0.160996, VY: 0.028746, VZ: -0.029198 
TIME: 14.324019, ROLL: -0.009883, PITCH: 0.032662, YAW: -0.002473, X: 0.170736, Y: -0.008941, ALTITUDE: -0.939056, VX: -0.167134, VY: 0.025171, VZ: -0.042764 
TIME: 14.335137, ROLL: -0.009883, PITCH: 0.032662, YAW: -0.002473, X: 0.170736, Y: -0.008941, ALTITUDE: -0.939056, VX: -0.167134, VY: 0.025171, VZ: -0.042764 
TIME: 14.352360, ROLL: -0.009883, PITCH: 0.032662, YAW: -0.002473, X: 0.170736, Y: -0.008941, ALTITUDE: -0.939056, VX: -0.167134, VY: 0.025171, VZ: -0.042764 
TIME: 14.359706, ROLL: -0.015251, PITCH: 0.032772, YAW: 0.004172, X: 0.170736, Y: -0.008941, ALTITUDE: -0.939056, VX: -0.167134, VY: 0.025171, VZ: -0.042764 
TIME: 14.372316, ROLL: -0.015251, PITCH: 0.032772, YAW: 0.004172, X: 0.163675, Y: -0.009149, ALTITUDE: -0.939498, VX: -0.142440, VY: -0.004192, VZ: -0.042564 
TIME: 14.406889, ROLL: -0.015251, PITCH: 0.032772, YAW: 0.004172, X: 0.163675, Y: -0.009149, ALTITUDE: -0.939498, VX: -0.142440, VY: -0.004192, VZ: -0.042564 
TIME: 14.460454, ROLL: -0.015251, PITCH: 0.032772, YAW: 0.004172, X: 0.163675, Y: -0.009149, ALTITUDE: -0.939498, VX: -0.142440, VY: -0.004192, VZ: -0.042564 
TIME: 14.513659, ROLL: -0.015251, PITCH: 0.032772, YAW: 0.004172, X: 0.163675, Y: -0.009149, ALTITUDE: -0.939498, VX: -0.142440, VY: -0.004192, VZ: -0.042564 
TIME: 14.564907, ROLL: -0.003629, PITCH: 0.026319, YAW: 0.009421, X: 0.137135, Y: -0.013634, ALTITUDE: -0.939498, VX: -0.153555, VY: -0.025948, VZ: -0.047363 
TIME: 14.618315, ROLL: -0.003629, PITCH: 0.026319, YAW: 0.009421, X: 0.137135, Y: -0.013634, ALTITUDE: -0.945360, VX: -0.153555, VY: -0.025948, VZ: -0.047363 
TIME: 14.671317, ROLL: -0.003629, PITCH: 0.026319, YAW: 0.009421, X: 0.137135, Y: -0.013634, ALTITUDE: -0.945360, VX: -0.153555, VY: -0.025948, VZ: -0.047363 
TIME: 14.724232, ROLL: 0.003606, PITCH: 0.022916, YAW: 0.012378, X: 0.137135, Y: -0.013634, ALTITUDE: -0.945360, VX: -0.153555, VY: -0.025948, VZ: -0.047363 
TIME: 14.777165, ROLL: 0.003606, PITCH: 0.022916, YAW: 0.012378, X: 0.109279, Y: -0.017796, ALTITUDE: -0.957436, VX: -0.140338, VY: -0.020969, VZ: -0.044124 
TIME: 14.830441, ROLL: 0.003606, PITCH: 0.022916, YAW: 0.012378, X: 0.109279, Y: -0.017796, ALTITUDE: -0.957436, VX: -0.140338, VY: -0.020969, VZ: -0.044124 
TIME: 14.883567, ROLL: 0.003606, PITCH: 0.022916, YAW: 0.012378, X: 0.109279, Y: -0.017796, ALTITUDE: -0.957436, VX: -0.140338, VY: -0.020969, VZ: -0.044124 
TIME: 14.936965, ROLL: 0.003606, PITCH: 0.022916, YAW: 0.012378, X: 0.109279, Y: -0.017796, ALTITUDE: -0.957436, VX: -0.140338, VY: -0.020969, VZ: -0.044124 
TIME: 14.989894, ROLL: 0.001787, PITCH: 0.010014, YAW: 0.011929, X: 0.077391, Y: -0.021028, ALTITUDE: -0.969769, VX: -0.135762, VY: -0.013758, VZ: -0.042236 
TIME: 15.042706, ROLL: 0.001787, PITCH: 0.010014, YAW: 0.011929, X: 0.077391, Y: -0.021028, ALTITUDE: -0.969769, VX: -0.135762, VY: -0.013758, VZ: -0.042236 
TIME: 15.095364, ROLL: 0.001787, PITCH: 0.010014, YAW: 0.011929, X: 0.077391, Y: -0.021028, ALTITUDE: -0.969769, VX: -0.135762, VY: -0.013758, VZ: -0.042236 
TIME: 15.148596, ROLL: 0.005054, PITCH: 0.003969, YAW: 0.006975, X: 0.077391, Y: -0.021028, ALTITUDE: -0.969769, VX: -0.135762, VY: -0.013758, VZ: -0.042236 
TIME: 15.202493, ROLL: 0.005054, PITCH: 0.003969, YAW: 0.006975, X: 0.057540, Y: -0.024978, ALTITUDE: -0.985600, VX: -0.100149, VY: -0.019931, VZ: -0.039288 
TIME: 15.255068, ROLL: 0.005054, PITCH: 0.003969, YAW: 0.006975, X: 0.057540, Y: -0.024978, ALTITUDE: -0.985600, VX: -0.100149, VY: -0.019931, VZ: -0.039288 
TIME: 15.307822, ROLL: 0.005054, PITCH: 0.003969, YAW: 0.006975, X: 0.057540, Y: -0.024978, ALTITUDE: -0.985600, VX: -0.100149, VY: -0.019931, VZ: -0.039288 
TIME: 15.360531, ROLL: 0.003404, PITCH: 0.007545, YAW: 0.001336, X: 0.057540, Y: -0.024978, ALTITUDE: -0.985600, VX: -0.100149, VY: -0.019931, VZ: -0.039288 
TIME: 15.413499, ROLL: 0.003404, PITCH: 0.007545, YAW: 0.001336, X: 0.045559, Y: -0.027209, ALTITUDE: -0.998377, VX: -0.060212, VY: -0.011211, VZ: -0.038256 
TIME: 15.433982, ROLL: 0.003404, PITCH: 0.007545, YAW: 0.001336, X: 0.045559, Y: -0.027209, ALTITUDE: -0.998377, VX: -0.060212, VY: -0.011211, VZ: -0.038256 
TIME: 15.449242, ROLL: 0.003404, PITCH: 0.007545, YAW: 0.001336, X: 0.045559, Y: -0.027209, ALTITUDE: -0.998377, VX: -0.060212, VY: -0.011211, VZ: -0.038256 
TIME: 15.461891, ROLL: 0.001845, PITCH: 0.004075, YAW: -0.001893, X: 0.045559, Y: -0.027209, ALTITUDE: -0.998377, VX: -0.060212, VY: -0.011211, VZ: -0.038256 
TIME: 15.484224, ROLL: 0.001845, PITCH: 0.004075, YAW: -0.001893, X: 0.039887, Y: -0.028370, ALTITUDE: -1.014770, VX: -0.059030, VY: -0.012080, VZ: -0.021771 
TIME: 15.492957, ROLL: 0.001845, PITCH: 0.004075, YAW: -0.001893, X: 0.039887, Y: -0.028370, ALTITUDE: -1.014770, VX: -0.059030, VY: -0.012080, VZ: -0.021771 
TIME: 15.505446, ROLL: 0.001845, PITCH: 0.004075, YAW: -0.001893, X: 0.039887, Y: -0.028370, ALTITUDE: -1.014770, VX: -0.059030, VY: -0.012080, VZ: -0.021771 
TIME: 15.558810, ROLL: 0.016986, PITCH: 0.000156, YAW: -0.000319, X: 0.039887, Y: -0.028370, ALTITUDE: -1.014770, VX: -0.059030, VY: -0.012080, VZ: -0.021771 
TIME: 15.611602, ROLL: 0.016986, PITCH: 0.000156, YAW: -0.000319, X: 0.034700, Y: -0.028831, ALTITUDE: -1.013294, VX: -0.049146, VY: -0.004374, VZ: 0.002376 
TIME: 15.664527, ROLL: 0.016986, PITCH: 0.000156, YAW: -0.000319, X: 0.034700, Y: -0.028831, ALTITUDE: -1.013294, VX: -0.049146, VY: -0.004374, VZ: 0.002376 
TIME: 15.717560, ROLL: 0.016986, PITCH: 0.000156, YAW: -0.000319, X: 0.034700, Y: -0.028831, ALTITUDE: -1.013294, VX: -0.049146, VY: -0.004374, VZ: 0.002376 
TIME: 15.770388, ROLL: 0.016986, PITCH: 0.000156, YAW: -0.000319, X: 0.034700, Y: -0.028831, ALTITUDE: -1.013294, VX: -0.049146, VY: -0.004374, VZ: 0.002376 
TIME: 15.823211, ROLL: 0.012018, PITCH: -0.004960, YAW: 0.004369, X: 0.027234, Y: -0.025780, ALTITUDE: -1.023638, VX: -0.032010, VY: 0.013081, VZ: -0.003335 
TIME: 15.876171, ROLL: 0.012018, PITCH: -0.004960, YAW: 0.004369, X: 0.027234, Y: -0.025780, ALTITUDE: -1.023638, VX: -0.032010, VY: 0.013081, VZ: -0.003335 
TIME: 15.928951, ROLL: 0.012018, PITCH: -0.004960, YAW: 0.004369, X: 0.027234, Y: -0.025780, ALTITUDE: -1.023638, VX: -0.032010, VY: 0.013081, VZ: -0.003335 
TIME: 15.981411, ROLL: 0.018243, PITCH: -0.008410, YAW: 0.007523, X: 0.027234, Y: -0.025780, ALTITUDE: -1.023638, VX: -0.032010, VY: 0.013081, VZ: -0.003335 
TIME: 16.034155, ROLL: 0.018243, PITCH: -0.008410, YAW: 0.007523, X: 0.026650, Y: -0.023533, ALTITUDE: -1.014975, VX: -0.003078, VY: 0.011847, VZ: 0.010455 
TIME: 16.087126, ROLL: 0.018243, PITCH: -0.008410, YAW: 0.007523, X: 0.026650, Y: -0.023533, ALTITUDE: -1.014975, VX: -0.003078, VY: 0.011847, VZ: 0.010455 
TIME: 16.140350, ROLL: 0.018243, PITCH: -0.008410, YAW: 0.007523, X: 0.026650, Y: -0.023533, ALTITUDE: -1.014975, VX: -0.003078, VY: 0.011847, VZ: 0.010455 
TIME: 16.193129, ROLL: 0.009155, PITCH: -0.001061, YAW: 0.007899, X: 0.026650, Y: -0.023533, ALTITUDE: -1.014975, VX: -0.003078, VY: 0.011847, VZ: 0.010455 
TIME: 16.245949, ROLL: 0.009155, PITCH: -0.001061, YAW: 0.007899, X: 0.029684, Y: -0.017211, ALTITUDE: -1.000177, VX: 0.014288, VY: 0.029769, VZ: 0.010596 
TIME: 16.298763, ROLL: 0.009155, PITCH: -0.001061, YAW: 0.007899, X: 0.029684, Y: -0.017211, ALTITUDE: -1.000177, VX: 0.014288, VY: 0.029769, VZ: 0.010596 
TIME: 16.352121, ROLL: 0.009155, PITCH: -0.001061, YAW: 0.007899, X: 0.029684, Y: -0.017211, ALTITUDE: -1.000177, VX: 0.014288, VY: 0.029769, VZ: 0.010596 
TIME: 16.396315, ROLL: -0.003104, PITCH: -0.004451, YAW: 0.005598, X: 0.029684, Y: -0.017211, ALTITUDE: -1.000177, VX: 0.014288, VY: 0.029769, VZ: 0.010596 
TIME: 16.449060, ROLL: -0.003104, PITCH: -0.004451, YAW: 0.005598, X: 0.033496, Y: -0.014243, ALTITUDE: -0.989190, VX: 0.018835, VY: 0.014666, VZ: 0.002348 
TIME: 16.548769, ROLL: -0.003104, PITCH: -0.004451, YAW: 0.005598, X: 0.033496, Y: -0.014243, ALTITUDE: -0.989190, VX: 0.018835, VY: 0.014666, VZ: 0.002348 
TIME: 16.651817, ROLL: -0.003104, PITCH: -0.004451, YAW: 0.005598, X: 0.033496, Y: -0.014243, ALTITUDE: -0.989190, VX: 0.018835, VY: 0.014666, VZ: 0.002348 
TIME: 16.754486, ROLL: 0.001955, PITCH: -0.001428, YAW: 0.002987, X: 0.033496, Y: -0.014243, ALTITUDE: -0.989190, VX: 0.018835, VY: 0.014666, VZ: 0.002348 
TIME: 16.857380, ROLL: 0.001955, PITCH: -0.001428, YAW: 0.002987, X: 0.045114, Y: -0.020077, ALTITUDE: -0.984926, VX: 0.031600, VY: -0.015869, VZ: -0.043335 
TIME: 16.960285, ROLL: 0.001955, PITCH: -0.001428, YAW: 0.002987, X: 0.045114, Y: -0.020077, ALTITUDE: -0.984926, VX: 0.031600, VY: -0.015869, VZ: -0.043335 
TIME: 17.063276, ROLL: 0.001955, PITCH: -0.001428, YAW: 0.002987, X: 0.045114, Y: -0.020077, ALTITUDE: -0.984926, VX: 0.031600, VY: -0.015869, VZ: -0.043335 
TIME: 17.166580, ROLL: 0.001955, PITCH: -0.001428, YAW: 0.002987, X: 0.045114, Y: -0.020077, ALTITUDE: -0.984926, VX: 0.031600, VY: -0.015869, VZ: -0.043335 
TIME: 17.269068, ROLL: 0.011582, PITCH: 0.018893, YAW: 0.002703, X: 0.047808, Y: -0.035791, ALTITUDE: -0.984926, VX: 0.005932, VY: -0.034592, VZ: -0.248590 
TIME: 17.372004, ROLL: 0.011582, PITCH: 0.018893, YAW: 0.002703, X: 0.047808, Y: -0.035791, ALTITUDE: -1.021997, VX: 0.005932, VY: -0.034592, VZ: -0.248590 
TIME: 17.474859, ROLL: 0.011582, PITCH: 0.018893, YAW: 0.002703, X: 0.047808, Y: -0.035791, ALTITUDE: -1.021997, VX: 0.005932, VY: -0.034592, VZ: -0.248590 
TIME: 17.577707, ROLL: 0.021631, PITCH: 0.013393, YAW: 0.003673, X: 0.047808, Y: -0.035791, ALTITUDE: -1.021997, VX: 0.005932, VY: -0.034592, VZ: -0.248590 
TIME: 17.680162, ROLL: 0.021631, PITCH: 0.013393, YAW: 0.003673, X: 0.047182, Y: -0.044133, ALTITUDE: -1.033083, VX: -0.001596, VY: -0.021232, VZ: -0.021496 
TIME: 17.783014, ROLL: 0.021631, PITCH: 0.013393, YAW: 0.003673, X: 0.047182, Y: -0.044133, ALTITUDE: -1.033083, VX: -0.001596, VY: -0.021232, VZ: -0.021496 
TIME: 17.885801, ROLL: 0.021631, PITCH: 0.013393, YAW: 0.003673, X: 0.047182, Y: -0.044133, ALTITUDE: -1.033083, VX: -0.001596, VY: -0.021232, VZ: -0.021496 
TIME: 17.988632, ROLL: 0.017994, PITCH: 0.016272, YAW: 0.005054, X: 0.047182, Y: -0.044133, ALTITUDE: -1.033083, VX: -0.001596, VY: -0.021232, VZ: -0.021496 
TIME: 18.083584, ROLL: 0.017994, PITCH: 0.016272, YAW: 0.005054, X: 0.048077, Y: -0.045608, ALTITUDE: -1.060456, VX: 0.002328, VY: -0.003837, VZ: -0.231908 
TIME: 18.139542, ROLL: 0.017994, PITCH: 0.016272, YAW: 0.005054, X: 0.048077, Y: -0.045608, ALTITUDE: -1.060456, VX: 0.002328, VY: -0.003837, VZ: -0.231908 
TIME: 18.208183, ROLL: 0.017994, PITCH: 0.016272, YAW: 0.005054, X: 0.048077, Y: -0.045608, ALTITUDE: -1.060456, VX: 0.002328, VY: -0.003837, VZ: -0.231908 
TIME: 18.294809, ROLL: 0.017994, PITCH: 0.016272, YAW: 0.005054, X: 0.048077, Y: -0.045608, ALTITUDE: -1.060456, VX: 0.002328, VY: -0.003837, VZ: -0.231908 
TIME: 18.384636, ROLL: 0.019914, PITCH: 0.011684, YAW: 0.007481, X: 0.046136, Y: -0.048408, ALTITUDE: -1.060456, VX: -0.005563, VY: -0.008026, VZ: -0.128523 
TIME: 18.468590, ROLL: 0.019914, PITCH: 0.011684, YAW: 0.007481, X: 0.046136, Y: -0.048408, ALTITUDE: -1.101726, VX: -0.005563, VY: -0.008026, VZ: -0.128523 
TIME: 18.557783, ROLL: 0.019914, PITCH: 0.011684, YAW: 0.007481, X: 0.046136, Y: -0.048408, ALTITUDE: -1.101726, VX: -0.005563, VY: -0.008026, VZ: -0.128523 
TIME: 18.644863, ROLL: 0.023705, PITCH: -0.001943, YAW: 0.012203, X: 0.046136, Y: -0.048408, ALTITUDE: -1.101726, VX: -0.005563, VY: -0.008026, VZ: -0.128523 
TIME: 18.726257, ROLL: 0.023705, PITCH: -0.001943, YAW: 0.012203, X: 0.041879, Y: -0.043090, ALTITUDE: -1.086804, VX: -0.012941, VY: 0.016165, VZ: 0.231920 
TIME: 18.813295, ROLL: 0.023705, PITCH: -0.001943, YAW: 0.012203, X: 0.041879, Y: -0.043090, ALTITUDE: -1.086804, VX: -0.012941, VY: 0.016165, VZ: 0.231920 
TIME: 18.913174, ROLL: 0.023705, PITCH: -0.001943, YAW: 0.012203, X: 0.041879, Y: -0.043090, ALTITUDE: -1.086804, VX: -0.012941, VY: 0.016165, VZ: 0.231920 
TIME: 19.015913, ROLL: 0.023705, PITCH: -0.001943, YAW: 0.012203, X: 0.041879, Y: -0.043090, ALTITUDE: -1.086804, VX: -0.012941, VY: 0.016165, VZ: 0.231920 
TIME: 19.119097, ROLL: 0.021207, PITCH: -0.127862, YAW: 0.014389, X: 0.088424, Y: -0.013737, ALTITUDE: -1.086804, VX: 0.116790, VY: 0.073652, VZ: 0.612916 
TIME: 19.221874, ROLL: 0.021207, PITCH: -0.127862, YAW: 0.014389, X: 0.088424, Y: -0.013737, ALTITUDE: -1.010111, VX: 0.116790, VY: 0.073652, VZ: 0.612916 
TIME: 19.323233, ROLL: 0.021207, PITCH: -0.127862, YAW: 0.014389, X: 0.088424, Y: -0.013737, ALTITUDE: -1.010111, VX: 0.116790, VY: 0.073652, VZ: 0.612916 
TIME: 19.426369, ROLL: -0.002816, PITCH: -0.206346, YAW: 0.017258, X: 0.088424, Y: -0.013737, ALTITUDE: -1.010111, VX: 0.116790, VY: 0.073652, VZ: 0.612916 
TIME: 19.529325, ROLL: -0.002816, PITCH: -0.206346, YAW: 0.017258, X: 0.243697, Y: 0.038925, ALTITUDE: -0.879494, VX: 0.424193, VY: 0.143867, VZ: 0.861731 
TIME: 19.632139, ROLL: -0.002816, PITCH: -0.206346, YAW: 0.017258, X: 0.243697, Y: 0.038925, ALTITUDE: -0.879494, VX: 0.424193, VY: 0.143867, VZ: 0.861731 
TIME: 19.735054, ROLL: -0.002816, PITCH: -0.206346, YAW: 0.017258, X: 0.243697, Y: 0.038925, ALTITUDE: -0.879494, VX: 0.424193, VY: 0.143867, VZ: 0.861731 
TIME: 19.816885, ROLL: -0.007943, PITCH: -0.061725, YAW: 0.025688, X: 0.243697, Y: 0.038925, ALTITUDE: -0.879494, VX: 0.424193, VY: 0.143867, VZ: 0.861731 
TIME: 19.919956, ROLL: -0.007943, PITCH: -0.061725, YAW: 0.025688, X: 0.470449, Y: 0.113006, ALTITUDE: -0.715532, VX: 0.578395, VY: 0.188965, VZ: 0.870121 
TIME: 20.022886, ROLL: -0.007943, PITCH: -0.061725, YAW: 0.025688, X: 0.470449, Y: 0.113006, ALTITUDE: -0.715532, VX: 0.578395, VY: 0.188965, VZ: 0.870121 
TIME: 20.125774, ROLL: -0.007943, PITCH: -0.061725, YAW: 0.025688, X: 0.470449, Y: 0.113006, ALTITUDE: -0.715532, VX: 0.578395, VY: 0.188965, VZ: 0.870121 
TIME: 20.229139, ROLL: -0.042079, PITCH: 0.041438, YAW: 0.030013, X: 0.470449, Y: 0.113006, ALTITUDE: -0.715532, VX: 0.578395, VY: 0.188965, VZ: 0.870121 
TIME: 20.331167, ROLL: -0.042079, PITCH: 0.041438, YAW: 0.030013, X: 0.705148, Y: 0.127066, ALTITUDE: -0.584181, VX: 0.565276, VY: 0.033865, VZ: 0.334444 
TIME: 20.433720, ROLL: -0.042079, PITCH: 0.041438, YAW: 0.030013, X: 0.705148, Y: 0.127066, ALTITUDE: -0.584181, VX: 0.565276, VY: 0.033865, VZ: 0.334444 
TIME: 20.536037, ROLL: -0.042079, PITCH: 0.041438, YAW: 0.030013, X: 0.705148, Y: 0.127066, ALTITUDE: -0.584181, VX: 0.565276, VY: 0.033865, VZ: 0.334444 
TIME: 20.638569, ROLL: -0.139879, PITCH: 0.114908, YAW: 0.023072, X: 0.705148, Y: 0.127066, ALTITUDE: -0.584181, VX: 0.565276, VY: 0.033865, VZ: 0.334444 
TIME: 20.740868, ROLL: -0.139879, PITCH: 0.114908, YAW: 0.023072, X: 0.827753, Y: 0.075702, ALTITUDE: -0.548179, VX: 0.291244, VY: -0.122014, VZ: 0.031854 
TIME: 20.843489, ROLL: -0.139879, PITCH: 0.114908, YAW: 0.023072, X: 0.827753, Y: 0.075702, ALTITUDE: -0.548179, VX: 0.291244, VY: -0.122014, VZ: 0.031854 
TIME: 20.945965, ROLL: -0.139879, PITCH: 0.114908, YAW: 0.023072, X: 0.827753, Y: 0.075702, ALTITUDE: -0.548179, VX: 0.291244, VY: -0.122014, VZ: 0.031854 
TIME: 21.048302, ROLL: -0.139879, PITCH: 0.114908, YAW: 0.023072, X: 0.827753, Y: 0.075702, ALTITUDE: -0.548179, VX: 0.291244, VY: -0.122014, VZ: 0.031854 
TIME: 21.150545, ROLL: -0.072861, PITCH: 0.054459, YAW: 0.022440, X: 0.915137, Y: -0.035069, ALTITUDE: -0.548179, VX: 0.198797, VY: -0.252000, VZ: 0.099380 
TIME: 21.252829, ROLL: -0.072861, PITCH: 0.054459, YAW: 0.022440, X: 0.915137, Y: -0.035069, ALTITUDE: -0.530509, VX: 0.198797, VY: -0.252000, VZ: 0.099380 
TIME: 21.355434, ROLL: -0.072861, PITCH: 0.054459, YAW: 0.022440, X: 0.915137, Y: -0.035069, ALTITUDE: -0.530509, VX: 0.198797, VY: -0.252000, VZ: 0.099380 
TIME: 21.457907, ROLL: 0.028043, PITCH: 0.011326, YAW: 0.009024, X: 0.915137, Y: -0.035069, ALTITUDE: -0.530509, VX: 0.198797, VY: -0.252000, VZ: 0.099380 
