TIME: 0.000060, ROLL: 0.000000, PITCH: 0.000000, YAW: 0.000000, X: 0.000000, Y: 0.000000, ALTITUDE: 0.000000, VX: 0.000000, VY: 0.000000, VZ: 0.000000 
TIME: 0.053439, ROLL: 0.014782, PITCH: 0.027301, YAW: -3.059763, X: 0.000000, Y: 0.000000, ALTITUDE: 0.000000, VX: 0.000000, VY: 0.000000, VZ: 0.000000 
TIME: 0.106014, ROLL: 0.014782, PITCH: 0.027301, YAW: -3.059763, X: 0.000000, Y: 0.000000, ALTITUDE: 0.000000, VX: 0.000000, VY: 0.000000, VZ: 0.000000 
TIME: 0.158936, ROLL: 0.014782, PITCH: 0.027301, YAW: -3.059763, X: 0.000000, Y: 0.000000, ALTITUDE: 0.000000, VX: 0.000000, VY: 0.000000, VZ: 0.000000 
TIME: 0.211645, ROLL: 0.014811, PITCH: 0.027288, YAW: -3.059702, X: 0.000000, Y: 0.000000, ALTITUDE: 0.000000, VX: 0.000000, VY: 0.000000, VZ: 0.000000 
TIME: 0.264633, ROLL: 0.014811, PITCH: 0.027288, YAW: -3.059702, X: 0.000000, Y: 0.000000, ALTITUDE: 0.000000, VX: 0.000000, VY: 0.000000, VZ: 0.000000 
TIME: 0.316881, ROLL: 0.014811, PITCH: 0.027288, YAW: -3.059702, X: 0.000000, Y: 0.000000, ALTITUDE: 0.000000, VX: 0.000000, VY: 0.000000, VZ: 0.000000 
TIME: 0.369697, ROLL: 0.014811, PITCH: 0.027288, YAW: -3.059702, X: 0.000000, Y: 0.000000, ALTITUDE: 0.000000, VX: 0.000000, VY: 0.000000, VZ: 0.000000 
TIME: 0.422312, ROLL: 0.014811, PITCH: 0.027181, YAW: -3.059678, X: 0.000000, Y: 0.000000, ALTITUDE: 0.000000, VX: 0.000000, VY: 0.000000, VZ: 0.000000 
TIME: 0.475355, ROLL: 0.014811, PITCH: 0.027181, YAW: -3.059678, X: 0.000000, Y: 0.000000, ALTITUDE: 0.000000, VX: 0.000000, VY: 0.000000, VZ: 0.000000 
TIME: 0.528081, ROLL: 0.014811, PITCH: 0.027181, YAW: -3.059678, X: 0.000000, Y: 0.000000, ALTITUDE: 0.000000, VX: 0.000000, VY: 0.000000, VZ: 0.000000 
TIME: 0.580895, ROLL: 0.014811, PITCH: 0.027181, YAW: -3.059678, X: 0.000000, Y: 0.000000, ALTITUDE: 0.000000, VX: 0.000000, VY: 0.000000, VZ: 0.000000 
TIME: 0.633737, ROLL: 0.014781, PITCH: 0.027340, YAW: -3.059718, X: 0.000000, Y: 0.000000, ALTITUDE: 0.000000, VX: 0.000000, VY: 0.000000, VZ: 0.000000 
TIME: 0.686590, ROLL: 0.014781, PITCH: 0.027340, YAW: -3.059718, X: 0.000000, Y: 0.000000, ALTITUDE: 0.000000, VX: 0.000000, VY: 0.000000, VZ: 0.000000 
TIME: 0.739128, ROLL: 0.014781, PITCH: 0.027340, YAW: -3.059718, X: 0.000000, Y: 0.000000, ALTITUDE: 0.000000, VX: 0.000000, VY: 0.000000, VZ: 0.000000 
TIME: 0.791955, ROLL: 0.014781, PITCH: 0.027340, YAW: -3.059718, X: 0.000000, Y: 0.000000, ALTITUDE: 0.000000, VX: 0.000000, VY: 0.000000, VZ: 0.000000 
TIME: 0.844346, ROLL: 0.014859, PITCH: 0.027322, YAW: -3.059713, X: 0.000000, Y: 0.000000, ALTITUDE: 0.000000, VX: 0.000000, VY: 0.000000, VZ: 0.000000 
TIME: 0.898025, ROLL: 0.014859, PITCH: 0.027322, YAW: -3.059713, X: 0.000000, Y: 0.000000, ALTITUDE: 0.000000, VX: 0.000000, VY: 0.000000, VZ: 0.000000 
TIME: 0.951318, ROLL: 0.014859, PITCH: 0.027322, YAW: -3.059713, X: 0.000000, Y: 0.000000, ALTITUDE: 0.000000, VX: 0.000000, VY: 0.000000, VZ: 0.000000 
TIME: 1.004632, ROLL: 0.014859, PITCH: 0.027322, YAW: -3.059713, X: 0.000000, Y: 0.000000, ALTITUDE: 0.000000, VX: 0.000000, VY: 0.000000, VZ: 0.000000 
TIME: 1.057516, ROLL: 0.014859, PITCH: 0.027322, YAW: -3.059713, X: 0.000000, Y: 0.000000, ALTITUDE: 0.000000, VX: 0.000000, VY: 0.000000, VZ: 0.000000 
TIME: 1.110527, ROLL: 0.014652, PITCH: 0.027203, YAW: -3.059756, X: 0.000000, Y: 0.000000, ALTITUDE: 0.000000, VX: 0.000000, VY: 0.000000, VZ: 0.000000 
TIME: 1.163272, ROLL: 0.014652, PITCH: 0.027203, YAW: -3.059756, X: 0.000000, Y: 0.000000, ALTITUDE: 0.000000, VX: 0.000000, VY: 0.000000, VZ: 0.000000 
TIME: 1.216364, ROLL: 0.014652, PITCH: 0.027203, YAW: -3.059756, X: 0.000000, Y: 0.000000, ALTITUDE: 0.000000, VX: 0.000000, VY: 0.000000, VZ: 0.000000 
TIME: 1.269743, ROLL: 0.014845, PITCH: 0.027172, YAW: -3.059809, X: 0.000000, Y: 0.000000, ALTITUDE: 0.000000, VX: 0.000000, VY: 0.000000, VZ: 0.000000 
TIME: 1.323024, ROLL: 0.014845, PITCH: 0.027172, YAW: -3.059809, X: 0.000000, Y: 0.000000, ALTITUDE: 0.000000, VX: 0.000000, VY: 0.000000, VZ: 0.000000 
TIME: 1.375737, ROLL: 0.014845, PITCH: 0.027172, YAW: -3.059809, X: 0.000000, Y: 0.000000, ALTITUDE: 0.000000, VX: 0.000000, VY: 0.000000, VZ: 0.000000 
TIME: 1.429220, ROLL: 0.014845, PITCH: 0.027172, YAW: -3.059809, X: 0.000000, Y: 0.000000, ALTITUDE: 0.000000, VX: 0.000000, VY: 0.000000, VZ: 0.000000 
TIME: 1.481719, ROLL: 0.014788, PITCH: 0.027077, YAW: -3.059802, X: 0.000000, Y: 0.000000, ALTITUDE: 0.000000, VX: 0.000000, VY: 0.000000, VZ: 0.000000 
TIME: 1.535085, ROLL: 0.014788, PITCH: 0.027077, YAW: -3.059802, X: 0.000000, Y: 0.000000, ALTITUDE: 0.000000, VX: 0.000000, VY: 0.000000, VZ: 0.000000 
TIME: 1.587508, ROLL: 0.014788, PITCH: 0.027077, YAW: -3.059802, X: 0.000000, Y: 0.000000, ALTITUDE: 0.000000, VX: 0.000000, VY: 0.000000, VZ: 0.000000 
TIME: 1.640198, ROLL: 0.014788, PITCH: 0.027077, YAW: -3.059802, X: 0.000000, Y: 0.000000, ALTITUDE: 0.000000, VX: 0.000000, VY: 0.000000, VZ: 0.000000 
TIME: 1.692608, ROLL: 0.014795, PITCH: 0.027254, YAW: -3.059789, X: 0.000000, Y: 0.000000, ALTITUDE: 0.000000, VX: 0.000000, VY: 0.000000, VZ: 0.000000 
TIME: 1.745854, ROLL: 0.014795, PITCH: 0.027254, YAW: -3.059789, X: 0.000000, Y: 0.000000, ALTITUDE: 0.000000, VX: 0.000000, VY: 0.000000, VZ: 0.000000 
TIME: 1.800746, ROLL: 0.014795, PITCH: 0.027254, YAW: -3.059789, X: 0.000000, Y: 0.000000, ALTITUDE: 0.000000, VX: 0.000000, VY: 0.000000, VZ: 0.000000 
TIME: 1.853897, ROLL: 0.014795, PITCH: 0.027254, YAW: -3.059789, X: 0.000000, Y: 0.000000, ALTITUDE: 0.000000, VX: 0.000000, VY: 0.000000, VZ: 0.000000 
TIME: 1.907005, ROLL: 0.014818, PITCH: 0.027160, YAW: -3.059676, X: 0.000000, Y: 0.000000, ALTITUDE: 0.000000, VX: 0.000000, VY: 0.000000, VZ: 0.000000 
TIME: 1.960346, ROLL: 0.014818, PITCH: 0.027160, YAW: -3.059676, X: 0.000000, Y: 0.000000, ALTITUDE: 0.000000, VX: 0.000000, VY: 0.000000, VZ: 0.000000 
TIME: 1.997587, ROLL: 0.014818, PITCH: 0.027160, YAW: -3.059676, X: 0.000000, Y: 0.000000, ALTITUDE: 0.000000, VX: 0.000000, VY: 0.000000, VZ: 0.000000 
TIME: 2.023536, ROLL: 0.014818, PITCH: 0.027160, YAW: -3.059676, X: 0.000000, Y: 0.000000, ALTITUDE: 0.000000, VX: 0.000000, VY: 0.000000, VZ: 0.000000 
TIME: 2.064449, ROLL: 0.014818, PITCH: 0.027160, YAW: -3.059676, X: 0.000000, Y: 0.000000, ALTITUDE: 0.000000, VX: 0.000000, VY: 0.000000, VZ: 0.000000 
TIME: 2.111932, ROLL: 0.014642, PITCH: 0.026961, YAW: -3.059676, X: 0.000000, Y: 0.000000, ALTITUDE: 0.000000, VX: 0.000000, VY: 0.000000, VZ: 0.000000 
TIME: 2.145550, ROLL: 0.014642, PITCH: 0.026961, YAW: -3.059676, X: 0.000000, Y: 0.000000, ALTITUDE: 0.000000, VX: 0.000000, VY: 0.000000, VZ: 0.000000 
TIME: 2.198696, ROLL: 0.014642, PITCH: 0.026961, YAW: -3.059676, X: 0.000000, Y: 0.000000, ALTITUDE: 0.000000, VX: 0.000000, VY: 0.000000, VZ: 0.000000 
TIME: 2.251088, ROLL: 0.014546, PITCH: 0.026942, YAW: -3.059670, X: 0.000000, Y: 0.000000, ALTITUDE: 0.000000, VX: 0.000000, VY: 0.000000, VZ: 0.000000 
TIME: 2.303967, ROLL: 0.014546, PITCH: 0.026942, YAW: -3.059670, X: 0.000000, Y: 0.000000, ALTITUDE: 0.000000, VX: 0.000000, VY: 0.000000, VZ: 0.000000 
TIME: 2.356869, ROLL: 0.014546, PITCH: 0.026942, YAW: -3.059670, X: 0.000000, Y: 0.000000, ALTITUDE: 0.000000, VX: 0.000000, VY: 0.000000, VZ: 0.000000 
TIME: 2.409409, ROLL: 0.014546, PITCH: 0.026942, YAW: -3.059670, X: 0.000000, Y: 0.000000, ALTITUDE: 0.000000, VX: 0.000000, VY: 0.000000, VZ: 0.000000 
TIME: 2.462117, ROLL: 0.014614, PITCH: 0.026940, YAW: -3.059675, X: 0.000000, Y: 0.000000, ALTITUDE: 0.000000, VX: 0.000000, VY: 0.000000, VZ: 0.000000 
TIME: 2.514779, ROLL: 0.014614, PITCH: 0.026940, YAW: -3.059675, X: 0.000000, Y: 0.000000, ALTITUDE: 0.000000, VX: 0.000000, VY: 0.000000, VZ: 0.000000 
TIME: 2.567318, ROLL: 0.014614, PITCH: 0.026940, YAW: -3.059675, X: 0.000000, Y: 0.000000, ALTITUDE: 0.000000, VX: 0.000000, VY: 0.000000, VZ: 0.000000 
TIME: 2.619672, ROLL: 0.014614, PITCH: 0.026940, YAW: -3.059675, X: 0.000000, Y: 0.000000, ALTITUDE: 0.000000, VX: 0.000000, VY: 0.000000, VZ: 0.000000 
TIME: 2.672224, ROLL: 0.014803, PITCH: 0.026794, YAW: -3.059717, X: 0.000000, Y: 0.000000, ALTITUDE: 0.000000, VX: 0.000000, VY: 0.000000, VZ: 0.000000 
TIME: 2.724867, ROLL: 0.014803, PITCH: 0.026794, YAW: -3.059717, X: 0.000000, Y: 0.000000, ALTITUDE: 0.000000, VX: 0.000000, VY: 0.000000, VZ: 0.000000 
TIME: 2.777250, ROLL: 0.014803, PITCH: 0.026794, YAW: -3.059717, X: 0.000000, Y: 0.000000, ALTITUDE: 0.000000, VX: 0.000000, VY: 0.000000, VZ: 0.000000 
TIME: 2.829752, ROLL: 0.014803, PITCH: 0.026794, YAW: -3.059717, X: 0.000000, Y: 0.000000, ALTITUDE: 0.000000, VX: 0.000000, VY: 0.000000, VZ: 0.000000 
TIME: 2.882361, ROLL: 0.014754, PITCH: 0.026919, YAW: -3.059738, X: 0.000000, Y: 0.000000, ALTITUDE: 0.000000, VX: 0.000000, VY: 0.000000, VZ: 0.000000 
TIME: 2.935047, ROLL: 0.014754, PITCH: 0.026919, YAW: -3.059738, X: 0.000000, Y: 0.000000, ALTITUDE: 0.000000, VX: 0.000000, VY: 0.000000, VZ: 0.000000 
TIME: 2.989332, ROLL: 0.014754, PITCH: 0.026919, YAW: -3.059738, X: 0.000000, Y: 0.000000, ALTITUDE: 0.000000, VX: 0.000000, VY: 0.000000, VZ: 0.000000 
TIME: 3.041666, ROLL: 0.014754, PITCH: 0.026919, YAW: -3.059738, X: 0.000000, Y: 0.000000, ALTITUDE: 0.000000, VX: 0.000000, VY: 0.000000, VZ: 0.000000 
TIME: 3.097271, ROLL: 0.014754, PITCH: 0.026919, YAW: -3.059738, X: 0.000000, Y: 0.000000, ALTITUDE: 0.000000, VX: 0.000000, VY: 0.000000, VZ: 0.000000 
TIME: 3.150094, ROLL: 0.014860, PITCH: 0.027121, YAW: -3.059736, X: 0.000000, Y: 0.000000, ALTITUDE: 0.000000, VX: 0.000000, VY: 0.000000, VZ: 0.000000 
TIME: 3.202864, ROLL: 0.014860, PITCH: 0.027121, YAW: -3.059736, X: 0.000000, Y: 0.000000, ALTITUDE: 0.000000, VX: 0.000000, VY: 0.000000, VZ: 0.000000 
TIME: 3.255860, ROLL: 0.014860, PITCH: 0.027121, YAW: -3.059736, X: 0.000000, Y: 0.000000, ALTITUDE: 0.000000, VX: 0.000000, VY: 0.000000, VZ: 0.000000 
TIME: 3.308517, ROLL: 0.015023, PITCH: 0.027048, YAW: -3.059717, X: 0.000000, Y: 0.000000, ALTITUDE: 0.000000, VX: 0.000000, VY: 0.000000, VZ: 0.000000 
TIME: 3.361324, ROLL: 0.015023, PITCH: 0.027048, YAW: -3.059717, X: 0.000000, Y: 0.000000, ALTITUDE: 0.000000, VX: 0.000000, VY: 0.000000, VZ: 0.000000 
TIME: 3.414145, ROLL: 0.015023, PITCH: 0.027048, YAW: -3.059717, X: 0.000000, Y: 0.000000, ALTITUDE: 0.000000, VX: 0.000000, VY: 0.000000, VZ: 0.000000 
TIME: 3.466736, ROLL: 0.015023, PITCH: 0.027048, YAW: -3.059717, X: 0.000000, Y: 0.000000, ALTITUDE: 0.000000, VX: 0.000000, VY: 0.000000, VZ: 0.000000 
TIME: 3.519418, ROLL: 0.014939, PITCH: 0.027127, YAW: -3.059663, X: 0.000000, Y: 0.000000, ALTITUDE: 0.000000, VX: 0.000000, VY: 0.000000, VZ: 0.000000 
TIME: 3.572279, ROLL: 0.014939, PITCH: 0.027127, YAW: -3.059663, X: 0.000000, Y: 0.000000, ALTITUDE: 0.000000, VX: 0.000000, VY: 0.000000, VZ: 0.000000 
TIME: 3.625757, ROLL: 0.014939, PITCH: 0.027127, YAW: -3.059663, X: 0.000000, Y: 0.000000, ALTITUDE: 0.000000, VX: 0.000000, VY: 0.000000, VZ: 0.000000 
TIME: 3.678502, ROLL: 0.014939, PITCH: 0.027127, YAW: -3.059663, X: 0.000000, Y: 0.000000, ALTITUDE: 0.000000, VX: 0.000000, VY: 0.000000, VZ: 0.000000 
TIME: 3.731695, ROLL: 0.014981, PITCH: 0.026904, YAW: -3.059647, X: 0.000000, Y: 0.000000, ALTITUDE: 0.000000, VX: 0.000000, VY: 0.000000, VZ: 0.000000 
TIME: 3.784798, ROLL: 0.014981, PITCH: 0.026904, YAW: -3.059647, X: 0.000000, Y: 0.000000, ALTITUDE: 0.000000, VX: 0.000000, VY: 0.000000, VZ: 0.000000 
TIME: 3.837377, ROLL: 0.014981, PITCH: 0.026904, YAW: -3.059647, X: 0.000000, Y: 0.000000, ALTITUDE: 0.000000, VX: 0.000000, VY: 0.000000, VZ: 0.000000 
TIME: 3.890339, ROLL: 0.014981, PITCH: 0.026904, YAW: -3.059647, X: 0.000000, Y: 0.000000, ALTITUDE: 0.000000, VX: 0.000000, VY: 0.000000, VZ: 0.000000 
TIME: 3.943057, ROLL: 0.015072, PITCH: 0.027084, YAW: -3.059709, X: 0.000000, Y: 0.000000, ALTITUDE: 0.000000, VX: 0.000000, VY: 0.000000, VZ: 0.000000 
TIME: 3.996136, ROLL: 0.015072, PITCH: 0.027084, YAW: -3.059709, X: 0.000000, Y: 0.000000, ALTITUDE: 0.000000, VX: 0.000000, VY: 0.000000, VZ: 0.000000 
TIME: 4.049410, ROLL: 0.015072, PITCH: 0.027084, YAW: -3.059709, X: 0.000000, Y: 0.000000, ALTITUDE: 0.000000, VX: 0.000000, VY: 0.000000, VZ: 0.000000 
TIME: 4.102422, ROLL: 0.015072, PITCH: 0.027084, YAW: -3.059709, X: 0.000000, Y: 0.000000, ALTITUDE: 0.000000, VX: 0.000000, VY: 0.000000, VZ: 0.000000 
TIME: 4.155160, ROLL: 0.015072, PITCH: 0.027084, YAW: -3.059709, X: 0.000000, Y: 0.000000, ALTITUDE: 0.000000, VX: 0.000000, VY: 0.000000, VZ: 0.000000 
TIME: 4.208139, ROLL: 0.015099, PITCH: 0.027173, YAW: -3.059670, X: 0.000000, Y: 0.000000, ALTITUDE: 0.000000, VX: 0.000000, VY: 0.000000, VZ: 0.000000 
TIME: 4.260908, ROLL: 0.015099, PITCH: 0.027173, YAW: -3.059670, X: 0.000000, Y: 0.000000, ALTITUDE: 0.000000, VX: 0.000000, VY: 0.000000, VZ: 0.000000 
TIME: 4.301847, ROLL: 0.015099, PITCH: 0.027173, YAW: -3.059670, X: 0.000000, Y: 0.000000, ALTITUDE: 0.000000, VX: 0.000000, VY: 0.000000, VZ: 0.000000 
TIME: 4.316431, ROLL: 0.014939, PITCH: 0.027154, YAW: -3.059662, X: 0.000000, Y: 0.000000, ALTITUDE: 0.000000, VX: 0.000000, VY: 0.000000, VZ: 0.000000 
TIME: 4.369289, ROLL: 0.014939, PITCH: 0.027154, YAW: -3.059662, X: 0.000000, Y: 0.000000, ALTITUDE: 0.000000, VX: 0.000000, VY: 0.000000, VZ: 0.000000 
TIME: 4.421754, ROLL: 0.014939, PITCH: 0.027154, YAW: -3.059662, X: 0.000000, Y: 0.000000, ALTITUDE: 0.000000, VX: 0.000000, VY: 0.000000, VZ: 0.000000 
TIME: 4.474357, ROLL: 0.014939, PITCH: 0.027154, YAW: -3.059662, X: 0.000000, Y: 0.000000, ALTITUDE: 0.000000, VX: 0.000000, VY: 0.000000, VZ: 0.000000 
TIME: 4.527163, ROLL: 0.014962, PITCH: 0.026931, YAW: -3.059698, X: 0.000000, Y: 0.000000, ALTITUDE: 0.000000, VX: 0.000000, VY: 0.000000, VZ: 0.000000 
TIME: 4.579955, ROLL: 0.014962, PITCH: 0.026931, YAW: -3.059698, X: 0.000000, Y: 0.000000, ALTITUDE: 0.000000, VX: 0.000000, VY: 0.000000, VZ: 0.000000 
TIME: 4.632554, ROLL: 0.014962, PITCH: 0.026931, YAW: -3.059698, X: 0.000000, Y: 0.000000, ALTITUDE: 0.000000, VX: 0.000000, VY: 0.000000, VZ: 0.000000 
TIME: 4.685343, ROLL: 0.014962, PITCH: 0.026931, YAW: -3.059698, X: 0.000000, Y: 0.000000, ALTITUDE: 0.000000, VX: 0.000000, VY: 0.000000, VZ: 0.000000 
TIME: 4.733138, ROLL: 0.015033, PITCH: 0.027093, YAW: -3.059686, X: 0.000000, Y: 0.000000, ALTITUDE: 0.000000, VX: 0.000000, VY: 0.000000, VZ: 0.000000 
TIME: 4.741445, ROLL: 0.015033, PITCH: 0.027093, YAW: -3.059686, X: 0.000000, Y: 0.000000, ALTITUDE: 0.000000, VX: 0.000000, VY: 0.000000, VZ: 0.000000 
TIME: 4.791427, ROLL: 0.015033, PITCH: 0.027093, YAW: -3.059686, X: 0.000000, Y: 0.000000, ALTITUDE: 0.000000, VX: 0.000000, VY: 0.000000, VZ: 0.000000 
TIME: 4.844089, ROLL: 0.015033, PITCH: 0.027093, YAW: -3.059686, X: 0.000000, Y: 0.000000, ALTITUDE: 0.000000, VX: 0.000000, VY: 0.000000, VZ: 0.000000 
TIME: 4.897174, ROLL: 0.014878, PITCH: 0.027094, YAW: -3.059696, X: 0.000000, Y: 0.000000, ALTITUDE: 0.000000, VX: 0.000000, VY: 0.000000, VZ: 0.000000 
TIME: 4.950475, ROLL: 0.014878, PITCH: 0.027094, YAW: -3.059696, X: 0.000000, Y: 0.000000, ALTITUDE: 0.000000, VX: 0.000000, VY: 0.000000, VZ: 0.000000 
TIME: 5.003270, ROLL: 0.014878, PITCH: 0.027094, YAW: -3.059696, X: 0.000000, Y: 0.000000, ALTITUDE: 0.000000, VX: 0.000000, VY: 0.000000, VZ: 0.000000 
TIME: 5.056669, ROLL: 0.014878, PITCH: 0.027094, YAW: -3.059696, X: 0.000000, Y: 0.000000, ALTITUDE: 0.000000, VX: 0.000000, VY: 0.000000, VZ: 0.000000 
TIME: 5.109601, ROLL: 0.014878, PITCH: 0.027094, YAW: -3.059696, X: 0.000000, Y: 0.000000, ALTITUDE: 0.000000, VX: 0.000000, VY: 0.000000, VZ: 0.000000 
TIME: 5.162420, ROLL: 0.014911, PITCH: 0.027190, YAW: -3.059715, X: 0.000000, Y: 0.000000, ALTITUDE: 0.000000, VX: 0.000000, VY: 0.000000, VZ: 0.000000 
TIME: 5.215119, ROLL: 0.014911, PITCH: 0.027190, YAW: -3.059715, X: 0.000000, Y: 0.000000, ALTITUDE: 0.000000, VX: 0.000000, VY: 0.000000, VZ: 0.000000 
TIME: 5.268228, ROLL: 0.014911, PITCH: 0.027190, YAW: -3.059715, X: 0.000000, Y: 0.000000, ALTITUDE: 0.000000, VX: 0.000000, VY: 0.000000, VZ: 0.000000 
TIME: 5.293291, ROLL: 0.014896, PITCH: 0.027267, YAW: -3.059735, X: 0.000000, Y: 0.000000, ALTITUDE: 0.000000, VX: 0.000000, VY: 0.000000, VZ: 0.000000 
TIME: 5.305027, ROLL: 0.014896, PITCH: 0.027267, YAW: -3.059735, X: 0.000000, Y: 0.000000, ALTITUDE: 0.000000, VX: 0.000000, VY: 0.000000, VZ: 0.000000 
TIME: 5.320338, ROLL: 0.014896, PITCH: 0.027267, YAW: -3.059735, X: 0.000000, Y: 0.000000, ALTITUDE: 0.000000, VX: 0.000000, VY: 0.000000, VZ: 0.000000 
TIME: 5.331128, ROLL: 0.014896, PITCH: 0.027267, YAW: -3.059735, X: 0.000000, Y: 0.000000, ALTITUDE: 0.000000, VX: 0.000000, VY: 0.000000, VZ: 0.000000 
TIME: 5.346237, ROLL: 0.014941, PITCH: 0.027297, YAW: -3.059702, X: 0.000000, Y: 0.000000, ALTITUDE: 0.000000, VX: 0.000000, VY: 0.000000, VZ: 0.000000 
TIME: 5.355899, ROLL: 0.014941, PITCH: 0.027297, YAW: -3.059702, X: 0.000000, Y: 0.000000, ALTITUDE: 0.000000, VX: 0.000000, VY: 0.000000, VZ: 0.000000 
TIME: 5.367924, ROLL: 0.014941, PITCH: 0.027297, YAW: -3.059702, X: 0.000000, Y: 0.000000, ALTITUDE: 0.000000, VX: 0.000000, VY: 0.000000, VZ: 0.000000 
TIME: 5.400118, ROLL: 0.014941, PITCH: 0.027297, YAW: -3.059702, X: 0.000000, Y: 0.000000, ALTITUDE: 0.000000, VX: 0.000000, VY: 0.000000, VZ: 0.000000 
TIME: 5.453372, ROLL: 0.014979, PITCH: 0.027386, YAW: -3.059738, X: 0.000000, Y: 0.000000, ALTITUDE: 0.000000, VX: 0.000000, VY: 0.000000, VZ: 0.000000 
TIME: 5.467101, ROLL: 0.014979, PITCH: 0.027386, YAW: -3.059738, X: 0.000000, Y: 0.000000, ALTITUDE: 0.000000, VX: 0.000000, VY: 0.000000, VZ: 0.000000 
TIME: 5.481327, ROLL: 0.014979, PITCH: 0.027386, YAW: -3.059738, X: 0.000000, Y: 0.000000, ALTITUDE: 0.000000, VX: 0.000000, VY: 0.000000, VZ: 0.000000 
TIME: 5.490784, ROLL: 0.014979, PITCH: 0.027386, YAW: -3.059738, X: 0.000000, Y: 0.000000, ALTITUDE: 0.000000, VX: 0.000000, VY: 0.000000, VZ: 0.000000 
TIME: 5.512287, ROLL: 0.015063, PITCH: 0.027230, YAW: -3.059754, X: 0.000000, Y: 0.000000, ALTITUDE: 0.000000, VX: 0.000000, VY: 0.000000, VZ: 0.000000 
TIME: 5.565057, ROLL: 0.015063, PITCH: 0.027230, YAW: -3.059754, X: 0.000000, Y: 0.000000, ALTITUDE: 0.000000, VX: 0.000000, VY: 0.000000, VZ: 0.000000 
TIME: 5.617592, ROLL: 0.015063, PITCH: 0.027230, YAW: -3.059754, X: 0.000000, Y: 0.000000, ALTITUDE: 0.000000, VX: 0.000000, VY: 0.000000, VZ: 0.000000 
TIME: 5.671282, ROLL: 0.015063, PITCH: 0.027230, YAW: -3.059754, X: 0.000000, Y: 0.000000, ALTITUDE: 0.000000, VX: 0.000000, VY: 0.000000, VZ: 0.000000 
TIME: 5.724002, ROLL: 0.015063, PITCH: 0.027230, YAW: -3.059754, X: 0.000000, Y: 0.000000, ALTITUDE: 0.000000, VX: 0.000000, VY: 0.000000, VZ: 0.000000 
TIME: 5.776877, ROLL: 0.014910, PITCH: 0.027170, YAW: -3.059786, X: 0.000000, Y: 0.000000, ALTITUDE: 0.000000, VX: 0.000000, VY: 0.000000, VZ: 0.000000 
TIME: 5.829990, ROLL: 0.014910, PITCH: 0.027170, YAW: -3.059786, X: 0.000000, Y: 0.000000, ALTITUDE: 0.000000, VX: 0.000000, VY: 0.000000, VZ: 0.000000 
TIME: 5.882727, ROLL: 0.014910, PITCH: 0.027170, YAW: -3.059786, X: 0.000000, Y: 0.000000, ALTITUDE: 0.000000, VX: 0.000000, VY: 0.000000, VZ: 0.000000 
TIME: 5.935386, ROLL: 0.014928, PITCH: 0.027134, YAW: -3.059756, X: 0.000000, Y: 0.000000, ALTITUDE: 0.000000, VX: 0.000000, VY: 0.000000, VZ: 0.000000 
TIME: 5.988124, ROLL: 0.014928, PITCH: 0.027134, YAW: -3.059756, X: 0.000000, Y: 0.000000, ALTITUDE: 0.000000, VX: 0.000000, VY: 0.000000, VZ: 0.000000 
TIME: 6.041589, ROLL: 0.014928, PITCH: 0.027134, YAW: -3.059756, X: 0.000000, Y: 0.000000, ALTITUDE: 0.000000, VX: 0.000000, VY: 0.000000, VZ: 0.000000 
TIME: 6.094438, ROLL: 0.014928, PITCH: 0.027134, YAW: -3.059756, X: 0.000000, Y: 0.000000, ALTITUDE: 0.000000, VX: 0.000000, VY: 0.000000, VZ: 0.000000 
TIME: 6.147135, ROLL: 0.014780, PITCH: 0.027154, YAW: -3.059755, X: 0.000000, Y: 0.000000, ALTITUDE: 0.000000, VX: 0.000000, VY: 0.000000, VZ: 0.000000 
TIME: 6.199862, ROLL: 0.014780, PITCH: 0.027154, YAW: -3.059755, X: 0.000000, Y: 0.000000, ALTITUDE: 0.000000, VX: 0.000000, VY: 0.000000, VZ: 0.000000 
TIME: 6.252381, ROLL: 0.014780, PITCH: 0.027154, YAW: -3.059755, X: 0.000000, Y: 0.000000, ALTITUDE: 0.000000, VX: 0.000000, VY: 0.000000, VZ: 0.000000 
TIME: 6.305188, ROLL: 0.014780, PITCH: 0.027154, YAW: -3.059755, X: 0.000000, Y: 0.000000, ALTITUDE: 0.000000, VX: 0.000000, VY: 0.000000, VZ: 0.000000 
TIME: 6.357641, ROLL: 0.014703, PITCH: 0.027223, YAW: -3.059726, X: 0.000000, Y: 0.000000, ALTITUDE: 0.000000, VX: 0.000000, VY: 0.000000, VZ: 0.000000 
TIME: 6.410394, ROLL: 0.014703, PITCH: 0.027223, YAW: -3.059726, X: 0.000000, Y: 0.000000, ALTITUDE: 0.000000, VX: 0.000000, VY: 0.000000, VZ: 0.000000 
TIME: 6.463159, ROLL: 0.014703, PITCH: 0.027223, YAW: -3.059726, X: 0.000000, Y: 0.000000, ALTITUDE: 0.000000, VX: 0.000000, VY: 0.000000, VZ: 0.000000 
TIME: 6.516182, ROLL: 0.014703, PITCH: 0.027223, YAW: -3.059726, X: 0.000000, Y: 0.000000, ALTITUDE: 0.000000, VX: 0.000000, VY: 0.000000, VZ: 0.000000 
TIME: 6.563508, ROLL: 0.014846, PITCH: 0.027199, YAW: -3.059720, X: 0.000000, Y: 0.000000, ALTITUDE: 0.000000, VX: 0.000000, VY: 0.000000, VZ: 0.000000 
TIME: 6.599966, ROLL: 0.014846, PITCH: 0.027199, YAW: -3.059720, X: 0.000000, Y: 0.000000, ALTITUDE: 0.000000, VX: 0.000000, VY: 0.000000, VZ: 0.000000 
TIME: 6.652597, ROLL: 0.014846, PITCH: 0.027199, YAW: -3.059720, X: 0.000000, Y: 0.000000, ALTITUDE: 0.000000, VX: 0.000000, VY: 0.000000, VZ: 0.000000 
TIME: 6.705891, ROLL: 0.014846, PITCH: 0.027199, YAW: -3.059720, X: 0.000000, Y: 0.000000, ALTITUDE: 0.000000, VX: 0.000000, VY: 0.000000, VZ: 0.000000 
TIME: 6.758892, ROLL: 0.014846, PITCH: 0.027199, YAW: -3.059720, X: 0.000000, Y: 0.000000, ALTITUDE: 0.000000, VX: 0.000000, VY: 0.000000, VZ: 0.000000 
TIME: 6.811459, ROLL: 0.014840, PITCH: 0.027121, YAW: -3.059722, X: 0.000000, Y: 0.000000, ALTITUDE: 0.000000, VX: 0.000000, VY: 0.000000, VZ: 0.000000 
TIME: 6.863815, ROLL: 0.014840, PITCH: 0.027121, YAW: -3.059722, X: 0.000000, Y: 0.000000, ALTITUDE: 0.000000, VX: 0.000000, VY: 0.000000, VZ: 0.000000 
TIME: 6.915996, ROLL: 0.014840, PITCH: 0.027121, YAW: -3.059722, X: 0.000000, Y: 0.000000, ALTITUDE: 0.000000, VX: 0.000000, VY: 0.000000, VZ: 0.000000 
TIME: 6.968401, ROLL: 0.014857, PITCH: 0.027005, YAW: -3.059668, X: 0.000000, Y: 0.000000, ALTITUDE: 0.000000, VX: 0.000000, VY: 0.000000, VZ: 0.000000 
TIME: 7.021093, ROLL: 0.014857, PITCH: 0.027005, YAW: -3.059668, X: 0.000000, Y: 0.000000, ALTITUDE: 0.000000, VX: 0.000000, VY: 0.000000, VZ: 0.000000 
TIME: 7.073587, ROLL: 0.014857, PITCH: 0.027005, YAW: -3.059668, X: 0.000000, Y: 0.000000, ALTITUDE: 0.000000, VX: 0.000000, VY: 0.000000, VZ: 0.000000 
TIME: 7.125876, ROLL: 0.014857, PITCH: 0.027005, YAW: -3.059668, X: 0.000000, Y: 0.000000, ALTITUDE: 0.000000, VX: 0.000000, VY: 0.000000, VZ: 0.000000 
TIME: 7.178305, ROLL: 0.014851, PITCH: 0.027097, YAW: -3.059693, X: 0.000000, Y: 0.000000, ALTITUDE: 0.000000, VX: 0.000000, VY: 0.000000, VZ: 0.000000 
TIME: 7.230913, ROLL: 0.014851, PITCH: 0.027097, YAW: -3.059693, X: 0.000000, Y: 0.000000, ALTITUDE: 0.000000, VX: 0.000000, VY: 0.000000, VZ: 0.000000 
TIME: 7.283553, ROLL: 0.014851, PITCH: 0.027097, YAW: -3.059693, X: 0.000000, Y: 0.000000, ALTITUDE: 0.000000, VX: 0.000000, VY: 0.000000, VZ: 0.000000 
TIME: 7.336078, ROLL: 0.014851, PITCH: 0.027097, YAW: -3.059693, X: 0.000000, Y: 0.000000, ALTITUDE: 0.000000, VX: 0.000000, VY: 0.000000, VZ: 0.000000 
TIME: 7.388657, ROLL: 0.014712, PITCH: 0.027076, YAW: -3.059664, X: 0.000000, Y: 0.000000, ALTITUDE: 0.000000, VX: 0.000000, VY: 0.000000, VZ: 0.000000 
TIME: 7.441321, ROLL: 0.014712, PITCH: 0.027076, YAW: -3.059664, X: 0.000000, Y: 0.000000, ALTITUDE: 0.000000, VX: 0.000000, VY: 0.000000, VZ: 0.000000 
TIME: 7.492923, ROLL: 0.014712, PITCH: 0.027076, YAW: -3.059664, X: 0.000000, Y: 0.000000, ALTITUDE: 0.000000, VX: 0.000000, VY: 0.000000, VZ: 0.000000 
TIME: 7.545640, ROLL: 0.014712, PITCH: 0.027076, YAW: -3.059664, X: 0.000000, Y: 0.000000, ALTITUDE: 0.000000, VX: 0.000000, VY: 0.000000, VZ: 0.000000 
TIME: 7.598240, ROLL: 0.014711, PITCH: 0.027255, YAW: -3.059661, X: 0.000000, Y: 0.000000, ALTITUDE: 0.000000, VX: 0.000000, VY: 0.000000, VZ: 0.000000 
TIME: 7.650847, ROLL: 0.014711, PITCH: 0.027255, YAW: -3.059661, X: 0.000000, Y: 0.000000, ALTITUDE: 0.000000, VX: 0.000000, VY: 0.000000, VZ: 0.000000 
TIME: 7.703372, ROLL: 0.014711, PITCH: 0.027255, YAW: -3.059661, X: 0.000000, Y: 0.000000, ALTITUDE: 0.000000, VX: 0.000000, VY: 0.000000, VZ: 0.000000 
TIME: 7.755867, ROLL: 0.014711, PITCH: 0.027255, YAW: -3.059661, X: 0.000000, Y: 0.000000, ALTITUDE: 0.000000, VX: 0.000000, VY: 0.000000, VZ: 0.000000 
TIME: 7.808524, ROLL: 0.014711, PITCH: 0.027255, YAW: -3.059661, X: 0.000000, Y: 0.000000, ALTITUDE: 0.000000, VX: 0.000000, VY: 0.000000, VZ: 0.000000 
TIME: 7.861381, ROLL: 0.014711, PITCH: 0.027255, YAW: -3.059661, X: 0.000000, Y: 0.000000, ALTITUDE: 0.000000, VX: 0.000000, VY: 0.000000, VZ: 0.000000 
TIME: 7.914039, ROLL: 0.014636, PITCH: 0.027244, YAW: -3.059635, X: 0.000000, Y: 0.000000, ALTITUDE: 0.000000, VX: 0.000000, VY: 0.000000, VZ: 0.000000 
TIME: 7.966666, ROLL: 0.014636, PITCH: 0.027244, YAW: -3.059635, X: 0.000000, Y: 0.000000, ALTITUDE: 0.000000, VX: 0.000000, VY: 0.000000, VZ: 0.000000 
TIME: 8.019284, ROLL: 0.014636, PITCH: 0.027244, YAW: -3.059635, X: 0.000000, Y: 0.000000, ALTITUDE: 0.000000, VX: 0.000000, VY: 0.000000, VZ: 0.000000 
TIME: 8.071875, ROLL: 0.014636, PITCH: 0.027244, YAW: -3.059635, X: 0.000000, Y: 0.000000, ALTITUDE: 0.000000, VX: 0.000000, VY: 0.000000, VZ: 0.000000 
TIME: 8.124508, ROLL: 0.014700, PITCH: 0.027272, YAW: -3.059642, X: 0.000000, Y: 0.000000, ALTITUDE: 0.000000, VX: 0.000000, VY: 0.000000, VZ: 0.000000 
TIME: 8.177125, ROLL: 0.014700, PITCH: 0.027272, YAW: -3.059642, X: 0.000000, Y: 0.000000, ALTITUDE: 0.000000, VX: 0.000000, VY: 0.000000, VZ: 0.000000 
TIME: 8.229848, ROLL: 0.014700, PITCH: 0.027272, YAW: -3.059642, X: 0.000000, Y: 0.000000, ALTITUDE: 0.000000, VX: 0.000000, VY: 0.000000, VZ: 0.000000 
TIME: 8.282488, ROLL: 0.014700, PITCH: 0.027272, YAW: -3.059642, X: 0.000000, Y: 0.000000, ALTITUDE: 0.000000, VX: 0.000000, VY: 0.000000, VZ: 0.000000 
TIME: 8.335273, ROLL: 0.014763, PITCH: 0.027309, YAW: -3.059676, X: 0.000000, Y: 0.000000, ALTITUDE: 0.000000, VX: 0.000000, VY: 0.000000, VZ: 0.000000 
TIME: 8.387873, ROLL: 0.014763, PITCH: 0.027309, YAW: -3.059676, X: 0.000000, Y: 0.000000, ALTITUDE: 0.000000, VX: 0.000000, VY: 0.000000, VZ: 0.000000 
TIME: 8.440581, ROLL: 0.014763, PITCH: 0.027309, YAW: -3.059676, X: 0.000000, Y: 0.000000, ALTITUDE: 0.000000, VX: 0.000000, VY: 0.000000, VZ: 0.000000 
TIME: 8.493348, ROLL: 0.014763, PITCH: 0.027309, YAW: -3.059676, X: 0.000000, Y: 0.000000, ALTITUDE: 0.000000, VX: 0.000000, VY: 0.000000, VZ: 0.000000 
TIME: 8.546112, ROLL: 0.014670, PITCH: 0.027470, YAW: -3.059692, X: 0.000000, Y: 0.000000, ALTITUDE: 0.000000, VX: 0.000000, VY: 0.000000, VZ: 0.000000 
TIME: 8.598821, ROLL: 0.014670, PITCH: 0.027470, YAW: -3.059692, X: 0.000000, Y: 0.000000, ALTITUDE: 0.000000, VX: 0.000000, VY: 0.000000, VZ: 0.000000 
TIME: 8.651534, ROLL: 0.014670, PITCH: 0.027470, YAW: -3.059692, X: 0.000000, Y: 0.000000, ALTITUDE: 0.000000, VX: 0.000000, VY: 0.000000, VZ: 0.000000 
TIME: 8.704160, ROLL: 0.014670, PITCH: 0.027470, YAW: -3.059692, X: 0.000000, Y: 0.000000, ALTITUDE: 0.000000, VX: 0.000000, VY: 0.000000, VZ: 0.000000 
TIME: 8.756811, ROLL: 0.014773, PITCH: 0.027368, YAW: -3.059705, X: 0.000000, Y: 0.000000, ALTITUDE: 0.000000, VX: 0.000000, VY: 0.000000, VZ: 0.000000 
TIME: 8.809407, ROLL: 0.014773, PITCH: 0.027368, YAW: -3.059705, X: 0.000000, Y: 0.000000, ALTITUDE: 0.000000, VX: 0.000000, VY: 0.000000, VZ: 0.000000 
TIME: 8.862092, ROLL: 0.014773, PITCH: 0.027368, YAW: -3.059705, X: 0.000000, Y: 0.000000, ALTITUDE: 0.000000, VX: 0.000000, VY: 0.000000, VZ: 0.000000 
TIME: 8.914756, ROLL: 0.014773, PITCH: 0.027368, YAW: -3.059705, X: 0.000000, Y: 0.000000, ALTITUDE: 0.000000, VX: 0.000000, VY: 0.000000, VZ: 0.000000 
TIME: 8.967479, ROLL: 0.014818, PITCH: 0.027362, YAW: -3.059719, X: 0.000000, Y: 0.000000, ALTITUDE: 0.000000, VX: 0.000000, VY: 0.000000, VZ: 0.000000 
TIME: 9.020110, ROLL: 0.014818, PITCH: 0.027362, YAW: -3.059719, X: 0.000000, Y: 0.000000, ALTITUDE: 0.000000, VX: 0.000000, VY: 0.000000, VZ: 0.000000 
TIME: 9.072821, ROLL: 0.014824, PITCH: 0.027471, YAW: -3.059709, X: 0.000000, Y: 0.000000, ALTITUDE: 0.000000, VX: 0.000000, VY: 0.000000, VZ: 0.000000 
TIME: 9.125424, ROLL: 0.014824, PITCH: 0.027471, YAW: -3.059709, X: 0.000000, Y: 0.000000, ALTITUDE: 0.000000, VX: 0.000000, VY: 0.000000, VZ: 0.000000 
TIME: 9.177925, ROLL: 0.014824, PITCH: 0.027471, YAW: -3.059709, X: 0.000000, Y: 0.000000, ALTITUDE: 0.000000, VX: 0.000000, VY: 0.000000, VZ: 0.000000 
TIME: 9.230512, ROLL: 0.014824, PITCH: 0.027471, YAW: -3.059709, X: 0.000000, Y: 0.000000, ALTITUDE: 0.000000, VX: 0.000000, VY: 0.000000, VZ: 0.000000 
TIME: 9.283455, ROLL: 0.014849, PITCH: 0.027434, YAW: -3.059675, X: 0.000000, Y: 0.000000, ALTITUDE: 0.000000, VX: 0.000000, VY: 0.000000, VZ: 0.000000 
TIME: 9.336028, ROLL: 0.014849, PITCH: 0.027434, YAW: -3.059675, X: 0.000000, Y: 0.000000, ALTITUDE: 0.000000, VX: 0.000000, VY: 0.000000, VZ: 0.000000 
TIME: 9.388799, ROLL: 0.014849, PITCH: 0.027434, YAW: -3.059675, X: 0.000000, Y: 0.000000, ALTITUDE: 0.000000, VX: 0.000000, VY: 0.000000, VZ: 0.000000 
TIME: 9.441371, ROLL: 0.014849, PITCH: 0.027434, YAW: -3.059675, X: 0.000000, Y: 0.000000, ALTITUDE: 0.000000, VX: 0.000000, VY: 0.000000, VZ: 0.000000 
TIME: 9.494000, ROLL: 0.014680, PITCH: 0.027492, YAW: -3.059697, X: 0.000000, Y: 0.000000, ALTITUDE: 0.000000, VX: 0.000000, VY: 0.000000, VZ: 0.000000 
TIME: 9.546600, ROLL: 0.014680, PITCH: 0.027492, YAW: -3.059697, X: 0.000000, Y: 0.000000, ALTITUDE: 0.000000, VX: 0.000000, VY: 0.000000, VZ: 0.000000 
TIME: 9.599081, ROLL: 0.014680, PITCH: 0.027492, YAW: -3.059697, X: 0.000000, Y: 0.000000, ALTITUDE: 0.000000, VX: 0.000000, VY: 0.000000, VZ: 0.000000 
TIME: 9.651551, ROLL: 0.014680, PITCH: 0.027492, YAW: -3.059697, X: 0.000000, Y: 0.000000, ALTITUDE: 0.000000, VX: 0.000000, VY: 0.000000, VZ: 0.000000 
TIME: 9.704066, ROLL: 0.014813, PITCH: 0.027533, YAW: -3.059725, X: 0.000000, Y: 0.000000, ALTITUDE: 0.000000, VX: 0.000000, VY: 0.000000, VZ: 0.000000 
TIME: 9.756646, ROLL: 0.014813, PITCH: 0.027533, YAW: -3.059725, X: 0.000000, Y: 0.000000, ALTITUDE: 0.000000, VX: 0.000000, VY: 0.000000, VZ: 0.000000 
TIME: 9.808941, ROLL: 0.014813, PITCH: 0.027533, YAW: -3.059725, X: 0.000000, Y: 0.000000, ALTITUDE: 0.000000, VX: 0.000000, VY: 0.000000, VZ: 0.000000 
TIME: 9.861529, ROLL: 0.014813, PITCH: 0.027533, YAW: -3.059725, X: 0.000000, Y: 0.000000, ALTITUDE: 0.000000, VX: 0.000000, VY: 0.000000, VZ: 0.000000 
TIME: 9.913962, ROLL: 0.014813, PITCH: 0.027533, YAW: -3.059725, X: 0.000000, Y: 0.000000, ALTITUDE: 0.000000, VX: 0.000000, VY: 0.000000, VZ: 0.000000 
TIME: 9.966151, ROLL: 0.014587, PITCH: 0.027714, YAW: -3.059724, X: 0.000000, Y: 0.000000, ALTITUDE: 0.000000, VX: 0.000000, VY: 0.000000, VZ: 0.000000 
TIME: 10.018854, ROLL: 0.014587, PITCH: 0.027714, YAW: -3.059724, X: 0.000000, Y: 0.000000, ALTITUDE: 0.000000, VX: 0.000000, VY: 0.000000, VZ: 0.000000 
TIME: 10.071492, ROLL: 0.014587, PITCH: 0.027714, YAW: -3.059724, X: 0.000000, Y: 0.000000, ALTITUDE: 0.000000, VX: 0.000000, VY: 0.000000, VZ: 0.000000 
TIME: 10.124271, ROLL: 0.014888, PITCH: 0.027527, YAW: -3.059702, X: 0.000000, Y: 0.000000, ALTITUDE: 0.000000, VX: 0.000000, VY: 0.000000, VZ: 0.000000 
TIME: 10.177078, ROLL: 0.014888, PITCH: 0.027527, YAW: -3.059702, X: 0.000000, Y: 0.000000, ALTITUDE: 0.000000, VX: 0.000000, VY: 0.000000, VZ: 0.000000 
TIME: 10.229865, ROLL: 0.014888, PITCH: 0.027527, YAW: -3.059702, X: 0.000000, Y: 0.000000, ALTITUDE: 0.000000, VX: 0.000000, VY: 0.000000, VZ: 0.000000 
TIME: 10.282418, ROLL: 0.014888, PITCH: 0.027527, YAW: -3.059702, X: 0.000000, Y: 0.000000, ALTITUDE: 0.000000, VX: 0.000000, VY: 0.000000, VZ: 0.000000 
TIME: 10.335164, ROLL: 0.013548, PITCH: 0.027558, YAW: -3.059625, X: 0.000000, Y: 0.000000, ALTITUDE: 0.000000, VX: 0.000000, VY: 0.000000, VZ: 0.000000 
TIME: 10.387711, ROLL: 0.013548, PITCH: 0.027558, YAW: -3.059625, X: 0.000000, Y: 0.000000, ALTITUDE: 0.000000, VX: 0.000000, VY: 0.000000, VZ: 0.000000 
TIME: 10.440262, ROLL: 0.013548, PITCH: 0.027558, YAW: -3.059625, X: 0.000000, Y: 0.000000, ALTITUDE: 0.000000, VX: 0.000000, VY: 0.000000, VZ: 0.000000 
TIME: 10.492823, ROLL: 0.013548, PITCH: 0.027558, YAW: -3.059625, X: 0.000000, Y: 0.000000, ALTITUDE: 0.000000, VX: 0.000000, VY: 0.000000, VZ: 0.000000 
TIME: 10.545482, ROLL: 0.015125, PITCH: 0.027064, YAW: -3.058513, X: 0.000000, Y: 0.000000, ALTITUDE: 0.000000, VX: 0.000000, VY: 0.000000, VZ: 0.000000 
TIME: 10.598152, ROLL: 0.015125, PITCH: 0.027064, YAW: -3.058513, X: 0.000000, Y: 0.000000, ALTITUDE: 0.000000, VX: 0.000000, VY: 0.000000, VZ: 0.000000 
TIME: 10.650821, ROLL: 0.015125, PITCH: 0.027064, YAW: -3.058513, X: 0.000000, Y: 0.000000, ALTITUDE: 0.000000, VX: 0.000000, VY: 0.000000, VZ: 0.000000 
TIME: 10.703811, ROLL: 0.015125, PITCH: 0.027064, YAW: -3.058513, X: 0.000000, Y: 0.000000, ALTITUDE: 0.000000, VX: 0.000000, VY: 0.000000, VZ: 0.000000 
TIME: 10.756296, ROLL: 0.014629, PITCH: 0.027393, YAW: -3.059811, X: 0.000000, Y: 0.000000, ALTITUDE: 0.000000, VX: 0.000000, VY: 0.000000, VZ: 0.000000 
TIME: 10.808950, ROLL: 0.014629, PITCH: 0.027393, YAW: -3.059811, X: 0.000000, Y: 0.000000, ALTITUDE: 0.000000, VX: 0.000000, VY: 0.000000, VZ: 0.000000 
TIME: 10.861451, ROLL: 0.014629, PITCH: 0.027393, YAW: -3.059811, X: 0.000000, Y: 0.000000, ALTITUDE: 0.000000, VX: 0.000000, VY: 0.000000, VZ: 0.000000 
TIME: 10.914059, ROLL: 0.014629, PITCH: 0.027393, YAW: -3.059811, X: 0.000000, Y: 0.000000, ALTITUDE: 0.000000, VX: 0.000000, VY: 0.000000, VZ: 0.000000 
TIME: 10.966813, ROLL: 0.014629, PITCH: 0.027393, YAW: -3.059811, X: 0.000000, Y: 0.000000, ALTITUDE: 0.000000, VX: 0.000000, VY: 0.000000, VZ: 0.000000 
TIME: 11.019466, ROLL: 0.014427, PITCH: 0.027047, YAW: -3.059199, X: 0.000000, Y: 0.000000, ALTITUDE: 0.000000, VX: 0.000000, VY: 0.000000, VZ: 0.000000 
TIME: 11.072165, ROLL: 0.014427, PITCH: 0.027047, YAW: -3.059199, X: 0.000000, Y: 0.000000, ALTITUDE: 0.000000, VX: 0.000000, VY: 0.000000, VZ: 0.000000 
TIME: 11.124922, ROLL: 0.014427, PITCH: 0.027047, YAW: -3.059199, X: 0.000000, Y: 0.000000, ALTITUDE: 0.000000, VX: 0.000000, VY: 0.000000, VZ: 0.000000 
TIME: 11.177614, ROLL: 0.014914, PITCH: 0.026429, YAW: -3.060280, X: 0.000000, Y: 0.000000, ALTITUDE: 0.000000, VX: 0.000000, VY: 0.000000, VZ: 0.000000 
TIME: 11.230473, ROLL: 0.014914, PITCH: 0.026429, YAW: -3.060280, X: 0.000000, Y: 0.000000, ALTITUDE: 0.000000, VX: 0.000000, VY: 0.000000, VZ: 0.000000 
TIME: 11.283191, ROLL: 0.014914, PITCH: 0.026429, YAW: -3.060280, X: 0.000000, Y: 0.000000, ALTITUDE: 0.000000, VX: 0.000000, VY: 0.000000, VZ: 0.000000 
TIME: 11.335677, ROLL: 0.014914, PITCH: 0.026429, YAW: -3.060280, X: 0.000000, Y: 0.000000, ALTITUDE: 0.000000, VX: 0.000000, VY: 0.000000, VZ: 0.000000 
TIME: 11.387754, ROLL: 0.012590, PITCH: 0.026072, YAW: -3.063396, X: 0.000000, Y: 0.000000, ALTITUDE: 0.000000, VX: 0.000000, VY: 0.000000, VZ: 0.000000 
TIME: 11.439926, ROLL: 0.012590, PITCH: 0.026072, YAW: -3.063396, X: 0.000000, Y: 0.000000, ALTITUDE: 0.000000, VX: 0.000000, VY: 0.000000, VZ: 0.000000 
TIME: 11.492564, ROLL: 0.012590, PITCH: 0.026072, YAW: -3.063396, X: 0.000000, Y: 0.000000, ALTITUDE: 0.000000, VX: 0.000000, VY: 0.000000, VZ: 0.000000 
TIME: 11.545250, ROLL: 0.012590, PITCH: 0.026072, YAW: -3.063396, X: 0.000000, Y: 0.000000, ALTITUDE: 0.000000, VX: 0.000000, VY: 0.000000, VZ: 0.000000 
TIME: 11.597967, ROLL: 0.016001, PITCH: 0.028042, YAW: -3.068850, X: 0.000000, Y: 0.000000, ALTITUDE: 0.000000, VX: 0.000000, VY: 0.000000, VZ: 0.000000 
TIME: 11.650701, ROLL: 0.016001, PITCH: 0.028042, YAW: -3.068850, X: 0.000000, Y: 0.000000, ALTITUDE: 0.000000, VX: 0.000000, VY: 0.000000, VZ: 0.000000 
TIME: 11.703401, ROLL: 0.016001, PITCH: 0.028042, YAW: -3.068850, X: 0.000000, Y: 0.000000, ALTITUDE: 0.000000, VX: 0.000000, VY: 0.000000, VZ: 0.000000 
TIME: 11.756140, ROLL: 0.016001, PITCH: 0.028042, YAW: -3.068850, X: 0.000000, Y: 0.000000, ALTITUDE: 0.000000, VX: 0.000000, VY: 0.000000, VZ: 0.000000 
TIME: 11.808914, ROLL: 0.016523, PITCH: 0.025084, YAW: -3.055105, X: 0.000000, Y: 0.000000, ALTITUDE: 0.000000, VX: 0.000000, VY: 0.000000, VZ: 0.000000 
TIME: 11.861703, ROLL: 0.016523, PITCH: 0.025084, YAW: -3.055105, X: 0.000000, Y: 0.000000, ALTITUDE: 0.000000, VX: 0.000000, VY: 0.000000, VZ: 0.000000 
TIME: 11.914228, ROLL: 0.016523, PITCH: 0.025084, YAW: -3.055105, X: 0.000000, Y: 0.000000, ALTITUDE: 0.000000, VX: 0.000000, VY: 0.000000, VZ: 0.000000 
TIME: 11.967013, ROLL: 0.016523, PITCH: 0.025084, YAW: -3.055105, X: 0.000000, Y: 0.000000, ALTITUDE: 0.000000, VX: 0.000000, VY: 0.000000, VZ: 0.000000 
TIME: 12.019697, ROLL: 0.016523, PITCH: 0.025084, YAW: -3.055105, X: 0.000000, Y: 0.000000, ALTITUDE: 0.000000, VX: 0.000000, VY: 0.000000, VZ: 0.000000 
TIME: 12.072518, ROLL: -0.018839, PITCH: 0.012463, YAW: -3.031181, X: -0.000728, Y: 0.001547, ALTITUDE: 0.000000, VX: -0.003209, VY: 0.006820, VZ: -0.017294 
TIME: 12.125056, ROLL: -0.018839, PITCH: 0.012463, YAW: -3.031181, X: -0.000728, Y: 0.001547, ALTITUDE: 0.000222, VX: -0.003209, VY: 0.006820, VZ: -0.017294 
TIME: 12.177673, ROLL: -0.018839, PITCH: 0.012463, YAW: -3.031181, X: -0.000728, Y: 0.001547, ALTITUDE: 0.000222, VX: -0.003209, VY: 0.006820, VZ: -0.017294 
TIME: 12.230221, ROLL: -0.043367, PITCH: 0.001646, YAW: -3.040422, X: -0.000728, Y: 0.001547, ALTITUDE: 0.000222, VX: -0.003209, VY: 0.006820, VZ: -0.017294 
TIME: 12.283171, ROLL: -0.043367, PITCH: 0.001646, YAW: -3.040422, X: -0.010280, Y: 0.020808, ALTITUDE: 0.030661, VX: -0.050268, VY: 0.101359, VZ: -0.280952 
TIME: 12.336171, ROLL: -0.043367, PITCH: 0.001646, YAW: -3.040422, X: -0.010280, Y: 0.020808, ALTITUDE: 0.030661, VX: -0.050268, VY: 0.101359, VZ: -0.280952 
TIME: 12.389034, ROLL: -0.043367, PITCH: 0.001646, YAW: -3.040422, X: -0.010280, Y: 0.020808, ALTITUDE: 0.030661, VX: -0.050268, VY: 0.101359, VZ: -0.280952 
TIME: 12.441781, ROLL: 0.101992, PITCH: 0.006237, YAW: -3.057174, X: -0.010280, Y: 0.020808, ALTITUDE: 0.030661, VX: -0.050268, VY: 0.101359, VZ: -0.280952 
TIME: 12.494676, ROLL: 0.101992, PITCH: 0.006237, YAW: -3.057174, X: -0.012092, Y: 0.008811, ALTITUDE: 0.104949, VX: -0.008639, VY: -0.057200, VZ: -0.499978 
TIME: 12.547141, ROLL: 0.101992, PITCH: 0.006237, YAW: -3.057174, X: -0.012092, Y: 0.008811, ALTITUDE: 0.104949, VX: -0.008639, VY: -0.057200, VZ: -0.499978 
TIME: 12.599980, ROLL: 0.101992, PITCH: 0.006237, YAW: -3.057174, X: -0.012092, Y: 0.008811, ALTITUDE: 0.104949, VX: -0.008639, VY: -0.057200, VZ: -0.499978 
TIME: 12.651312, ROLL: -0.007773, PITCH: 0.003180, YAW: -3.071172, X: -0.012092, Y: 0.008811, ALTITUDE: 0.104949, VX: -0.008639, VY: -0.057200, VZ: -0.499978 
TIME: 12.703774, ROLL: -0.007773, PITCH: 0.003180, YAW: -3.071172, X: -0.015923, Y: -0.010937, ALTITUDE: 0.238363, VX: -0.018190, VY: -0.093763, VZ: -0.787075 
TIME: 12.756412, ROLL: -0.007773, PITCH: 0.003180, YAW: -3.071172, X: -0.015923, Y: -0.010937, ALTITUDE: 0.238363, VX: -0.018190, VY: -0.093763, VZ: -0.787075 
TIME: 12.808895, ROLL: -0.007773, PITCH: 0.003180, YAW: -3.071172, X: -0.015923, Y: -0.010937, ALTITUDE: 0.238363, VX: -0.018190, VY: -0.093763, VZ: -0.787075 
TIME: 12.860999, ROLL: -0.028371, PITCH: 0.021472, YAW: -3.078705, X: -0.015923, Y: -0.010937, ALTITUDE: 0.238363, VX: -0.018190, VY: -0.093763, VZ: -0.787075 
TIME: 12.913762, ROLL: -0.028371, PITCH: 0.021472, YAW: -3.078705, X: -0.016284, Y: -0.000192, ALTITUDE: 0.403555, VX: -0.001731, VY: 0.051551, VZ: -0.883027 
TIME: 12.965929, ROLL: -0.028371, PITCH: 0.021472, YAW: -3.078705, X: -0.016284, Y: -0.000192, ALTITUDE: 0.403555, VX: -0.001731, VY: 0.051551, VZ: -0.883027 
TIME: 13.018529, ROLL: -0.028371, PITCH: 0.021472, YAW: -3.078705, X: -0.016284, Y: -0.000192, ALTITUDE: 0.403555, VX: -0.001731, VY: 0.051551, VZ: -0.883027 
TIME: 13.070525, ROLL: -0.028371, PITCH: 0.021472, YAW: -3.078705, X: -0.016284, Y: -0.000192, ALTITUDE: 0.403555, VX: -0.001731, VY: 0.051551, VZ: -0.883027 
TIME: 13.123114, ROLL: 0.011527, PITCH: -0.001221, YAW: -3.075067, X: -0.025346, Y: 0.002810, ALTITUDE: 0.403555, VX: -0.039055, VY: 0.012941, VZ: -0.847806 
TIME: 13.175442, ROLL: 0.011527, PITCH: -0.001221, YAW: -3.075067, X: -0.025346, Y: 0.002810, ALTITUDE: 0.588164, VX: -0.039055, VY: 0.012941, VZ: -0.847806 
TIME: 13.228248, ROLL: 0.011527, PITCH: -0.001221, YAW: -3.075067, X: -0.025346, Y: 0.002810, ALTITUDE: 0.588164, VX: -0.039055, VY: 0.012941, VZ: -0.847806 
TIME: 13.280980, ROLL: -0.001430, PITCH: 0.007321, YAW: -3.062948, X: -0.025346, Y: 0.002810, ALTITUDE: 0.588164, VX: -0.039055, VY: 0.012941, VZ: -0.847806 
TIME: 13.333761, ROLL: -0.001430, PITCH: 0.007321, YAW: -3.062948, X: -0.044898, Y: 0.003535, ALTITUDE: 0.742224, VX: -0.104132, VY: 0.003858, VZ: -0.609036 
TIME: 13.385798, ROLL: -0.001430, PITCH: 0.007321, YAW: -3.062948, X: -0.044898, Y: 0.003535, ALTITUDE: 0.742224, VX: -0.104132, VY: 0.003858, VZ: -0.609036 
TIME: 13.438627, ROLL: -0.001430, PITCH: 0.007321, YAW: -3.062948, X: -0.044898, Y: 0.003535, ALTITUDE: 0.742224, VX: -0.104132, VY: 0.003858, VZ: -0.609036 
TIME: 13.490842, ROLL: 0.011754, PITCH: 0.021223, YAW: -3.050335, X: -0.044898, Y: 0.003535, ALTITUDE: 0.742224, VX: -0.104132, VY: 0.003858, VZ: -0.609036 
TIME: 13.543574, ROLL: 0.011754, PITCH: 0.021223, YAW: -3.050335, X: -0.071955, Y: 0.005952, ALTITUDE: 0.856966, VX: -0.127615, VY: 0.011401, VZ: -0.386356 
TIME: 13.596458, ROLL: 0.011754, PITCH: 0.021223, YAW: -3.050335, X: -0.071955, Y: 0.005952, ALTITUDE: 0.856966, VX: -0.127615, VY: 0.011401, VZ: -0.386356 
TIME: 13.649255, ROLL: 0.011754, PITCH: 0.021223, YAW: -3.050335, X: -0.071955, Y: 0.005952, ALTITUDE: 0.856966, VX: -0.127615, VY: 0.011401, VZ: -0.386356 
TIME: 13.701866, ROLL: 0.016561, PITCH: 0.031404, YAW: -3.043889, X: -0.071955, Y: 0.005952, ALTITUDE: 0.856966, VX: -0.127615, VY: 0.011401, VZ: -0.386356 
TIME: 13.754497, ROLL: 0.016561, PITCH: 0.031404, YAW: -3.043889, X: -0.098691, Y: 0.004935, ALTITUDE: 0.931789, VX: -0.127803, VY: -0.004862, VZ: -0.227142 
TIME: 13.807047, ROLL: 0.016561, PITCH: 0.031404, YAW: -3.043889, X: -0.098691, Y: 0.004935, ALTITUDE: 0.931789, VX: -0.127803, VY: -0.004862, VZ: -0.227142 
TIME: 13.859758, ROLL: 0.016561, PITCH: 0.031404, YAW: -3.043889, X: -0.098691, Y: 0.004935, ALTITUDE: 0.931789, VX: -0.127803, VY: -0.004862, VZ: -0.227142 
TIME: 13.912339, ROLL: 0.004412, PITCH: 0.040935, YAW: -3.044158, X: -0.098691, Y: 0.004935, ALTITUDE: 0.931789, VX: -0.127803, VY: -0.004862, VZ: -0.227142 
TIME: 13.965089, ROLL: 0.004412, PITCH: 0.040935, YAW: -3.044158, X: -0.122856, Y: 0.006586, ALTITUDE: 0.976717, VX: -0.113307, VY: 0.007741, VZ: -0.119527 
TIME: 14.017719, ROLL: 0.004412, PITCH: 0.040935, YAW: -3.044158, X: -0.122856, Y: 0.006586, ALTITUDE: 0.976717, VX: -0.113307, VY: 0.007741, VZ: -0.119527 
TIME: 14.070426, ROLL: 0.004412, PITCH: 0.040935, YAW: -3.044158, X: -0.122856, Y: 0.006586, ALTITUDE: 0.976717, VX: -0.113307, VY: 0.007741, VZ: -0.119527 
TIME: 14.123057, ROLL: 0.004412, PITCH: 0.040935, YAW: -3.044158, X: -0.122856, Y: 0.006586, ALTITUDE: 0.976717, VX: -0.113307, VY: 0.007741, VZ: -0.119527 
TIME: 14.175745, ROLL: -0.000655, PITCH: 0.042864, YAW: -3.047048, X: -0.141819, Y: 0.012949, ALTITUDE: 0.976717, VX: -0.082848, VY: 0.027801, VZ: -0.054456 
TIME: 14.228750, ROLL: -0.000655, PITCH: 0.042864, YAW: -3.047048, X: -0.141819, Y: 0.012949, ALTITUDE: 1.002173, VX: -0.082848, VY: 0.027801, VZ: -0.054456 
TIME: 14.281410, ROLL: -0.000655, PITCH: 0.042864, YAW: -3.047048, X: -0.141819, Y: 0.012949, ALTITUDE: 1.002173, VX: -0.082848, VY: 0.027801, VZ: -0.054456 
TIME: 14.334046, ROLL: 0.009468, PITCH: 0.043682, YAW: -3.050369, X: -0.141819, Y: 0.012949, ALTITUDE: 1.002173, VX: -0.082848, VY: 0.027801, VZ: -0.054456 
TIME: 14.386883, ROLL: 0.009468, PITCH: 0.043682, YAW: -3.050369, X: -0.150838, Y: 0.017762, ALTITUDE: 1.016494, VX: -0.047158, VY: 0.025166, VZ: -0.016327 
TIME: 14.439537, ROLL: 0.009468, PITCH: 0.043682, YAW: -3.050369, X: -0.150838, Y: 0.017762, ALTITUDE: 1.016494, VX: -0.047158, VY: 0.025166, VZ: -0.016327 
TIME: 14.492144, ROLL: 0.009468, PITCH: 0.043682, YAW: -3.050369, X: -0.150838, Y: 0.017762, ALTITUDE: 1.016494, VX: -0.047158, VY: 0.025166, VZ: -0.016327 
TIME: 14.544780, ROLL: 0.008683, PITCH: 0.045110, YAW: -3.051675, X: -0.150838, Y: 0.017762, ALTITUDE: 1.016494, VX: -0.047158, VY: 0.025166, VZ: -0.016327 
TIME: 14.597655, ROLL: 0.008683, PITCH: 0.045110, YAW: -3.051675, X: -0.155775, Y: 0.021737, ALTITUDE: 1.020209, VX: -0.023460, VY: 0.018890, VZ: 0.002045 
TIME: 14.650587, ROLL: 0.008683, PITCH: 0.045110, YAW: -3.051675, X: -0.155775, Y: 0.021737, ALTITUDE: 1.020209, VX: -0.023460, VY: 0.018890, VZ: 0.002045 
TIME: 14.704158, ROLL: 0.008683, PITCH: 0.045110, YAW: -3.051675, X: -0.155775, Y: 0.021737, ALTITUDE: 1.020209, VX: -0.023460, VY: 0.018890, VZ: 0.002045 
TIME: 14.719492, ROLL: 0.010638, PITCH: 0.040347, YAW: -3.053050, X: -0.155775, Y: 0.021737, ALTITUDE: 1.020209, VX: -0.023460, VY: 0.018890, VZ: 0.002045 
TIME: 14.732642, ROLL: 0.010638, PITCH: 0.040347, YAW: -3.053050, X: -0.156525, Y: 0.022782, ALTITUDE: 1.021507, VX: -0.004432, VY: 0.006170, VZ: 0.007993 
TIME: 14.761102, ROLL: 0.010638, PITCH: 0.040347, YAW: -3.053050, X: -0.156525, Y: 0.022782, ALTITUDE: 1.021507, VX: -0.004432, VY: 0.006170, VZ: 0.007993 
TIME: 14.813883, ROLL: 0.010638, PITCH: 0.040347, YAW: -3.053050, X: -0.156525, Y: 0.022782, ALTITUDE: 1.021507, VX: -0.004432, VY: 0.006170, VZ: 0.007993 
TIME: 14.867139, ROLL: 0.011782, PITCH: 0.039825, YAW: -3.055000, X: -0.156525, Y: 0.022782, ALTITUDE: 1.021507, VX: -0.004432, VY: 0.006170, VZ: 0.007993 
TIME: 14.919698, ROLL: 0.011782, PITCH: 0.039825, YAW: -3.055000, X: -0.155025, Y: 0.021176, ALTITUDE: 1.019686, VX: 0.009736, VY: -0.010420, VZ: 0.010368 
TIME: 14.971988, ROLL: 0.011782, PITCH: 0.039825, YAW: -3.055000, X: -0.155025, Y: 0.021176, ALTITUDE: 1.019686, VX: 0.009736, VY: -0.010420, VZ: 0.010368 
TIME: 15.024741, ROLL: 0.011782, PITCH: 0.039825, YAW: -3.055000, X: -0.155025, Y: 0.021176, ALTITUDE: 1.019686, VX: 0.009736, VY: -0.010420, VZ: 0.010368 
TIME: 15.077433, ROLL: 0.011782, PITCH: 0.039825, YAW: -3.055000, X: -0.155025, Y: 0.021176, ALTITUDE: 1.019686, VX: 0.009736, VY: -0.010420, VZ: 0.010368 
TIME: 15.105938, ROLL: 0.006662, PITCH: 0.040155, YAW: -3.054358, X: -0.148903, Y: 0.017212, ALTITUDE: 1.019686, VX: 0.027559, VY: -0.017848, VZ: 0.007190 
TIME: 15.157888, ROLL: 0.006662, PITCH: 0.040155, YAW: -3.054358, X: -0.148903, Y: 0.017212, ALTITUDE: 1.017452, VX: 0.027559, VY: -0.017848, VZ: 0.007190 
TIME: 15.210466, ROLL: 0.006662, PITCH: 0.040155, YAW: -3.054358, X: -0.148903, Y: 0.017212, ALTITUDE: 1.017452, VX: 0.027559, VY: -0.017848, VZ: 0.007190 
TIME: 15.263264, ROLL: 0.012130, PITCH: 0.041454, YAW: -3.052066, X: -0.148903, Y: 0.017212, ALTITUDE: 1.017452, VX: 0.027559, VY: -0.017848, VZ: 0.007190 
TIME: 15.316089, ROLL: 0.012130, PITCH: 0.041454, YAW: -3.052066, X: -0.141069, Y: 0.012137, ALTITUDE: 1.014960, VX: 0.045443, VY: -0.029437, VZ: 0.007962 
TIME: 15.369152, ROLL: 0.012130, PITCH: 0.041454, YAW: -3.052066, X: -0.141069, Y: 0.012137, ALTITUDE: 1.014960, VX: 0.045443, VY: -0.029437, VZ: 0.007962 
TIME: 15.422037, ROLL: 0.012130, PITCH: 0.041454, YAW: -3.052066, X: -0.141069, Y: 0.012137, ALTITUDE: 1.014960, VX: 0.045443, VY: -0.029437, VZ: 0.007962 
TIME: 15.474818, ROLL: -0.004808, PITCH: 0.037637, YAW: -3.047695, X: -0.141069, Y: 0.012137, ALTITUDE: 1.014960, VX: 0.045443, VY: -0.029437, VZ: 0.007962 
TIME: 15.527468, ROLL: -0.004808, PITCH: 0.037637, YAW: -3.047695, X: -0.128130, Y: 0.004473, ALTITUDE: 1.010544, VX: 0.061168, VY: -0.036232, VZ: 0.010787 
TIME: 15.580157, ROLL: -0.004808, PITCH: 0.037637, YAW: -3.047695, X: -0.128130, Y: 0.004473, ALTITUDE: 1.010544, VX: 0.061168, VY: -0.036232, VZ: 0.010787 
TIME: 15.633356, ROLL: -0.004808, PITCH: 0.037637, YAW: -3.047695, X: -0.128130, Y: 0.004473, ALTITUDE: 1.010544, VX: 0.061168, VY: -0.036232, VZ: 0.010787 
TIME: 15.649875, ROLL: -0.001308, PITCH: 0.026018, YAW: -3.044130, X: -0.128130, Y: 0.004473, ALTITUDE: 1.010544, VX: 0.061168, VY: -0.036232, VZ: 0.010787 
TIME: 15.694215, ROLL: -0.001308, PITCH: 0.026018, YAW: -3.044130, X: -0.116210, Y: 0.000695, ALTITUDE: 1.002406, VX: 0.071655, VY: -0.022712, VZ: 0.009486 
TIME: 15.746802, ROLL: -0.001308, PITCH: 0.026018, YAW: -3.044130, X: -0.116210, Y: 0.000695, ALTITUDE: 1.002406, VX: 0.071655, VY: -0.022712, VZ: 0.009486 
TIME: 15.799429, ROLL: -0.001308, PITCH: 0.026018, YAW: -3.044130, X: -0.116210, Y: 0.000695, ALTITUDE: 1.002406, VX: 0.071655, VY: -0.022712, VZ: 0.009486 
TIME: 15.852506, ROLL: 0.000620, PITCH: 0.028134, YAW: -3.045131, X: -0.116210, Y: 0.000695, ALTITUDE: 1.002406, VX: 0.071655, VY: -0.022712, VZ: 0.009486 
TIME: 15.905429, ROLL: 0.000620, PITCH: 0.028134, YAW: -3.045131, X: -0.099665, Y: -0.006451, ALTITUDE: 0.996787, VX: 0.077683, VY: -0.033550, VZ: 0.009141 
TIME: 15.957630, ROLL: 0.000620, PITCH: 0.028134, YAW: -3.045131, X: -0.099665, Y: -0.006451, ALTITUDE: 0.996787, VX: 0.077683, VY: -0.033550, VZ: 0.009141 
TIME: 16.010366, ROLL: 0.000620, PITCH: 0.028134, YAW: -3.045131, X: -0.099665, Y: -0.006451, ALTITUDE: 0.996787, VX: 0.077683, VY: -0.033550, VZ: 0.009141 
TIME: 16.062132, ROLL: 0.000620, PITCH: 0.028134, YAW: -3.045131, X: -0.099665, Y: -0.006451, ALTITUDE: 0.996787, VX: 0.077683, VY: -0.033550, VZ: 0.009141 
TIME: 16.075424, ROLL: -0.005607, PITCH: 0.026841, YAW: -3.048705, X: -0.078149, Y: -0.012733, ALTITUDE: 0.996787, VX: 0.104071, VY: -0.030388, VZ: -0.003154 
TIME: 16.093235, ROLL: -0.005607, PITCH: 0.026841, YAW: -3.048705, X: -0.078149, Y: -0.012733, ALTITUDE: 0.992123, VX: 0.104071, VY: -0.030388, VZ: -0.003154 
TIME: 16.131519, ROLL: -0.005607, PITCH: 0.026841, YAW: -3.048705, X: -0.078149, Y: -0.012733, ALTITUDE: 0.992123, VX: 0.104071, VY: -0.030388, VZ: -0.003154 
TIME: 16.184874, ROLL: 0.000131, PITCH: 0.024049, YAW: -3.053231, X: -0.078149, Y: -0.012733, ALTITUDE: 0.992123, VX: 0.104071, VY: -0.030388, VZ: -0.003154 
TIME: 16.238022, ROLL: 0.000131, PITCH: 0.024049, YAW: -3.053231, X: -0.062462, Y: -0.017849, ALTITUDE: 1.005783, VX: 0.126435, VY: -0.041232, VZ: -0.237071 
TIME: 16.291010, ROLL: 0.000131, PITCH: 0.024049, YAW: -3.053231, X: -0.062462, Y: -0.017849, ALTITUDE: 1.005783, VX: 0.126435, VY: -0.041232, VZ: -0.237071 
TIME: 16.343641, ROLL: 0.000131, PITCH: 0.024049, YAW: -3.053231, X: -0.062462, Y: -0.017849, ALTITUDE: 1.005783, VX: 0.126435, VY: -0.041232, VZ: -0.237071 
TIME: 16.397085, ROLL: 0.007704, PITCH: 0.015727, YAW: -3.057329, X: -0.062462, Y: -0.017849, ALTITUDE: 1.005783, VX: 0.126435, VY: -0.041232, VZ: -0.237071 
TIME: 16.450115, ROLL: 0.007704, PITCH: 0.015727, YAW: -3.057329, X: -0.032261, Y: -0.033267, ALTITUDE: 1.080715, VX: 0.139269, VY: -0.071099, VZ: -0.438776 
TIME: 16.502180, ROLL: 0.007704, PITCH: 0.015727, YAW: -3.057329, X: -0.032261, Y: -0.033267, ALTITUDE: 1.080715, VX: 0.139269, VY: -0.071099, VZ: -0.438776 
TIME: 16.554852, ROLL: 0.007704, PITCH: 0.015727, YAW: -3.057329, X: -0.032261, Y: -0.033267, ALTITUDE: 1.080715, VX: 0.139269, VY: -0.071099, VZ: -0.438776 
TIME: 16.607277, ROLL: -0.013435, PITCH: 0.008614, YAW: -3.058986, X: -0.032261, Y: -0.033267, ALTITUDE: 1.080715, VX: 0.139269, VY: -0.071099, VZ: -0.438776 
TIME: 16.660955, ROLL: -0.013435, PITCH: 0.008614, YAW: -3.058986, X: -0.001624, Y: -0.047394, ALTITUDE: 1.159772, VX: 0.149373, VY: -0.068877, VZ: -0.457412 
TIME: 16.715061, ROLL: -0.013435, PITCH: 0.008614, YAW: -3.058986, X: -0.001624, Y: -0.047394, ALTITUDE: 1.159772, VX: 0.149373, VY: -0.068877, VZ: -0.457412 
TIME: 16.768236, ROLL: -0.013435, PITCH: 0.008614, YAW: -3.058986, X: -0.001624, Y: -0.047394, ALTITUDE: 1.159772, VX: 0.149373, VY: -0.068877, VZ: -0.457412 
TIME: 16.821447, ROLL: -0.021108, PITCH: -0.003104, YAW: -3.060529, X: -0.001624, Y: -0.047394, ALTITUDE: 1.159772, VX: 0.149373, VY: -0.068877, VZ: -0.457412 
TIME: 16.874628, ROLL: -0.021108, PITCH: -0.003104, YAW: -3.060529, X: 0.026737, Y: -0.054873, ALTITUDE: 1.250569, VX: 0.129542, VY: -0.034162, VZ: -0.418747 
TIME: 16.927586, ROLL: -0.021108, PITCH: -0.003104, YAW: -3.060529, X: 0.026737, Y: -0.054873, ALTITUDE: 1.250569, VX: 0.129542, VY: -0.034162, VZ: -0.418747 
TIME: 16.980503, ROLL: -0.021108, PITCH: -0.003104, YAW: -3.060529, X: 0.026737, Y: -0.054873, ALTITUDE: 1.250569, VX: 0.129542, VY: -0.034162, VZ: -0.418747 
TIME: 17.033129, ROLL: -0.021108, PITCH: -0.003104, YAW: -3.060529, X: 0.026737, Y: -0.054873, ALTITUDE: 1.250569, VX: 0.129542, VY: -0.034162, VZ: -0.418747 
TIME: 17.085651, ROLL: -0.018501, PITCH: -0.012499, YAW: -3.063901, X: 0.053281, Y: -0.057349, ALTITUDE: 1.250569, VX: 0.115752, VY: -0.010798, VZ: -0.352341 
TIME: 17.138231, ROLL: -0.018501, PITCH: -0.012499, YAW: -3.063901, X: 0.053281, Y: -0.057349, ALTITUDE: 1.314069, VX: 0.115752, VY: -0.010798, VZ: -0.352341 
TIME: 17.191935, ROLL: -0.018501, PITCH: -0.012499, YAW: -3.063901, X: 0.053281, Y: -0.057349, ALTITUDE: 1.314069, VX: 0.115752, VY: -0.010798, VZ: -0.352341 
TIME: 17.244738, ROLL: -0.022943, PITCH: -0.010980, YAW: -3.069637, X: 0.053281, Y: -0.057349, ALTITUDE: 1.314069, VX: 0.115752, VY: -0.010798, VZ: -0.352341 
TIME: 17.297087, ROLL: -0.022943, PITCH: -0.010980, YAW: -3.069637, X: 0.068439, Y: -0.057254, ALTITUDE: 1.372775, VX: 0.080361, VY: 0.000505, VZ: -0.272924 
TIME: 17.349676, ROLL: -0.022943, PITCH: -0.010980, YAW: -3.069637, X: 0.068439, Y: -0.057254, ALTITUDE: 1.372775, VX: 0.080361, VY: 0.000505, VZ: -0.272924 
TIME: 17.402390, ROLL: -0.022943, PITCH: -0.010980, YAW: -3.069637, X: 0.068439, Y: -0.057254, ALTITUDE: 1.372775, VX: 0.080361, VY: 0.000505, VZ: -0.272924 
TIME: 17.456034, ROLL: -0.021421, PITCH: -0.017609, YAW: -3.076682, X: 0.068439, Y: -0.057254, ALTITUDE: 1.372775, VX: 0.080361, VY: 0.000505, VZ: -0.272924 
TIME: 17.510277, ROLL: -0.021421, PITCH: -0.017609, YAW: -3.076682, X: 0.082090, Y: -0.051822, ALTITUDE: 1.372775, VX: 0.061508, VY: 0.024474, VZ: -0.211309 
TIME: 17.562986, ROLL: -0.021421, PITCH: -0.017609, YAW: -3.076682, X: 0.082090, Y: -0.051822, ALTITUDE: 1.422464, VX: 0.061508, VY: 0.024474, VZ: -0.211309 
TIME: 17.616558, ROLL: -0.021421, PITCH: -0.017609, YAW: -3.076682, X: 0.082090, Y: -0.051822, ALTITUDE: 1.422464, VX: 0.061508, VY: 0.024474, VZ: -0.211309 
TIME: 17.669739, ROLL: -0.014137, PITCH: -0.018965, YAW: -3.082759, X: 0.082090, Y: -0.051822, ALTITUDE: 1.422464, VX: 0.061508, VY: 0.024474, VZ: -0.211309 
TIME: 17.723236, ROLL: -0.014137, PITCH: -0.018965, YAW: -3.082759, X: 0.094044, Y: -0.044684, ALTITUDE: 1.467129, VX: 0.056647, VY: 0.033828, VZ: -0.148482 
TIME: 17.776228, ROLL: -0.014137, PITCH: -0.018965, YAW: -3.082759, X: 0.094044, Y: -0.044684, ALTITUDE: 1.467129, VX: 0.056647, VY: 0.033828, VZ: -0.148482 
TIME: 17.829515, ROLL: -0.014137, PITCH: -0.018965, YAW: -3.082759, X: 0.094044, Y: -0.044684, ALTITUDE: 1.467129, VX: 0.056647, VY: 0.033828, VZ: -0.148482 
TIME: 17.882257, ROLL: -0.007770, PITCH: -0.024624, YAW: -3.083729, X: 0.094044, Y: -0.044684, ALTITUDE: 1.467129, VX: 0.056647, VY: 0.033828, VZ: -0.148482 
TIME: 17.935160, ROLL: -0.007770, PITCH: -0.024624, YAW: -3.083729, X: 0.104495, Y: -0.035352, ALTITUDE: 1.484819, VX: 0.050309, VY: 0.044919, VZ: -0.100641 
TIME: 17.988298, ROLL: -0.007770, PITCH: -0.024624, YAW: -3.083729, X: 0.104495, Y: -0.035352, ALTITUDE: 1.484819, VX: 0.050309, VY: 0.044919, VZ: -0.100641 
TIME: 18.041803, ROLL: -0.007770, PITCH: -0.024624, YAW: -3.083729, X: 0.104495, Y: -0.035352, ALTITUDE: 1.484819, VX: 0.050309, VY: 0.044919, VZ: -0.100641 
TIME: 18.094694, ROLL: -0.007770, PITCH: -0.024624, YAW: -3.083729, X: 0.104495, Y: -0.035352, ALTITUDE: 1.484819, VX: 0.050309, VY: 0.044919, VZ: -0.100641 
TIME: 18.147726, ROLL: -0.012657, PITCH: -0.027353, YAW: -3.080043, X: 0.105299, Y: -0.025189, ALTITUDE: 1.484819, VX: 0.003455, VY: 0.043679, VZ: -0.061185 
TIME: 18.200287, ROLL: -0.012657, PITCH: -0.027353, YAW: -3.080043, X: 0.105299, Y: -0.025189, ALTITUDE: 1.498732, VX: 0.003455, VY: 0.043679, VZ: -0.061185 
TIME: 18.253574, ROLL: -0.012657, PITCH: -0.027353, YAW: -3.080043, X: 0.105299, Y: -0.025189, ALTITUDE: 1.498732, VX: 0.003455, VY: 0.043679, VZ: -0.061185 
TIME: 18.306253, ROLL: -0.005015, PITCH: -0.024273, YAW: -3.073940, X: 0.105299, Y: -0.025189, ALTITUDE: 1.498732, VX: 0.003455, VY: 0.043679, VZ: -0.061185 
TIME: 18.359131, ROLL: -0.005015, PITCH: -0.024273, YAW: -3.073940, X: 0.096845, Y: -0.013969, ALTITUDE: 1.506472, VX: -0.044867, VY: 0.059551, VZ: -0.027367 
TIME: 18.411425, ROLL: -0.005015, PITCH: -0.024273, YAW: -3.073940, X: 0.096845, Y: -0.013969, ALTITUDE: 1.506472, VX: -0.044867, VY: 0.059551, VZ: -0.027367 
TIME: 18.464401, ROLL: -0.005015, PITCH: -0.024273, YAW: -3.073940, X: 0.096845, Y: -0.013969, ALTITUDE: 1.506472, VX: -0.044867, VY: 0.059551, VZ: -0.027367 
TIME: 18.517593, ROLL: 0.000696, PITCH: -0.018964, YAW: -3.064147, X: 0.096845, Y: -0.013969, ALTITUDE: 1.506472, VX: -0.044867, VY: 0.059551, VZ: -0.027367 
TIME: 18.570751, ROLL: 0.000696, PITCH: -0.018964, YAW: -3.064147, X: 0.078291, Y: -0.003149, ALTITUDE: 1.527347, VX: -0.087607, VY: 0.051087, VZ: -0.015452 
TIME: 18.623547, ROLL: 0.000696, PITCH: -0.018964, YAW: -3.064147, X: 0.078291, Y: -0.003149, ALTITUDE: 1.527347, VX: -0.087607, VY: 0.051087, VZ: -0.015452 
TIME: 18.676592, ROLL: 0.000696, PITCH: -0.018964, YAW: -3.064147, X: 0.078291, Y: -0.003149, ALTITUDE: 1.527347, VX: -0.087607, VY: 0.051087, VZ: -0.015452 
TIME: 18.729755, ROLL: 0.000696, PITCH: -0.018964, YAW: -3.064147, X: 0.078291, Y: -0.003149, ALTITUDE: 1.527347, VX: -0.087607, VY: 0.051087, VZ: -0.015452 
TIME: 18.782873, ROLL: 0.004478, PITCH: -0.004690, YAW: -3.054878, X: 0.056902, Y: 0.004150, ALTITUDE: 1.541549, VX: -0.100202, VY: 0.034193, VZ: 0.004395 
TIME: 18.835756, ROLL: 0.004478, PITCH: -0.004690, YAW: -3.054878, X: 0.056902, Y: 0.004150, ALTITUDE: 1.541549, VX: -0.100202, VY: 0.034193, VZ: 0.004395 
TIME: 18.888620, ROLL: 0.004478, PITCH: -0.004690, YAW: -3.054878, X: 0.056902, Y: 0.004150, ALTITUDE: 1.541549, VX: -0.100202, VY: 0.034193, VZ: 0.004395 
TIME: 18.942095, ROLL: 0.014733, PITCH: 0.000406, YAW: -3.044996, X: 0.056902, Y: 0.004150, ALTITUDE: 1.541549, VX: -0.100202, VY: 0.034193, VZ: 0.004395 
TIME: 18.994900, ROLL: 0.014733, PITCH: 0.000406, YAW: -3.044996, X: 0.039782, Y: 0.007481, ALTITUDE: 1.537321, VX: -0.080803, VY: 0.015722, VZ: 0.015931 
TIME: 19.047844, ROLL: 0.014733, PITCH: 0.000406, YAW: -3.044996, X: 0.039782, Y: 0.007481, ALTITUDE: 1.537321, VX: -0.080803, VY: 0.015722, VZ: 0.015931 
TIME: 19.101189, ROLL: 0.014733, PITCH: 0.000406, YAW: -3.044996, X: 0.039782, Y: 0.007481, ALTITUDE: 1.537321, VX: -0.080803, VY: 0.015722, VZ: 0.015931 
TIME: 19.154640, ROLL: 0.014733, PITCH: 0.000406, YAW: -3.044996, X: 0.039782, Y: 0.007481, ALTITUDE: 1.537321, VX: -0.080803, VY: 0.015722, VZ: 0.015931 
TIME: 19.207466, ROLL: 0.004057, PITCH: 0.002594, YAW: -3.033196, X: 0.018171, Y: 0.011165, ALTITUDE: 1.537321, VX: -0.090538, VY: 0.015434, VZ: 0.031909 
TIME: 19.260675, ROLL: 0.004057, PITCH: 0.002594, YAW: -3.033196, X: 0.018171, Y: 0.011165, ALTITUDE: 1.526502, VX: -0.090538, VY: 0.015434, VZ: 0.031909 
TIME: 19.313923, ROLL: 0.004057, PITCH: 0.002594, YAW: -3.033196, X: 0.018171, Y: 0.011165, ALTITUDE: 1.526502, VX: -0.090538, VY: 0.015434, VZ: 0.031909 
TIME: 19.366962, ROLL: 0.014833, PITCH: 0.003744, YAW: -3.024026, X: 0.018171, Y: 0.011165, ALTITUDE: 1.526502, VX: -0.090538, VY: 0.015434, VZ: 0.031909 
TIME: 19.419863, ROLL: 0.014833, PITCH: 0.003744, YAW: -3.024026, X: 0.002389, Y: 0.013584, ALTITUDE: 1.509690, VX: -0.085062, VY: 0.013040, VZ: 0.032757 
TIME: 19.472397, ROLL: 0.014833, PITCH: 0.003744, YAW: -3.024026, X: 0.002389, Y: 0.013584, ALTITUDE: 1.509690, VX: -0.085062, VY: 0.013040, VZ: 0.032757 
