TIME: 0.000167, ROLL: 0.000000, PITCH: 0.000000, YAW: 0.000000, X: 0.000000, Y: 0.000000, ALTITUDE: 0.000000, VX: 0.000000, VY: 0.000000, VZ: 0.000000 
TIME: 0.052042, ROLL: 0.007894, PITCH: 0.017936, YAW: -0.001689, X: 0.000000, Y: 0.000000, ALTITUDE: 0.000000, VX: 0.000000, VY: 0.000000, VZ: 0.000000 
TIME: 0.103090, ROLL: 0.007894, PITCH: 0.017936, YAW: -0.001689, X: 0.000000, Y: 0.000000, ALTITUDE: -0.000000, VX: 0.000000, VY: 0.000000, VZ: 0.000000 
TIME: 0.154144, ROLL: 0.007894, PITCH: 0.017936, YAW: -0.001689, X: 0.000000, Y: 0.000000, ALTITUDE: -0.000000, VX: 0.000000, VY: 0.000000, VZ: 0.000000 
TIME: 0.205187, ROLL: 0.007788, PITCH: 0.017976, YAW: -0.001680, X: 0.000000, Y: 0.000000, ALTITUDE: -0.000000, VX: 0.000000, VY: 0.000000, VZ: 0.000000 
TIME: 0.256252, ROLL: 0.007788, PITCH: 0.017976, YAW: -0.001680, X: 0.000000, Y: 0.000000, ALTITUDE: -0.000000, VX: 0.000000, VY: 0.000000, VZ: 0.000000 
TIME: 0.308597, ROLL: 0.007788, PITCH: 0.017976, YAW: -0.001680, X: 0.000000, Y: 0.000000, ALTITUDE: -0.000000, VX: 0.000000, VY: 0.000000, VZ: 0.000000 
TIME: 0.360508, ROLL: 0.007788, PITCH: 0.017976, YAW: -0.001680, X: 0.000000, Y: 0.000000, ALTITUDE: -0.000000, VX: 0.000000, VY: 0.000000, VZ: 0.000000 
TIME: 0.412429, ROLL: 0.007719, PITCH: 0.017861, YAW: -0.001730, X: 0.000000, Y: 0.000000, ALTITUDE: -0.000000, VX: 0.000000, VY: 0.000000, VZ: 0.000000 
TIME: 0.464424, ROLL: 0.007719, PITCH: 0.017861, YAW: -0.001730, X: 0.000000, Y: 0.000000, ALTITUDE: -0.000000, VX: 0.000000, VY: 0.000000, VZ: 0.000000 
TIME: 0.516295, ROLL: 0.007719, PITCH: 0.017861, YAW: -0.001730, X: 0.000000, Y: 0.000000, ALTITUDE: -0.000000, VX: 0.000000, VY: 0.000000, VZ: 0.000000 
TIME: 0.567598, ROLL: 0.007719, PITCH: 0.017861, YAW: -0.001730, X: 0.000000, Y: 0.000000, ALTITUDE: -0.000000, VX: 0.000000, VY: 0.000000, VZ: 0.000000 
TIME: 0.619348, ROLL: 0.007719, PITCH: 0.017861, YAW: -0.001730, X: 0.000000, Y: 0.000000, ALTITUDE: -0.000000, VX: 0.000000, VY: 0.000000, VZ: 0.000000 
TIME: 0.670897, ROLL: 0.007840, PITCH: 0.017901, YAW: -0.001739, X: 0.000000, Y: 0.000000, ALTITUDE: -0.000000, VX: 0.000000, VY: 0.000000, VZ: 0.000000 
TIME: 0.722878, ROLL: 0.007840, PITCH: 0.017901, YAW: -0.001739, X: 0.000000, Y: 0.000000, ALTITUDE: -0.000000, VX: 0.000000, VY: 0.000000, VZ: 0.000000 
TIME: 0.774249, ROLL: 0.007840, PITCH: 0.017901, YAW: -0.001739, X: 0.000000, Y: 0.000000, ALTITUDE: -0.000000, VX: 0.000000, VY: 0.000000, VZ: 0.000000 
TIME: 0.826431, ROLL: 0.007840, PITCH: 0.017901, YAW: -0.001739, X: 0.000000, Y: 0.000000, ALTITUDE: -0.000000, VX: 0.000000, VY: 0.000000, VZ: 0.000000 
TIME: 0.878459, ROLL: 0.008075, PITCH: 0.017740, YAW: -0.001728, X: 0.000000, Y: 0.000000, ALTITUDE: -0.000000, VX: 0.000000, VY: 0.000000, VZ: 0.000000 
TIME: 0.930673, ROLL: 0.008075, PITCH: 0.017740, YAW: -0.001728, X: 0.000000, Y: 0.000000, ALTITUDE: -0.000000, VX: 0.000000, VY: 0.000000, VZ: 0.000000 
TIME: 0.982980, ROLL: 0.008075, PITCH: 0.017740, YAW: -0.001728, X: 0.000000, Y: 0.000000, ALTITUDE: -0.000000, VX: 0.000000, VY: 0.000000, VZ: 0.000000 
TIME: 1.034108, ROLL: 0.008075, PITCH: 0.017740, YAW: -0.001728, X: 0.000000, Y: 0.000000, ALTITUDE: -0.000000, VX: 0.000000, VY: 0.000000, VZ: 0.000000 
TIME: 1.084969, ROLL: 0.007967, PITCH: 0.017738, YAW: -0.001703, X: 0.000000, Y: 0.000000, ALTITUDE: -0.000000, VX: 0.000000, VY: 0.000000, VZ: 0.000000 
TIME: 1.135885, ROLL: 0.007967, PITCH: 0.017738, YAW: -0.001703, X: 0.000000, Y: 0.000000, ALTITUDE: -0.000000, VX: 0.000000, VY: 0.000000, VZ: 0.000000 
TIME: 1.186801, ROLL: 0.007967, PITCH: 0.017738, YAW: -0.001703, X: 0.000000, Y: 0.000000, ALTITUDE: -0.000000, VX: 0.000000, VY: 0.000000, VZ: 0.000000 
TIME: 1.241380, ROLL: 0.008013, PITCH: 0.017714, YAW: -0.001707, X: 0.000000, Y: 0.000000, ALTITUDE: -0.000000, VX: 0.000000, VY: 0.000000, VZ: 0.000000 
TIME: 1.293212, ROLL: 0.008013, PITCH: 0.017714, YAW: -0.001707, X: 0.000000, Y: 0.000000, ALTITUDE: -0.000000, VX: 0.000000, VY: 0.000000, VZ: 0.000000 
TIME: 1.344556, ROLL: 0.008013, PITCH: 0.017714, YAW: -0.001707, X: 0.000000, Y: 0.000000, ALTITUDE: -0.000000, VX: 0.000000, VY: 0.000000, VZ: 0.000000 
TIME: 1.389382, ROLL: 0.008013, PITCH: 0.017714, YAW: -0.001707, X: 0.000000, Y: 0.000000, ALTITUDE: -0.000000, VX: 0.000000, VY: 0.000000, VZ: 0.000000 
TIME: 1.419313, ROLL: 0.007872, PITCH: 0.017796, YAW: -0.001712, X: 0.000000, Y: 0.000000, ALTITUDE: -0.000000, VX: 0.000000, VY: 0.000000, VZ: 0.000000 
TIME: 1.471328, ROLL: 0.007872, PITCH: 0.017796, YAW: -0.001712, X: 0.000000, Y: 0.000000, ALTITUDE: -0.000000, VX: 0.000000, VY: 0.000000, VZ: 0.000000 
TIME: 1.519228, ROLL: 0.007872, PITCH: 0.017796, YAW: -0.001712, X: 0.000000, Y: 0.000000, ALTITUDE: -0.000000, VX: 0.000000, VY: 0.000000, VZ: 0.000000 
TIME: 1.571235, ROLL: 0.007872, PITCH: 0.017796, YAW: -0.001712, X: 0.000000, Y: 0.000000, ALTITUDE: -0.000000, VX: 0.000000, VY: 0.000000, VZ: 0.000000 
TIME: 1.622761, ROLL: 0.007928, PITCH: 0.017830, YAW: -0.001742, X: 0.000000, Y: 0.000000, ALTITUDE: -0.000000, VX: 0.000000, VY: 0.000000, VZ: 0.000000 
TIME: 1.675120, ROLL: 0.007928, PITCH: 0.017830, YAW: -0.001742, X: 0.000000, Y: 0.000000, ALTITUDE: -0.000000, VX: 0.000000, VY: 0.000000, VZ: 0.000000 
TIME: 1.726556, ROLL: 0.007928, PITCH: 0.017830, YAW: -0.001742, X: 0.000000, Y: 0.000000, ALTITUDE: -0.000000, VX: 0.000000, VY: 0.000000, VZ: 0.000000 
TIME: 1.778736, ROLL: 0.007928, PITCH: 0.017830, YAW: -0.001742, X: 0.000000, Y: 0.000000, ALTITUDE: -0.000000, VX: 0.000000, VY: 0.000000, VZ: 0.000000 
TIME: 1.829990, ROLL: 0.007879, PITCH: 0.017847, YAW: -0.001802, X: 0.000000, Y: 0.000000, ALTITUDE: -0.000000, VX: 0.000000, VY: 0.000000, VZ: 0.000000 
TIME: 1.882414, ROLL: 0.007879, PITCH: 0.017847, YAW: -0.001802, X: 0.000000, Y: 0.000000, ALTITUDE: -0.000000, VX: 0.000000, VY: 0.000000, VZ: 0.000000 
TIME: 1.933840, ROLL: 0.007879, PITCH: 0.017847, YAW: -0.001802, X: 0.000000, Y: 0.000000, ALTITUDE: -0.000000, VX: 0.000000, VY: 0.000000, VZ: 0.000000 
TIME: 1.985526, ROLL: 0.007879, PITCH: 0.017847, YAW: -0.001802, X: 0.000000, Y: 0.000000, ALTITUDE: -0.000000, VX: 0.000000, VY: 0.000000, VZ: 0.000000 
TIME: 2.037392, ROLL: 0.007879, PITCH: 0.017847, YAW: -0.001802, X: 0.000000, Y: 0.000000, ALTITUDE: -0.000000, VX: 0.000000, VY: 0.000000, VZ: 0.000000 
TIME: 2.089155, ROLL: 0.007983, PITCH: 0.017724, YAW: -0.001772, X: 0.000000, Y: 0.000000, ALTITUDE: -0.000000, VX: 0.000000, VY: 0.000000, VZ: 0.000000 
TIME: 2.140865, ROLL: 0.007983, PITCH: 0.017724, YAW: -0.001772, X: 0.000000, Y: 0.000000, ALTITUDE: -0.000000, VX: 0.000000, VY: 0.000000, VZ: 0.000000 
TIME: 2.193063, ROLL: 0.007983, PITCH: 0.017724, YAW: -0.001772, X: 0.000000, Y: 0.000000, ALTITUDE: -0.000000, VX: 0.000000, VY: 0.000000, VZ: 0.000000 
TIME: 2.245100, ROLL: 0.007602, PITCH: 0.017690, YAW: -0.001791, X: 0.000000, Y: 0.000000, ALTITUDE: -0.000000, VX: 0.000000, VY: 0.000000, VZ: 0.000000 
TIME: 2.296330, ROLL: 0.007602, PITCH: 0.017690, YAW: -0.001791, X: 0.000000, Y: 0.000000, ALTITUDE: -0.000000, VX: 0.000000, VY: 0.000000, VZ: 0.000000 
TIME: 2.348103, ROLL: 0.007602, PITCH: 0.017690, YAW: -0.001791, X: 0.000000, Y: 0.000000, ALTITUDE: -0.000000, VX: 0.000000, VY: 0.000000, VZ: 0.000000 
TIME: 2.400431, ROLL: 0.007602, PITCH: 0.017690, YAW: -0.001791, X: 0.000000, Y: 0.000000, ALTITUDE: -0.000000, VX: 0.000000, VY: 0.000000, VZ: 0.000000 
TIME: 2.452861, ROLL: 0.007529, PITCH: 0.017614, YAW: -0.001772, X: 0.000000, Y: 0.000000, ALTITUDE: -0.000000, VX: 0.000000, VY: 0.000000, VZ: 0.000000 
TIME: 2.504093, ROLL: 0.007529, PITCH: 0.017614, YAW: -0.001772, X: 0.000000, Y: 0.000000, ALTITUDE: -0.000000, VX: 0.000000, VY: 0.000000, VZ: 0.000000 
TIME: 2.556117, ROLL: 0.007529, PITCH: 0.017614, YAW: -0.001772, X: 0.000000, Y: 0.000000, ALTITUDE: -0.000000, VX: 0.000000, VY: 0.000000, VZ: 0.000000 
TIME: 2.607633, ROLL: 0.007529, PITCH: 0.017614, YAW: -0.001772, X: 0.000000, Y: 0.000000, ALTITUDE: -0.000000, VX: 0.000000, VY: 0.000000, VZ: 0.000000 
TIME: 2.659065, ROLL: 0.007529, PITCH: 0.017614, YAW: -0.001772, X: 0.000000, Y: 0.000000, ALTITUDE: -0.000000, VX: 0.000000, VY: 0.000000, VZ: 0.000000 
TIME: 2.711750, ROLL: 0.007672, PITCH: 0.017695, YAW: -0.001802, X: 0.000000, Y: 0.000000, ALTITUDE: -0.000000, VX: 0.000000, VY: 0.000000, VZ: 0.000000 
TIME: 2.764083, ROLL: 0.007672, PITCH: 0.017695, YAW: -0.001802, X: 0.000000, Y: 0.000000, ALTITUDE: -0.000000, VX: 0.000000, VY: 0.000000, VZ: 0.000000 
TIME: 2.815602, ROLL: 0.007672, PITCH: 0.017695, YAW: -0.001802, X: 0.000000, Y: 0.000000, ALTITUDE: -0.000000, VX: 0.000000, VY: 0.000000, VZ: 0.000000 
TIME: 2.867183, ROLL: 0.007672, PITCH: 0.017695, YAW: -0.001802, X: 0.000000, Y: 0.000000, ALTITUDE: -0.000000, VX: 0.000000, VY: 0.000000, VZ: 0.000000 
TIME: 2.918891, ROLL: 0.007637, PITCH: 0.017853, YAW: -0.001823, X: 0.000000, Y: 0.000000, ALTITUDE: -0.000000, VX: 0.000000, VY: 0.000000, VZ: 0.000000 
TIME: 2.971034, ROLL: 0.007637, PITCH: 0.017853, YAW: -0.001823, X: 0.000000, Y: 0.000000, ALTITUDE: -0.000000, VX: 0.000000, VY: 0.000000, VZ: 0.000000 
TIME: 3.022515, ROLL: 0.007637, PITCH: 0.017853, YAW: -0.001823, X: 0.000000, Y: 0.000000, ALTITUDE: -0.000000, VX: 0.000000, VY: 0.000000, VZ: 0.000000 
TIME: 3.074322, ROLL: 0.007637, PITCH: 0.017853, YAW: -0.001823, X: 0.000000, Y: 0.000000, ALTITUDE: -0.000000, VX: 0.000000, VY: 0.000000, VZ: 0.000000 
TIME: 3.125959, ROLL: 0.007634, PITCH: 0.017760, YAW: -0.001869, X: 0.000000, Y: 0.000000, ALTITUDE: -0.000000, VX: 0.000000, VY: 0.000000, VZ: 0.000000 
TIME: 3.177307, ROLL: 0.007634, PITCH: 0.017760, YAW: -0.001869, X: 0.000000, Y: 0.000000, ALTITUDE: -0.000000, VX: 0.000000, VY: 0.000000, VZ: 0.000000 
TIME: 3.229378, ROLL: 0.007634, PITCH: 0.017760, YAW: -0.001869, X: 0.000000, Y: 0.000000, ALTITUDE: -0.000000, VX: 0.000000, VY: 0.000000, VZ: 0.000000 
TIME: 3.280755, ROLL: 0.007669, PITCH: 0.017784, YAW: -0.001907, X: 0.000000, Y: 0.000000, ALTITUDE: -0.000000, VX: 0.000000, VY: 0.000000, VZ: 0.000000 
TIME: 3.332974, ROLL: 0.007669, PITCH: 0.017784, YAW: -0.001907, X: 0.000000, Y: 0.000000, ALTITUDE: -0.000000, VX: 0.000000, VY: 0.000000, VZ: 0.000000 
TIME: 3.384493, ROLL: 0.007669, PITCH: 0.017784, YAW: -0.001907, X: 0.000000, Y: 0.000000, ALTITUDE: -0.000000, VX: 0.000000, VY: 0.000000, VZ: 0.000000 
TIME: 3.437767, ROLL: 0.007669, PITCH: 0.017784, YAW: -0.001907, X: 0.000000, Y: 0.000000, ALTITUDE: -0.000000, VX: 0.000000, VY: 0.000000, VZ: 0.000000 
TIME: 3.489391, ROLL: 0.007613, PITCH: 0.017839, YAW: -0.001931, X: 0.000000, Y: 0.000000, ALTITUDE: -0.000000, VX: 0.000000, VY: 0.000000, VZ: 0.000000 
TIME: 3.541569, ROLL: 0.007613, PITCH: 0.017839, YAW: -0.001931, X: 0.000000, Y: 0.000000, ALTITUDE: -0.000000, VX: 0.000000, VY: 0.000000, VZ: 0.000000 
TIME: 3.593088, ROLL: 0.007613, PITCH: 0.017839, YAW: -0.001931, X: 0.000000, Y: 0.000000, ALTITUDE: -0.000000, VX: 0.000000, VY: 0.000000, VZ: 0.000000 
TIME: 3.645176, ROLL: 0.007613, PITCH: 0.017839, YAW: -0.001931, X: 0.000000, Y: 0.000000, ALTITUDE: -0.000000, VX: 0.000000, VY: 0.000000, VZ: 0.000000 
TIME: 3.696658, ROLL: 0.007752, PITCH: 0.017668, YAW: -0.001919, X: 0.000000, Y: 0.000000, ALTITUDE: -0.000000, VX: 0.000000, VY: 0.000000, VZ: 0.000000 
TIME: 3.748784, ROLL: 0.007752, PITCH: 0.017668, YAW: -0.001919, X: 0.000000, Y: 0.000000, ALTITUDE: -0.000000, VX: 0.000000, VY: 0.000000, VZ: 0.000000 
TIME: 3.800367, ROLL: 0.007752, PITCH: 0.017668, YAW: -0.001919, X: 0.000000, Y: 0.000000, ALTITUDE: -0.000000, VX: 0.000000, VY: 0.000000, VZ: 0.000000 
TIME: 3.852159, ROLL: 0.007752, PITCH: 0.017668, YAW: -0.001919, X: 0.000000, Y: 0.000000, ALTITUDE: -0.000000, VX: 0.000000, VY: 0.000000, VZ: 0.000000 
TIME: 3.903821, ROLL: 0.007735, PITCH: 0.017500, YAW: -0.001875, X: 0.000000, Y: 0.000000, ALTITUDE: -0.000000, VX: 0.000000, VY: 0.000000, VZ: 0.000000 
TIME: 3.956136, ROLL: 0.007735, PITCH: 0.017500, YAW: -0.001875, X: 0.000000, Y: 0.000000, ALTITUDE: -0.000000, VX: 0.000000, VY: 0.000000, VZ: 0.000000 
TIME: 4.007742, ROLL: 0.007735, PITCH: 0.017500, YAW: -0.001875, X: 0.000000, Y: 0.000000, ALTITUDE: -0.000000, VX: 0.000000, VY: 0.000000, VZ: 0.000000 
TIME: 4.059442, ROLL: 0.007735, PITCH: 0.017500, YAW: -0.001875, X: 0.000000, Y: 0.000000, ALTITUDE: -0.000000, VX: 0.000000, VY: 0.000000, VZ: 0.000000 
TIME: 4.110671, ROLL: 0.007735, PITCH: 0.017500, YAW: -0.001875, X: 0.000000, Y: 0.000000, ALTITUDE: -0.000000, VX: 0.000000, VY: 0.000000, VZ: 0.000000 
TIME: 4.162235, ROLL: 0.007681, PITCH: 0.017456, YAW: -0.001875, X: 0.000000, Y: 0.000000, ALTITUDE: -0.000000, VX: 0.000000, VY: 0.000000, VZ: 0.000000 
TIME: 4.213895, ROLL: 0.007681, PITCH: 0.017456, YAW: -0.001875, X: 0.000000, Y: 0.000000, ALTITUDE: -0.000000, VX: 0.000000, VY: 0.000000, VZ: 0.000000 
TIME: 4.265334, ROLL: 0.007681, PITCH: 0.017456, YAW: -0.001875, X: 0.000000, Y: 0.000000, ALTITUDE: -0.000000, VX: 0.000000, VY: 0.000000, VZ: 0.000000 
TIME: 4.317349, ROLL: 0.007712, PITCH: 0.017457, YAW: -0.001910, X: 0.000000, Y: 0.000000, ALTITUDE: -0.000000, VX: 0.000000, VY: 0.000000, VZ: 0.000000 
TIME: 4.368638, ROLL: 0.007712, PITCH: 0.017457, YAW: -0.001910, X: 0.000000, Y: 0.000000, ALTITUDE: -0.000000, VX: 0.000000, VY: 0.000000, VZ: 0.000000 
TIME: 4.420450, ROLL: 0.007712, PITCH: 0.017457, YAW: -0.001910, X: 0.000000, Y: 0.000000, ALTITUDE: -0.000000, VX: 0.000000, VY: 0.000000, VZ: 0.000000 
TIME: 4.471958, ROLL: 0.007712, PITCH: 0.017457, YAW: -0.001910, X: 0.000000, Y: 0.000000, ALTITUDE: -0.000000, VX: 0.000000, VY: 0.000000, VZ: 0.000000 
TIME: 4.524820, ROLL: 0.007712, PITCH: 0.017457, YAW: -0.001910, X: 0.000000, Y: 0.000000, ALTITUDE: -0.000000, VX: 0.000000, VY: 0.000000, VZ: 0.000000 
TIME: 4.576555, ROLL: 0.007770, PITCH: 0.017583, YAW: -0.001904, X: 0.000000, Y: 0.000000, ALTITUDE: -0.000000, VX: 0.000000, VY: 0.000000, VZ: 0.000000 
TIME: 4.628105, ROLL: 0.007770, PITCH: 0.017583, YAW: -0.001904, X: 0.000000, Y: 0.000000, ALTITUDE: -0.000000, VX: 0.000000, VY: 0.000000, VZ: 0.000000 
TIME: 4.679855, ROLL: 0.007770, PITCH: 0.017583, YAW: -0.001904, X: 0.000000, Y: 0.000000, ALTITUDE: -0.000000, VX: 0.000000, VY: 0.000000, VZ: 0.000000 
TIME: 4.731732, ROLL: 0.007948, PITCH: 0.017631, YAW: -0.001902, X: 0.000000, Y: 0.000000, ALTITUDE: -0.000000, VX: 0.000000, VY: 0.000000, VZ: 0.000000 
TIME: 4.783149, ROLL: 0.007948, PITCH: 0.017631, YAW: -0.001902, X: 0.000000, Y: 0.000000, ALTITUDE: -0.000000, VX: 0.000000, VY: 0.000000, VZ: 0.000000 
TIME: 4.835608, ROLL: 0.007948, PITCH: 0.017631, YAW: -0.001902, X: 0.000000, Y: 0.000000, ALTITUDE: -0.000000, VX: 0.000000, VY: 0.000000, VZ: 0.000000 
TIME: 4.887213, ROLL: 0.007948, PITCH: 0.017631, YAW: -0.001902, X: 0.000000, Y: 0.000000, ALTITUDE: -0.000000, VX: 0.000000, VY: 0.000000, VZ: 0.000000 
TIME: 4.938486, ROLL: 0.007948, PITCH: 0.017631, YAW: -0.001902, X: 0.000000, Y: 0.000000, ALTITUDE: -0.000000, VX: 0.000000, VY: 0.000000, VZ: 0.000000 
TIME: 4.990348, ROLL: 0.007660, PITCH: 0.017766, YAW: -0.001875, X: 0.000000, Y: 0.000000, ALTITUDE: -0.000000, VX: 0.000000, VY: 0.000000, VZ: 0.000000 
TIME: 5.041717, ROLL: 0.007660, PITCH: 0.017766, YAW: -0.001875, X: 0.000000, Y: 0.000000, ALTITUDE: -0.000000, VX: 0.000000, VY: 0.000000, VZ: 0.000000 
TIME: 5.093337, ROLL: 0.007660, PITCH: 0.017766, YAW: -0.001875, X: 0.000000, Y: 0.000000, ALTITUDE: -0.000000, VX: 0.000000, VY: 0.000000, VZ: 0.000000 
TIME: 5.146565, ROLL: 0.007660, PITCH: 0.017766, YAW: -0.001875, X: 0.000000, Y: 0.000000, ALTITUDE: -0.000000, VX: 0.000000, VY: 0.000000, VZ: 0.000000 
TIME: 5.198535, ROLL: 0.007792, PITCH: 0.017933, YAW: -0.001905, X: 0.000000, Y: 0.000000, ALTITUDE: -0.000000, VX: 0.000000, VY: 0.000000, VZ: 0.000000 
TIME: 5.249812, ROLL: 0.007792, PITCH: 0.017933, YAW: -0.001905, X: 0.000000, Y: 0.000000, ALTITUDE: -0.000000, VX: 0.000000, VY: 0.000000, VZ: 0.000000 
TIME: 5.301815, ROLL: 0.007792, PITCH: 0.017933, YAW: -0.001905, X: 0.000000, Y: 0.000000, ALTITUDE: -0.000000, VX: 0.000000, VY: 0.000000, VZ: 0.000000 
TIME: 5.353347, ROLL: 0.007775, PITCH: 0.018119, YAW: -0.001897, X: 0.000000, Y: 0.000000, ALTITUDE: -0.000000, VX: 0.000000, VY: 0.000000, VZ: 0.000000 
TIME: 5.405131, ROLL: 0.007775, PITCH: 0.018119, YAW: -0.001897, X: 0.000000, Y: 0.000000, ALTITUDE: -0.000000, VX: 0.000000, VY: 0.000000, VZ: 0.000000 
TIME: 5.456800, ROLL: 0.007775, PITCH: 0.018119, YAW: -0.001897, X: 0.000000, Y: 0.000000, ALTITUDE: -0.000000, VX: 0.000000, VY: 0.000000, VZ: 0.000000 
TIME: 5.508855, ROLL: 0.007775, PITCH: 0.018119, YAW: -0.001897, X: 0.000000, Y: 0.000000, ALTITUDE: -0.000000, VX: 0.000000, VY: 0.000000, VZ: 0.000000 
TIME: 5.561373, ROLL: 0.007726, PITCH: 0.017948, YAW: -0.001869, X: 0.000000, Y: 0.000000, ALTITUDE: -0.000000, VX: 0.000000, VY: 0.000000, VZ: 0.000000 
TIME: 5.613199, ROLL: 0.007726, PITCH: 0.017948, YAW: -0.001869, X: 0.000000, Y: 0.000000, ALTITUDE: -0.000000, VX: 0.000000, VY: 0.000000, VZ: 0.000000 
TIME: 5.664327, ROLL: 0.007726, PITCH: 0.017948, YAW: -0.001869, X: 0.000000, Y: 0.000000, ALTITUDE: -0.000000, VX: 0.000000, VY: 0.000000, VZ: 0.000000 
TIME: 5.716102, ROLL: 0.007726, PITCH: 0.017948, YAW: -0.001869, X: 0.000000, Y: 0.000000, ALTITUDE: -0.000000, VX: 0.000000, VY: 0.000000, VZ: 0.000000 
TIME: 5.767217, ROLL: 0.007853, PITCH: 0.017958, YAW: -0.001905, X: 0.000000, Y: 0.000000, ALTITUDE: -0.000000, VX: 0.000000, VY: 0.000000, VZ: 0.000000 
TIME: 5.818530, ROLL: 0.007853, PITCH: 0.017958, YAW: -0.001905, X: 0.000000, Y: 0.000000, ALTITUDE: -0.000000, VX: 0.000000, VY: 0.000000, VZ: 0.000000 
TIME: 5.870070, ROLL: 0.007853, PITCH: 0.017958, YAW: -0.001905, X: 0.000000, Y: 0.000000, ALTITUDE: -0.000000, VX: 0.000000, VY: 0.000000, VZ: 0.000000 
TIME: 5.921641, ROLL: 0.007853, PITCH: 0.017958, YAW: -0.001905, X: 0.000000, Y: 0.000000, ALTITUDE: -0.000000, VX: 0.000000, VY: 0.000000, VZ: 0.000000 
TIME: 5.973379, ROLL: 0.007881, PITCH: 0.017799, YAW: -0.001880, X: 0.000000, Y: 0.000000, ALTITUDE: -0.000000, VX: 0.000000, VY: 0.000000, VZ: 0.000000 
TIME: 6.025727, ROLL: 0.007881, PITCH: 0.017799, YAW: -0.001880, X: 0.000000, Y: 0.000000, ALTITUDE: -0.000000, VX: 0.000000, VY: 0.000000, VZ: 0.000000 
TIME: 6.077142, ROLL: 0.007881, PITCH: 0.017799, YAW: -0.001880, X: 0.000000, Y: 0.000000, ALTITUDE: -0.000000, VX: 0.000000, VY: 0.000000, VZ: 0.000000 
TIME: 6.128616, ROLL: 0.007881, PITCH: 0.017799, YAW: -0.001880, X: 0.000000, Y: 0.000000, ALTITUDE: -0.000000, VX: 0.000000, VY: 0.000000, VZ: 0.000000 
TIME: 6.180336, ROLL: 0.007881, PITCH: 0.017799, YAW: -0.001880, X: 0.000000, Y: 0.000000, ALTITUDE: -0.000000, VX: 0.000000, VY: 0.000000, VZ: 0.000000 
TIME: 6.231482, ROLL: 0.007780, PITCH: 0.017857, YAW: -0.001915, X: 0.000000, Y: 0.000000, ALTITUDE: -0.000000, VX: 0.000000, VY: 0.000000, VZ: 0.000000 
TIME: 6.283396, ROLL: 0.007780, PITCH: 0.017857, YAW: -0.001915, X: 0.000000, Y: 0.000000, ALTITUDE: -0.000000, VX: 0.000000, VY: 0.000000, VZ: 0.000000 
TIME: 6.334577, ROLL: 0.007780, PITCH: 0.017857, YAW: -0.001915, X: 0.000000, Y: 0.000000, ALTITUDE: -0.000000, VX: 0.000000, VY: 0.000000, VZ: 0.000000 
TIME: 6.386455, ROLL: 0.007735, PITCH: 0.017975, YAW: -0.001853, X: 0.000000, Y: 0.000000, ALTITUDE: -0.000000, VX: 0.000000, VY: 0.000000, VZ: 0.000000 
TIME: 6.437982, ROLL: 0.007735, PITCH: 0.017975, YAW: -0.001853, X: 0.000000, Y: 0.000000, ALTITUDE: -0.000000, VX: 0.000000, VY: 0.000000, VZ: 0.000000 
TIME: 6.489627, ROLL: 0.007735, PITCH: 0.017975, YAW: -0.001853, X: 0.000000, Y: 0.000000, ALTITUDE: -0.000000, VX: 0.000000, VY: 0.000000, VZ: 0.000000 
TIME: 6.541187, ROLL: 0.007735, PITCH: 0.017975, YAW: -0.001853, X: 0.000000, Y: 0.000000, ALTITUDE: -0.000000, VX: 0.000000, VY: 0.000000, VZ: 0.000000 
TIME: 6.593689, ROLL: 0.007735, PITCH: 0.017850, YAW: -0.001845, X: 0.000000, Y: 0.000000, ALTITUDE: -0.000000, VX: 0.000000, VY: 0.000000, VZ: 0.000000 
TIME: 6.645437, ROLL: 0.007735, PITCH: 0.017850, YAW: -0.001845, X: 0.000000, Y: 0.000000, ALTITUDE: -0.000000, VX: 0.000000, VY: 0.000000, VZ: 0.000000 
TIME: 6.696986, ROLL: 0.007735, PITCH: 0.017850, YAW: -0.001845, X: 0.000000, Y: 0.000000, ALTITUDE: -0.000000, VX: 0.000000, VY: 0.000000, VZ: 0.000000 
TIME: 6.748220, ROLL: 0.007735, PITCH: 0.017850, YAW: -0.001845, X: 0.000000, Y: 0.000000, ALTITUDE: -0.000000, VX: 0.000000, VY: 0.000000, VZ: 0.000000 
TIME: 6.799538, ROLL: 0.007735, PITCH: 0.017850, YAW: -0.001845, X: 0.000000, Y: 0.000000, ALTITUDE: -0.000000, VX: 0.000000, VY: 0.000000, VZ: 0.000000 
TIME: 6.851348, ROLL: 0.007961, PITCH: 0.017693, YAW: -0.001872, X: 0.000000, Y: 0.000000, ALTITUDE: -0.000000, VX: 0.000000, VY: 0.000000, VZ: 0.000000 
TIME: 6.903160, ROLL: 0.007961, PITCH: 0.017693, YAW: -0.001872, X: 0.000000, Y: 0.000000, ALTITUDE: -0.000000, VX: 0.000000, VY: 0.000000, VZ: 0.000000 
TIME: 6.954277, ROLL: 0.007961, PITCH: 0.017693, YAW: -0.001872, X: 0.000000, Y: 0.000000, ALTITUDE: -0.000000, VX: 0.000000, VY: 0.000000, VZ: 0.000000 
TIME: 7.005461, ROLL: 0.007961, PITCH: 0.017693, YAW: -0.001872, X: 0.000000, Y: 0.000000, ALTITUDE: -0.000000, VX: 0.000000, VY: 0.000000, VZ: 0.000000 
TIME: 7.056972, ROLL: 0.007837, PITCH: 0.017661, YAW: -0.001902, X: 0.000000, Y: 0.000000, ALTITUDE: -0.000000, VX: 0.000000, VY: 0.000000, VZ: 0.000000 
TIME: 7.124325, ROLL: 0.007837, PITCH: 0.017661, YAW: -0.001902, X: 0.000000, Y: 0.000000, ALTITUDE: -0.000000, VX: 0.000000, VY: 0.000000, VZ: 0.000000 
TIME: 7.199712, ROLL: 0.007837, PITCH: 0.017661, YAW: -0.001902, X: 0.000000, Y: 0.000000, ALTITUDE: -0.000000, VX: 0.000000, VY: 0.000000, VZ: 0.000000 
TIME: 7.264207, ROLL: 0.007837, PITCH: 0.017661, YAW: -0.001902, X: 0.000000, Y: 0.000000, ALTITUDE: -0.000000, VX: 0.000000, VY: 0.000000, VZ: 0.000000 
TIME: 7.315585, ROLL: 0.007785, PITCH: 0.017773, YAW: -0.001879, X: 0.000000, Y: 0.000000, ALTITUDE: -0.000000, VX: 0.000000, VY: 0.000000, VZ: 0.000000 
TIME: 7.377713, ROLL: 0.007785, PITCH: 0.017773, YAW: -0.001879, X: 0.000000, Y: 0.000000, ALTITUDE: -0.000000, VX: 0.000000, VY: 0.000000, VZ: 0.000000 
TIME: 7.452223, ROLL: 0.007785, PITCH: 0.017773, YAW: -0.001879, X: 0.000000, Y: 0.000000, ALTITUDE: -0.000000, VX: 0.000000, VY: 0.000000, VZ: 0.000000 
TIME: 7.516616, ROLL: 0.007785, PITCH: 0.017773, YAW: -0.001879, X: 0.000000, Y: 0.000000, ALTITUDE: -0.000000, VX: 0.000000, VY: 0.000000, VZ: 0.000000 
TIME: 7.577390, ROLL: 0.007752, PITCH: 0.017833, YAW: -0.001875, X: 0.000000, Y: 0.000000, ALTITUDE: -0.000000, VX: 0.000000, VY: 0.000000, VZ: 0.000000 
TIME: 7.638122, ROLL: 0.007752, PITCH: 0.017833, YAW: -0.001875, X: 0.000000, Y: 0.000000, ALTITUDE: -0.000000, VX: 0.000000, VY: 0.000000, VZ: 0.000000 
TIME: 7.718367, ROLL: 0.007752, PITCH: 0.017833, YAW: -0.001875, X: 0.000000, Y: 0.000000, ALTITUDE: -0.000000, VX: 0.000000, VY: 0.000000, VZ: 0.000000 
TIME: 7.786886, ROLL: 0.007752, PITCH: 0.017833, YAW: -0.001875, X: 0.000000, Y: 0.000000, ALTITUDE: -0.000000, VX: 0.000000, VY: 0.000000, VZ: 0.000000 
TIME: 7.851565, ROLL: 0.007686, PITCH: 0.017856, YAW: -0.001846, X: 0.000000, Y: 0.000000, ALTITUDE: -0.000000, VX: 0.000000, VY: 0.000000, VZ: 0.000000 
TIME: 7.902308, ROLL: 0.007686, PITCH: 0.017856, YAW: -0.001846, X: 0.000000, Y: 0.000000, ALTITUDE: -0.000000, VX: 0.000000, VY: 0.000000, VZ: 0.000000 
TIME: 7.973036, ROLL: 0.007686, PITCH: 0.017856, YAW: -0.001846, X: 0.000000, Y: 0.000000, ALTITUDE: -0.000000, VX: 0.000000, VY: 0.000000, VZ: 0.000000 
TIME: 8.024501, ROLL: 0.007686, PITCH: 0.017856, YAW: -0.001846, X: 0.000000, Y: 0.000000, ALTITUDE: -0.000000, VX: 0.000000, VY: 0.000000, VZ: 0.000000 
TIME: 8.090787, ROLL: 0.007686, PITCH: 0.017856, YAW: -0.001846, X: 0.000000, Y: 0.000000, ALTITUDE: -0.000000, VX: 0.000000, VY: 0.000000, VZ: 0.000000 
TIME: 8.158824, ROLL: 0.007768, PITCH: 0.018040, YAW: -0.001852, X: 0.000000, Y: 0.000000, ALTITUDE: -0.000000, VX: 0.000000, VY: 0.000000, VZ: 0.000000 
TIME: 8.222040, ROLL: 0.007768, PITCH: 0.018040, YAW: -0.001852, X: 0.000000, Y: 0.000000, ALTITUDE: -0.000000, VX: 0.000000, VY: 0.000000, VZ: 0.000000 
TIME: 8.289189, ROLL: 0.007940, PITCH: 0.018047, YAW: -0.001869, X: 0.000000, Y: 0.000000, ALTITUDE: -0.000000, VX: 0.000000, VY: 0.000000, VZ: 0.000000 
TIME: 8.340086, ROLL: 0.007940, PITCH: 0.018047, YAW: -0.001869, X: 0.000000, Y: 0.000000, ALTITUDE: -0.000000, VX: 0.000000, VY: 0.000000, VZ: 0.000000 
TIME: 8.392079, ROLL: 0.007940, PITCH: 0.018047, YAW: -0.001869, X: 0.000000, Y: 0.000000, ALTITUDE: -0.000000, VX: 0.000000, VY: 0.000000, VZ: 0.000000 
TIME: 8.442975, ROLL: 0.007940, PITCH: 0.018047, YAW: -0.001869, X: 0.000000, Y: 0.000000, ALTITUDE: -0.000000, VX: 0.000000, VY: 0.000000, VZ: 0.000000 
TIME: 8.493777, ROLL: 0.007940, PITCH: 0.018047, YAW: -0.001869, X: 0.000000, Y: 0.000000, ALTITUDE: -0.000000, VX: 0.000000, VY: 0.000000, VZ: 0.000000 
TIME: 8.559982, ROLL: 0.007984, PITCH: 0.017964, YAW: -0.001864, X: 0.000000, Y: 0.000000, ALTITUDE: -0.000000, VX: 0.000000, VY: 0.000000, VZ: 0.000000 
TIME: 8.611096, ROLL: 0.007984, PITCH: 0.017964, YAW: -0.001864, X: 0.000000, Y: 0.000000, ALTITUDE: -0.000000, VX: 0.000000, VY: 0.000000, VZ: 0.000000 
TIME: 8.664740, ROLL: 0.007984, PITCH: 0.017964, YAW: -0.001864, X: 0.000000, Y: 0.000000, ALTITUDE: -0.000000, VX: 0.000000, VY: 0.000000, VZ: 0.000000 
TIME: 8.715695, ROLL: 0.007984, PITCH: 0.017964, YAW: -0.001864, X: 0.000000, Y: 0.000000, ALTITUDE: -0.000000, VX: 0.000000, VY: 0.000000, VZ: 0.000000 
TIME: 8.766463, ROLL: 0.007984, PITCH: 0.017964, YAW: -0.001864, X: 0.000000, Y: 0.000000, ALTITUDE: -0.000000, VX: 0.000000, VY: 0.000000, VZ: 0.000000 
TIME: 8.835522, ROLL: 0.007779, PITCH: 0.018158, YAW: -0.001882, X: 0.000000, Y: 0.000000, ALTITUDE: -0.000000, VX: 0.000000, VY: 0.000000, VZ: 0.000000 
TIME: 8.886277, ROLL: 0.007779, PITCH: 0.018158, YAW: -0.001882, X: 0.000000, Y: 0.000000, ALTITUDE: -0.000000, VX: 0.000000, VY: 0.000000, VZ: 0.000000 
TIME: 8.945812, ROLL: 0.007779, PITCH: 0.018158, YAW: -0.001882, X: 0.000000, Y: 0.000000, ALTITUDE: -0.000000, VX: 0.000000, VY: 0.000000, VZ: 0.000000 
TIME: 8.996531, ROLL: 0.007779, PITCH: 0.018158, YAW: -0.001882, X: 0.000000, Y: 0.000000, ALTITUDE: -0.000000, VX: 0.000000, VY: 0.000000, VZ: 0.000000 
TIME: 9.047337, ROLL: 0.007779, PITCH: 0.018158, YAW: -0.001882, X: 0.000000, Y: 0.000000, ALTITUDE: -0.000000, VX: 0.000000, VY: 0.000000, VZ: 0.000000 
TIME: 9.098237, ROLL: 0.007779, PITCH: 0.018158, YAW: -0.001882, X: 0.000000, Y: 0.000000, ALTITUDE: -0.000000, VX: 0.000000, VY: 0.000000, VZ: 0.000000 
TIME: 9.149034, ROLL: 0.007985, PITCH: 0.018213, YAW: -0.001853, X: 0.000000, Y: 0.000000, ALTITUDE: -0.000000, VX: 0.000000, VY: 0.000000, VZ: 0.000000 
TIME: 9.218074, ROLL: 0.007985, PITCH: 0.018213, YAW: -0.001853, X: 0.000000, Y: 0.000000, ALTITUDE: -0.000000, VX: 0.000000, VY: 0.000000, VZ: 0.000000 
TIME: 9.268835, ROLL: 0.007985, PITCH: 0.018213, YAW: -0.001853, X: 0.000000, Y: 0.000000, ALTITUDE: -0.000000, VX: 0.000000, VY: 0.000000, VZ: 0.000000 
TIME: 9.319555, ROLL: 0.007985, PITCH: 0.018213, YAW: -0.001853, X: 0.000000, Y: 0.000000, ALTITUDE: -0.000000, VX: 0.000000, VY: 0.000000, VZ: 0.000000 
TIME: 9.370272, ROLL: 0.007985, PITCH: 0.018213, YAW: -0.001853, X: 0.000000, Y: 0.000000, ALTITUDE: -0.000000, VX: 0.000000, VY: 0.000000, VZ: 0.000000 
TIME: 9.423250, ROLL: 0.008004, PITCH: 0.018090, YAW: -0.001827, X: 0.000000, Y: 0.000000, ALTITUDE: -0.000000, VX: 0.000000, VY: 0.000000, VZ: 0.000000 
TIME: 9.482690, ROLL: 0.008004, PITCH: 0.018090, YAW: -0.001827, X: 0.000000, Y: 0.000000, ALTITUDE: -0.000000, VX: 0.000000, VY: 0.000000, VZ: 0.000000 
TIME: 9.533607, ROLL: 0.008004, PITCH: 0.018090, YAW: -0.001827, X: 0.000000, Y: 0.000000, ALTITUDE: -0.000000, VX: 0.000000, VY: 0.000000, VZ: 0.000000 
TIME: 9.584381, ROLL: 0.008004, PITCH: 0.018090, YAW: -0.001827, X: 0.000000, Y: 0.000000, ALTITUDE: -0.000000, VX: 0.000000, VY: 0.000000, VZ: 0.000000 
TIME: 9.635324, ROLL: 0.008004, PITCH: 0.018090, YAW: -0.001827, X: 0.000000, Y: 0.000000, ALTITUDE: -0.000000, VX: 0.000000, VY: 0.000000, VZ: 0.000000 
TIME: 9.702161, ROLL: 0.007797, PITCH: 0.018210, YAW: -0.001804, X: 0.000000, Y: 0.000000, ALTITUDE: -0.000000, VX: 0.000000, VY: 0.000000, VZ: 0.000000 
TIME: 9.765669, ROLL: 0.007797, PITCH: 0.018210, YAW: -0.001804, X: 0.000000, Y: 0.000000, ALTITUDE: -0.000000, VX: 0.000000, VY: 0.000000, VZ: 0.000000 
TIME: 9.816542, ROLL: 0.007797, PITCH: 0.018210, YAW: -0.001804, X: 0.000000, Y: 0.000000, ALTITUDE: -0.000000, VX: 0.000000, VY: 0.000000, VZ: 0.000000 
TIME: 9.867370, ROLL: 0.007797, PITCH: 0.018210, YAW: -0.001804, X: 0.000000, Y: 0.000000, ALTITUDE: -0.000000, VX: 0.000000, VY: 0.000000, VZ: 0.000000 
TIME: 9.918171, ROLL: 0.007797, PITCH: 0.018210, YAW: -0.001804, X: 0.000000, Y: 0.000000, ALTITUDE: -0.000000, VX: 0.000000, VY: 0.000000, VZ: 0.000000 
TIME: 9.974681, ROLL: 0.007669, PITCH: 0.017988, YAW: -0.001769, X: 0.000000, Y: 0.000000, ALTITUDE: -0.000000, VX: 0.000000, VY: 0.000000, VZ: 0.000000 
TIME: 10.006077, ROLL: 0.007669, PITCH: 0.017988, YAW: -0.001769, X: 0.000000, Y: 0.000000, ALTITUDE: -0.000000, VX: 0.000000, VY: 0.000000, VZ: 0.000000 
TIME: 10.056849, ROLL: 0.007669, PITCH: 0.017988, YAW: -0.001769, X: 0.000000, Y: 0.000000, ALTITUDE: -0.000000, VX: 0.000000, VY: 0.000000, VZ: 0.000000 
TIME: 10.107565, ROLL: 0.007669, PITCH: 0.017988, YAW: -0.001769, X: 0.000000, Y: 0.000000, ALTITUDE: -0.000000, VX: 0.000000, VY: 0.000000, VZ: 0.000000 
TIME: 10.158375, ROLL: 0.007669, PITCH: 0.017988, YAW: -0.001769, X: 0.000000, Y: 0.000000, ALTITUDE: -0.000000, VX: 0.000000, VY: 0.000000, VZ: 0.000000 
TIME: 10.216967, ROLL: 0.007961, PITCH: 0.018081, YAW: -0.001765, X: 0.000000, Y: 0.000000, ALTITUDE: -0.000000, VX: 0.000000, VY: 0.000000, VZ: 0.000000 
TIME: 10.268214, ROLL: 0.007961, PITCH: 0.018081, YAW: -0.001765, X: 0.000000, Y: 0.000000, ALTITUDE: -0.000000, VX: 0.000000, VY: 0.000000, VZ: 0.000000 
TIME: 10.319029, ROLL: 0.007961, PITCH: 0.018081, YAW: -0.001765, X: 0.000000, Y: 0.000000, ALTITUDE: -0.000000, VX: 0.000000, VY: 0.000000, VZ: 0.000000 
TIME: 10.369813, ROLL: 0.007961, PITCH: 0.018081, YAW: -0.001765, X: 0.000000, Y: 0.000000, ALTITUDE: -0.000000, VX: 0.000000, VY: 0.000000, VZ: 0.000000 
TIME: 10.420588, ROLL: 0.007961, PITCH: 0.018081, YAW: -0.001765, X: 0.000000, Y: 0.000000, ALTITUDE: -0.000000, VX: 0.000000, VY: 0.000000, VZ: 0.000000 
TIME: 10.484305, ROLL: 0.007793, PITCH: 0.017859, YAW: -0.001748, X: 0.000000, Y: 0.000000, ALTITUDE: -0.000000, VX: 0.000000, VY: 0.000000, VZ: 0.000000 
TIME: 10.535740, ROLL: 0.007793, PITCH: 0.017859, YAW: -0.001748, X: 0.000000, Y: 0.000000, ALTITUDE: -0.000000, VX: 0.000000, VY: 0.000000, VZ: 0.000000 
TIME: 10.586920, ROLL: 0.007793, PITCH: 0.017859, YAW: -0.001748, X: 0.000000, Y: 0.000000, ALTITUDE: -0.000000, VX: 0.000000, VY: 0.000000, VZ: 0.000000 
TIME: 10.637929, ROLL: 0.007793, PITCH: 0.017859, YAW: -0.001748, X: 0.000000, Y: 0.000000, ALTITUDE: -0.000000, VX: 0.000000, VY: 0.000000, VZ: 0.000000 
TIME: 10.688969, ROLL: 0.007793, PITCH: 0.017859, YAW: -0.001748, X: 0.000000, Y: 0.000000, ALTITUDE: -0.000000, VX: 0.000000, VY: 0.000000, VZ: 0.000000 
TIME: 10.753853, ROLL: 0.007933, PITCH: 0.017830, YAW: -0.001783, X: 0.000000, Y: 0.000000, ALTITUDE: -0.000000, VX: 0.000000, VY: 0.000000, VZ: 0.000000 
TIME: 10.805964, ROLL: 0.007933, PITCH: 0.017830, YAW: -0.001783, X: 0.000000, Y: 0.000000, ALTITUDE: -0.000000, VX: 0.000000, VY: 0.000000, VZ: 0.000000 
TIME: 10.858047, ROLL: 0.007933, PITCH: 0.017830, YAW: -0.001783, X: 0.000000, Y: 0.000000, ALTITUDE: -0.000000, VX: 0.000000, VY: 0.000000, VZ: 0.000000 
TIME: 10.908907, ROLL: 0.007933, PITCH: 0.017830, YAW: -0.001783, X: 0.000000, Y: 0.000000, ALTITUDE: -0.000000, VX: 0.000000, VY: 0.000000, VZ: 0.000000 
TIME: 10.959651, ROLL: 0.007933, PITCH: 0.017830, YAW: -0.001783, X: 0.000000, Y: 0.000000, ALTITUDE: -0.000000, VX: 0.000000, VY: 0.000000, VZ: 0.000000 
TIME: 11.025804, ROLL: 0.007889, PITCH: 0.017995, YAW: -0.001757, X: 0.000000, Y: 0.000000, ALTITUDE: -0.000000, VX: 0.000000, VY: 0.000000, VZ: 0.000000 
TIME: 11.076909, ROLL: 0.007889, PITCH: 0.017995, YAW: -0.001757, X: 0.000000, Y: 0.000000, ALTITUDE: -0.000000, VX: 0.000000, VY: 0.000000, VZ: 0.000000 
TIME: 11.133950, ROLL: 0.007889, PITCH: 0.017995, YAW: -0.001757, X: 0.000000, Y: 0.000000, ALTITUDE: -0.000000, VX: 0.000000, VY: 0.000000, VZ: 0.000000 
TIME: 11.184686, ROLL: 0.007889, PITCH: 0.017995, YAW: -0.001757, X: 0.000000, Y: 0.000000, ALTITUDE: -0.000000, VX: 0.000000, VY: 0.000000, VZ: 0.000000 
TIME: 11.235399, ROLL: 0.007889, PITCH: 0.017995, YAW: -0.001757, X: 0.000000, Y: 0.000000, ALTITUDE: -0.000000, VX: 0.000000, VY: 0.000000, VZ: 0.000000 
TIME: 11.286216, ROLL: 0.007770, PITCH: 0.018118, YAW: -0.001770, X: 0.000000, Y: 0.000000, ALTITUDE: -0.000000, VX: 0.000000, VY: 0.000000, VZ: 0.000000 
TIME: 11.337117, ROLL: 0.007770, PITCH: 0.018118, YAW: -0.001770, X: 0.000000, Y: 0.000000, ALTITUDE: -0.000000, VX: 0.000000, VY: 0.000000, VZ: 0.000000 
TIME: 11.396456, ROLL: 0.007770, PITCH: 0.018118, YAW: -0.001770, X: 0.000000, Y: 0.000000, ALTITUDE: -0.000000, VX: 0.000000, VY: 0.000000, VZ: 0.000000 
TIME: 11.447311, ROLL: 0.007770, PITCH: 0.018118, YAW: -0.001770, X: 0.000000, Y: 0.000000, ALTITUDE: -0.000000, VX: 0.000000, VY: 0.000000, VZ: 0.000000 
TIME: 11.498078, ROLL: 0.007770, PITCH: 0.018118, YAW: -0.001770, X: 0.000000, Y: 0.000000, ALTITUDE: -0.000000, VX: 0.000000, VY: 0.000000, VZ: 0.000000 
TIME: 11.549181, ROLL: 0.007714, PITCH: 0.018066, YAW: -0.001824, X: 0.000000, Y: 0.000000, ALTITUDE: -0.000000, VX: 0.000000, VY: 0.000000, VZ: 0.000000 
TIME: 11.594720, ROLL: 0.007714, PITCH: 0.018066, YAW: -0.001824, X: 0.000000, Y: 0.000000, ALTITUDE: -0.000000, VX: 0.000000, VY: 0.000000, VZ: 0.000000 
TIME: 11.645895, ROLL: 0.007714, PITCH: 0.018066, YAW: -0.001824, X: 0.000000, Y: 0.000000, ALTITUDE: -0.000000, VX: 0.000000, VY: 0.000000, VZ: 0.000000 
TIME: 11.696777, ROLL: 0.007714, PITCH: 0.018066, YAW: -0.001824, X: 0.000000, Y: 0.000000, ALTITUDE: -0.000000, VX: 0.000000, VY: 0.000000, VZ: 0.000000 
TIME: 11.747626, ROLL: 0.007714, PITCH: 0.018066, YAW: -0.001824, X: 0.000000, Y: 0.000000, ALTITUDE: -0.000000, VX: 0.000000, VY: 0.000000, VZ: 0.000000 
TIME: 11.798723, ROLL: 0.007714, PITCH: 0.018066, YAW: -0.001824, X: 0.000000, Y: 0.000000, ALTITUDE: -0.000000, VX: 0.000000, VY: 0.000000, VZ: 0.000000 
TIME: 11.854435, ROLL: 0.007899, PITCH: 0.017978, YAW: -0.001827, X: 0.000000, Y: 0.000000, ALTITUDE: -0.000000, VX: 0.000000, VY: 0.000000, VZ: 0.000000 
TIME: 11.917821, ROLL: 0.007899, PITCH: 0.017978, YAW: -0.001827, X: 0.000000, Y: 0.000000, ALTITUDE: -0.000000, VX: 0.000000, VY: 0.000000, VZ: 0.000000 
TIME: 11.968648, ROLL: 0.007899, PITCH: 0.017978, YAW: -0.001827, X: 0.000000, Y: 0.000000, ALTITUDE: -0.000000, VX: 0.000000, VY: 0.000000, VZ: 0.000000 
TIME: 12.019381, ROLL: 0.007899, PITCH: 0.017978, YAW: -0.001827, X: 0.000000, Y: 0.000000, ALTITUDE: -0.000000, VX: 0.000000, VY: 0.000000, VZ: 0.000000 
TIME: 12.070206, ROLL: 0.007899, PITCH: 0.017978, YAW: -0.001827, X: 0.000000, Y: 0.000000, ALTITUDE: -0.000000, VX: 0.000000, VY: 0.000000, VZ: 0.000000 
TIME: 12.121196, ROLL: 0.007784, PITCH: 0.018126, YAW: -0.001829, X: 0.000000, Y: 0.000000, ALTITUDE: -0.000000, VX: 0.000000, VY: 0.000000, VZ: 0.000000 
TIME: 12.189691, ROLL: 0.007784, PITCH: 0.018126, YAW: -0.001829, X: 0.000000, Y: 0.000000, ALTITUDE: -0.000000, VX: 0.000000, VY: 0.000000, VZ: 0.000000 
TIME: 12.240433, ROLL: 0.007784, PITCH: 0.018126, YAW: -0.001829, X: 0.000000, Y: 0.000000, ALTITUDE: -0.000000, VX: 0.000000, VY: 0.000000, VZ: 0.000000 
TIME: 12.291328, ROLL: 0.007784, PITCH: 0.018126, YAW: -0.001829, X: 0.000000, Y: 0.000000, ALTITUDE: -0.000000, VX: 0.000000, VY: 0.000000, VZ: 0.000000 
TIME: 12.342143, ROLL: 0.007784, PITCH: 0.018126, YAW: -0.001829, X: 0.000000, Y: 0.000000, ALTITUDE: -0.000000, VX: 0.000000, VY: 0.000000, VZ: 0.000000 
TIME: 12.394146, ROLL: 0.007811, PITCH: 0.018301, YAW: -0.001857, X: 0.000000, Y: 0.000000, ALTITUDE: -0.000000, VX: 0.000000, VY: 0.000000, VZ: 0.000000 
TIME: 12.464947, ROLL: 0.007811, PITCH: 0.018301, YAW: -0.001857, X: 0.000000, Y: 0.000000, ALTITUDE: -0.000000, VX: 0.000000, VY: 0.000000, VZ: 0.000000 
TIME: 12.515732, ROLL: 0.007811, PITCH: 0.018301, YAW: -0.001857, X: 0.000000, Y: 0.000000, ALTITUDE: -0.000000, VX: 0.000000, VY: 0.000000, VZ: 0.000000 
TIME: 12.566492, ROLL: 0.007811, PITCH: 0.018301, YAW: -0.001857, X: 0.000000, Y: 0.000000, ALTITUDE: -0.000000, VX: 0.000000, VY: 0.000000, VZ: 0.000000 
TIME: 12.617325, ROLL: 0.007811, PITCH: 0.018301, YAW: -0.001857, X: 0.000000, Y: 0.000000, ALTITUDE: -0.000000, VX: 0.000000, VY: 0.000000, VZ: 0.000000 
TIME: 12.676710, ROLL: 0.007744, PITCH: 0.018181, YAW: -0.001877, X: 0.000000, Y: 0.000000, ALTITUDE: -0.000000, VX: 0.000000, VY: 0.000000, VZ: 0.000000 
TIME: 12.727361, ROLL: 0.007744, PITCH: 0.018181, YAW: -0.001877, X: 0.000000, Y: 0.000000, ALTITUDE: -0.000000, VX: 0.000000, VY: 0.000000, VZ: 0.000000 
TIME: 12.778143, ROLL: 0.007744, PITCH: 0.018181, YAW: -0.001877, X: 0.000000, Y: 0.000000, ALTITUDE: -0.000000, VX: 0.000000, VY: 0.000000, VZ: 0.000000 
TIME: 12.828857, ROLL: 0.007744, PITCH: 0.018181, YAW: -0.001877, X: 0.000000, Y: 0.000000, ALTITUDE: -0.000000, VX: 0.000000, VY: 0.000000, VZ: 0.000000 
TIME: 12.879595, ROLL: 0.007744, PITCH: 0.018181, YAW: -0.001877, X: 0.000000, Y: 0.000000, ALTITUDE: -0.000000, VX: 0.000000, VY: 0.000000, VZ: 0.000000 
TIME: 12.948657, ROLL: 0.007816, PITCH: 0.018172, YAW: -0.001901, X: 0.000000, Y: 0.000000, ALTITUDE: -0.000000, VX: 0.000000, VY: 0.000000, VZ: 0.000000 
TIME: 12.999692, ROLL: 0.007885, PITCH: 0.018095, YAW: -0.001940, X: 0.000000, Y: 0.000000, ALTITUDE: -0.000000, VX: 0.000000, VY: 0.000000, VZ: 0.000000 
TIME: 13.050774, ROLL: 0.007885, PITCH: 0.018095, YAW: -0.001940, X: 0.000000, Y: 0.000000, ALTITUDE: -0.000000, VX: 0.000000, VY: 0.000000, VZ: 0.000000 
TIME: 13.101821, ROLL: 0.007885, PITCH: 0.018095, YAW: -0.001940, X: 0.000000, Y: 0.000000, ALTITUDE: -0.000000, VX: 0.000000, VY: 0.000000, VZ: 0.000000 
TIME: 13.152670, ROLL: 0.007885, PITCH: 0.018095, YAW: -0.001940, X: 0.000000, Y: 0.000000, ALTITUDE: -0.000000, VX: 0.000000, VY: 0.000000, VZ: 0.000000 
TIME: 13.203453, ROLL: 0.007973, PITCH: 0.018041, YAW: -0.001915, X: 0.000000, Y: 0.000000, ALTITUDE: -0.000000, VX: 0.000000, VY: 0.000000, VZ: 0.000000 
TIME: 13.254343, ROLL: 0.007973, PITCH: 0.018041, YAW: -0.001915, X: 0.000000, Y: 0.000000, ALTITUDE: -0.000000, VX: 0.000000, VY: 0.000000, VZ: 0.000000 
TIME: 13.305108, ROLL: 0.007973, PITCH: 0.018041, YAW: -0.001915, X: 0.000000, Y: 0.000000, ALTITUDE: -0.000000, VX: 0.000000, VY: 0.000000, VZ: 0.000000 
TIME: 13.355990, ROLL: 0.007973, PITCH: 0.018041, YAW: -0.001915, X: 0.000000, Y: 0.000000, ALTITUDE: -0.000000, VX: 0.000000, VY: 0.000000, VZ: 0.000000 
TIME: 13.406778, ROLL: 0.007658, PITCH: 0.018044, YAW: -0.001928, X: 0.000000, Y: 0.000000, ALTITUDE: -0.000000, VX: 0.000000, VY: 0.000000, VZ: 0.000000 
TIME: 13.457723, ROLL: 0.007658, PITCH: 0.018044, YAW: -0.001928, X: 0.000000, Y: 0.000000, ALTITUDE: -0.000000, VX: 0.000000, VY: 0.000000, VZ: 0.000000 
TIME: 13.508535, ROLL: 0.007658, PITCH: 0.018044, YAW: -0.001928, X: 0.000000, Y: 0.000000, ALTITUDE: -0.000000, VX: 0.000000, VY: 0.000000, VZ: 0.000000 
TIME: 13.559316, ROLL: 0.007658, PITCH: 0.018044, YAW: -0.001928, X: 0.000000, Y: 0.000000, ALTITUDE: -0.000000, VX: 0.000000, VY: 0.000000, VZ: 0.000000 
TIME: 13.610130, ROLL: 0.007621, PITCH: 0.018212, YAW: -0.001942, X: 0.000000, Y: 0.000000, ALTITUDE: -0.000000, VX: 0.000000, VY: 0.000000, VZ: 0.000000 
TIME: 13.661030, ROLL: 0.007621, PITCH: 0.018212, YAW: -0.001942, X: 0.000000, Y: 0.000000, ALTITUDE: -0.000000, VX: 0.000000, VY: 0.000000, VZ: 0.000000 
TIME: 13.711846, ROLL: 0.007621, PITCH: 0.018212, YAW: -0.001942, X: 0.000000, Y: 0.000000, ALTITUDE: -0.000000, VX: 0.000000, VY: 0.000000, VZ: 0.000000 
TIME: 13.762737, ROLL: 0.007621, PITCH: 0.018212, YAW: -0.001942, X: 0.000000, Y: 0.000000, ALTITUDE: -0.000000, VX: 0.000000, VY: 0.000000, VZ: 0.000000 
TIME: 13.815488, ROLL: 0.007621, PITCH: 0.018212, YAW: -0.001942, X: 0.000000, Y: 0.000000, ALTITUDE: -0.000000, VX: 0.000000, VY: 0.000000, VZ: 0.000000 
TIME: 13.866331, ROLL: 0.007804, PITCH: 0.018014, YAW: -0.001921, X: 0.000000, Y: 0.000000, ALTITUDE: -0.000000, VX: 0.000000, VY: 0.000000, VZ: 0.000000 
TIME: 13.917081, ROLL: 0.007804, PITCH: 0.018014, YAW: -0.001921, X: 0.000000, Y: 0.000000, ALTITUDE: -0.000000, VX: 0.000000, VY: 0.000000, VZ: 0.000000 
TIME: 13.967919, ROLL: 0.007804, PITCH: 0.018014, YAW: -0.001921, X: 0.000000, Y: 0.000000, ALTITUDE: -0.000000, VX: 0.000000, VY: 0.000000, VZ: 0.000000 
TIME: 14.018742, ROLL: 0.007906, PITCH: 0.017939, YAW: -0.001935, X: 0.000000, Y: 0.000000, ALTITUDE: -0.000000, VX: 0.000000, VY: 0.000000, VZ: 0.000000 
TIME: 14.069605, ROLL: 0.007906, PITCH: 0.017939, YAW: -0.001935, X: 0.000000, Y: 0.000000, ALTITUDE: -0.000000, VX: 0.000000, VY: 0.000000, VZ: 0.000000 
TIME: 14.120503, ROLL: 0.007906, PITCH: 0.017939, YAW: -0.001935, X: 0.000000, Y: 0.000000, ALTITUDE: -0.000000, VX: 0.000000, VY: 0.000000, VZ: 0.000000 
TIME: 14.171308, ROLL: 0.007906, PITCH: 0.017939, YAW: -0.001935, X: 0.000000, Y: 0.000000, ALTITUDE: -0.000000, VX: 0.000000, VY: 0.000000, VZ: 0.000000 
TIME: 14.222206, ROLL: 0.007915, PITCH: 0.017845, YAW: -0.001890, X: 0.000000, Y: 0.000000, ALTITUDE: -0.000000, VX: 0.000000, VY: 0.000000, VZ: 0.000000 
TIME: 14.273045, ROLL: 0.007915, PITCH: 0.017845, YAW: -0.001890, X: 0.000000, Y: 0.000000, ALTITUDE: -0.000000, VX: 0.000000, VY: 0.000000, VZ: 0.000000 
TIME: 14.324060, ROLL: 0.007915, PITCH: 0.017845, YAW: -0.001890, X: 0.000000, Y: 0.000000, ALTITUDE: -0.000000, VX: 0.000000, VY: 0.000000, VZ: 0.000000 
TIME: 14.374881, ROLL: 0.007915, PITCH: 0.017845, YAW: -0.001890, X: 0.000000, Y: 0.000000, ALTITUDE: -0.000000, VX: 0.000000, VY: 0.000000, VZ: 0.000000 
TIME: 14.425981, ROLL: 0.007961, PITCH: 0.017863, YAW: -0.001921, X: 0.000000, Y: 0.000000, ALTITUDE: -0.000000, VX: 0.000000, VY: 0.000000, VZ: 0.000000 
TIME: 14.476997, ROLL: 0.007961, PITCH: 0.017863, YAW: -0.001921, X: 0.000000, Y: 0.000000, ALTITUDE: -0.000000, VX: 0.000000, VY: 0.000000, VZ: 0.000000 
TIME: 14.527762, ROLL: 0.007961, PITCH: 0.017863, YAW: -0.001921, X: 0.000000, Y: 0.000000, ALTITUDE: -0.000000, VX: 0.000000, VY: 0.000000, VZ: 0.000000 
TIME: 14.578577, ROLL: 0.007961, PITCH: 0.017863, YAW: -0.001921, X: 0.000000, Y: 0.000000, ALTITUDE: -0.000000, VX: 0.000000, VY: 0.000000, VZ: 0.000000 
TIME: 14.629535, ROLL: 0.007934, PITCH: 0.017789, YAW: -0.001938, X: 0.000000, Y: 0.000000, ALTITUDE: -0.000000, VX: 0.000000, VY: 0.000000, VZ: 0.000000 
TIME: 14.680477, ROLL: 0.007934, PITCH: 0.017789, YAW: -0.001938, X: 0.000000, Y: 0.000000, ALTITUDE: -0.000000, VX: 0.000000, VY: 0.000000, VZ: 0.000000 
TIME: 14.731352, ROLL: 0.007934, PITCH: 0.017789, YAW: -0.001938, X: 0.000000, Y: 0.000000, ALTITUDE: -0.000000, VX: 0.000000, VY: 0.000000, VZ: 0.000000 
TIME: 14.782224, ROLL: 0.007934, PITCH: 0.017789, YAW: -0.001938, X: 0.000000, Y: 0.000000, ALTITUDE: -0.000000, VX: 0.000000, VY: 0.000000, VZ: 0.000000 
TIME: 14.835020, ROLL: 0.007934, PITCH: 0.017789, YAW: -0.001938, X: 0.000000, Y: 0.000000, ALTITUDE: -0.000000, VX: 0.000000, VY: 0.000000, VZ: 0.000000 
TIME: 14.885901, ROLL: 0.007862, PITCH: 0.017724, YAW: -0.001917, X: 0.000000, Y: 0.000000, ALTITUDE: -0.000000, VX: 0.000000, VY: 0.000000, VZ: 0.000000 
TIME: 14.936749, ROLL: 0.007862, PITCH: 0.017724, YAW: -0.001917, X: 0.000000, Y: 0.000000, ALTITUDE: -0.000000, VX: 0.000000, VY: 0.000000, VZ: 0.000000 
TIME: 14.987552, ROLL: 0.007862, PITCH: 0.017724, YAW: -0.001917, X: 0.000000, Y: 0.000000, ALTITUDE: -0.000000, VX: 0.000000, VY: 0.000000, VZ: 0.000000 
TIME: 15.038414, ROLL: 0.007767, PITCH: 0.018056, YAW: -0.001952, X: 0.000000, Y: 0.000000, ALTITUDE: -0.000000, VX: 0.000000, VY: 0.000000, VZ: 0.000000 
TIME: 15.089368, ROLL: 0.007767, PITCH: 0.018056, YAW: -0.001952, X: 0.000000, Y: 0.000000, ALTITUDE: -0.000000, VX: 0.000000, VY: 0.000000, VZ: 0.000000 
TIME: 15.140413, ROLL: 0.007767, PITCH: 0.018056, YAW: -0.001952, X: 0.000000, Y: 0.000000, ALTITUDE: -0.000000, VX: 0.000000, VY: 0.000000, VZ: 0.000000 
TIME: 15.191197, ROLL: 0.007767, PITCH: 0.018056, YAW: -0.001952, X: 0.000000, Y: 0.000000, ALTITUDE: -0.000000, VX: 0.000000, VY: 0.000000, VZ: 0.000000 
TIME: 15.242030, ROLL: 0.007732, PITCH: 0.018117, YAW: -0.001922, X: 0.000000, Y: 0.000000, ALTITUDE: -0.000000, VX: 0.000000, VY: 0.000000, VZ: 0.000000 
TIME: 15.292844, ROLL: 0.007732, PITCH: 0.018117, YAW: -0.001922, X: 0.000000, Y: 0.000000, ALTITUDE: -0.000000, VX: 0.000000, VY: 0.000000, VZ: 0.000000 
TIME: 15.343632, ROLL: 0.007732, PITCH: 0.018117, YAW: -0.001922, X: 0.000000, Y: 0.000000, ALTITUDE: -0.000000, VX: 0.000000, VY: 0.000000, VZ: 0.000000 
TIME: 15.395779, ROLL: 0.007732, PITCH: 0.018117, YAW: -0.001922, X: 0.000000, Y: 0.000000, ALTITUDE: -0.000000, VX: 0.000000, VY: 0.000000, VZ: 0.000000 
TIME: 15.429318, ROLL: 0.007686, PITCH: 0.018099, YAW: -0.001937, X: 0.000000, Y: 0.000000, ALTITUDE: -0.000000, VX: 0.000000, VY: 0.000000, VZ: 0.000000 
TIME: 15.433198, ROLL: 0.007686, PITCH: 0.018099, YAW: -0.001937, X: 0.000000, Y: 0.000000, ALTITUDE: -0.000000, VX: 0.000000, VY: 0.000000, VZ: 0.000000 
TIME: 15.438625, ROLL: 0.007686, PITCH: 0.018099, YAW: -0.001937, X: 0.000000, Y: 0.000000, ALTITUDE: -0.000000, VX: 0.000000, VY: 0.000000, VZ: 0.000000 
TIME: 15.442997, ROLL: 0.007686, PITCH: 0.018099, YAW: -0.001937, X: 0.000000, Y: 0.000000, ALTITUDE: -0.000000, VX: 0.000000, VY: 0.000000, VZ: 0.000000 
TIME: 15.448278, ROLL: 0.007747, PITCH: 0.018152, YAW: -0.001943, X: 0.000000, Y: 0.000000, ALTITUDE: -0.000000, VX: 0.000000, VY: 0.000000, VZ: 0.000000 
TIME: 15.453458, ROLL: 0.007747, PITCH: 0.018152, YAW: -0.001943, X: 0.000000, Y: 0.000000, ALTITUDE: -0.000000, VX: 0.000000, VY: 0.000000, VZ: 0.000000 
TIME: 15.458191, ROLL: 0.007747, PITCH: 0.018152, YAW: -0.001943, X: 0.000000, Y: 0.000000, ALTITUDE: -0.000000, VX: 0.000000, VY: 0.000000, VZ: 0.000000 
TIME: 15.462281, ROLL: 0.007747, PITCH: 0.018152, YAW: -0.001943, X: 0.000000, Y: 0.000000, ALTITUDE: -0.000000, VX: 0.000000, VY: 0.000000, VZ: 0.000000 
TIME: 15.467944, ROLL: 0.007747, PITCH: 0.018152, YAW: -0.001943, X: 0.000000, Y: 0.000000, ALTITUDE: -0.000000, VX: 0.000000, VY: 0.000000, VZ: 0.000000 
TIME: 15.472371, ROLL: 0.007729, PITCH: 0.018013, YAW: -0.001910, X: 0.000000, Y: 0.000000, ALTITUDE: -0.000000, VX: 0.000000, VY: 0.000000, VZ: 0.000000 
TIME: 15.477257, ROLL: 0.007729, PITCH: 0.018013, YAW: -0.001910, X: 0.000000, Y: 0.000000, ALTITUDE: -0.000000, VX: 0.000000, VY: 0.000000, VZ: 0.000000 
TIME: 15.481426, ROLL: 0.007729, PITCH: 0.018013, YAW: -0.001910, X: 0.000000, Y: 0.000000, ALTITUDE: -0.000000, VX: 0.000000, VY: 0.000000, VZ: 0.000000 
TIME: 15.486385, ROLL: 0.007697, PITCH: 0.018114, YAW: -0.001917, X: 0.000000, Y: 0.000000, ALTITUDE: -0.000000, VX: 0.000000, VY: 0.000000, VZ: 0.000000 
TIME: 15.491963, ROLL: 0.007697, PITCH: 0.018114, YAW: -0.001917, X: 0.000000, Y: 0.000000, ALTITUDE: -0.000000, VX: 0.000000, VY: 0.000000, VZ: 0.000000 
TIME: 15.497828, ROLL: 0.007697, PITCH: 0.018114, YAW: -0.001917, X: 0.000000, Y: 0.000000, ALTITUDE: -0.000000, VX: 0.000000, VY: 0.000000, VZ: 0.000000 
TIME: 15.502363, ROLL: 0.007697, PITCH: 0.018114, YAW: -0.001917, X: 0.000000, Y: 0.000000, ALTITUDE: -0.000000, VX: 0.000000, VY: 0.000000, VZ: 0.000000 
TIME: 15.507825, ROLL: 0.007638, PITCH: 0.017957, YAW: -0.001902, X: 0.000000, Y: 0.000000, ALTITUDE: -0.000000, VX: 0.000000, VY: 0.000000, VZ: 0.000000 
TIME: 15.512276, ROLL: 0.007638, PITCH: 0.017957, YAW: -0.001902, X: 0.000000, Y: 0.000000, ALTITUDE: -0.000000, VX: 0.000000, VY: 0.000000, VZ: 0.000000 
TIME: 15.517746, ROLL: 0.007638, PITCH: 0.017957, YAW: -0.001902, X: 0.000000, Y: 0.000000, ALTITUDE: -0.000000, VX: 0.000000, VY: 0.000000, VZ: 0.000000 
TIME: 15.524520, ROLL: 0.007638, PITCH: 0.017957, YAW: -0.001902, X: 0.000000, Y: 0.000000, ALTITUDE: -0.000000, VX: 0.000000, VY: 0.000000, VZ: 0.000000 
TIME: 15.529334, ROLL: 0.007650, PITCH: 0.017991, YAW: -0.001853, X: 0.000000, Y: 0.000000, ALTITUDE: -0.000000, VX: 0.000000, VY: 0.000000, VZ: 0.000000 
TIME: 15.535379, ROLL: 0.007650, PITCH: 0.017991, YAW: -0.001853, X: 0.000000, Y: 0.000000, ALTITUDE: -0.000000, VX: 0.000000, VY: 0.000000, VZ: 0.000000 
TIME: 15.539793, ROLL: 0.007650, PITCH: 0.017991, YAW: -0.001853, X: 0.000000, Y: 0.000000, ALTITUDE: -0.000000, VX: 0.000000, VY: 0.000000, VZ: 0.000000 
TIME: 15.545423, ROLL: 0.007650, PITCH: 0.017991, YAW: -0.001853, X: 0.000000, Y: 0.000000, ALTITUDE: -0.000000, VX: 0.000000, VY: 0.000000, VZ: 0.000000 
TIME: 15.550091, ROLL: 0.007877, PITCH: 0.017998, YAW: -0.001823, X: 0.000000, Y: 0.000000, ALTITUDE: -0.000000, VX: 0.000000, VY: 0.000000, VZ: 0.000000 
TIME: 15.555404, ROLL: 0.007877, PITCH: 0.017998, YAW: -0.001823, X: 0.000000, Y: 0.000000, ALTITUDE: -0.000000, VX: 0.000000, VY: 0.000000, VZ: 0.000000 
TIME: 15.559286, ROLL: 0.007877, PITCH: 0.017998, YAW: -0.001823, X: 0.000000, Y: 0.000000, ALTITUDE: -0.000000, VX: 0.000000, VY: 0.000000, VZ: 0.000000 
TIME: 15.565261, ROLL: 0.007877, PITCH: 0.017998, YAW: -0.001823, X: 0.000000, Y: 0.000000, ALTITUDE: -0.000000, VX: 0.000000, VY: 0.000000, VZ: 0.000000 
TIME: 15.570067, ROLL: 0.007877, PITCH: 0.017998, YAW: -0.001823, X: 0.000000, Y: 0.000000, ALTITUDE: -0.000000, VX: 0.000000, VY: 0.000000, VZ: 0.000000 
TIME: 15.576066, ROLL: 0.007874, PITCH: 0.018165, YAW: -0.001793, X: 0.000000, Y: 0.000000, ALTITUDE: -0.000000, VX: 0.000000, VY: 0.000000, VZ: 0.000000 
TIME: 15.580606, ROLL: 0.007874, PITCH: 0.018165, YAW: -0.001793, X: 0.000000, Y: 0.000000, ALTITUDE: -0.000000, VX: 0.000000, VY: 0.000000, VZ: 0.000000 
TIME: 15.587076, ROLL: 0.007874, PITCH: 0.018165, YAW: -0.001793, X: 0.000000, Y: 0.000000, ALTITUDE: -0.000000, VX: 0.000000, VY: 0.000000, VZ: 0.000000 
TIME: 15.591571, ROLL: 0.007851, PITCH: 0.018112, YAW: -0.001769, X: 0.000000, Y: 0.000000, ALTITUDE: -0.000000, VX: 0.000000, VY: 0.000000, VZ: 0.000000 
TIME: 15.597150, ROLL: 0.007851, PITCH: 0.018112, YAW: -0.001769, X: 0.000000, Y: 0.000000, ALTITUDE: -0.000000, VX: 0.000000, VY: 0.000000, VZ: 0.000000 
TIME: 15.602042, ROLL: 0.007851, PITCH: 0.018112, YAW: -0.001769, X: 0.000000, Y: 0.000000, ALTITUDE: -0.000000, VX: 0.000000, VY: 0.000000, VZ: 0.000000 
TIME: 15.607931, ROLL: 0.007851, PITCH: 0.018112, YAW: -0.001769, X: 0.000000, Y: 0.000000, ALTITUDE: -0.000000, VX: 0.000000, VY: 0.000000, VZ: 0.000000 
TIME: 15.612399, ROLL: 0.007890, PITCH: 0.017885, YAW: -0.001792, X: 0.000000, Y: 0.000000, ALTITUDE: -0.000000, VX: 0.000000, VY: 0.000000, VZ: 0.000000 
TIME: 15.617093, ROLL: 0.007890, PITCH: 0.017885, YAW: -0.001792, X: 0.000000, Y: 0.000000, ALTITUDE: -0.000000, VX: 0.000000, VY: 0.000000, VZ: 0.000000 
TIME: 15.624109, ROLL: 0.007890, PITCH: 0.017885, YAW: -0.001792, X: 0.000000, Y: 0.000000, ALTITUDE: -0.000000, VX: 0.000000, VY: 0.000000, VZ: 0.000000 
TIME: 15.629166, ROLL: 0.007890, PITCH: 0.017885, YAW: -0.001792, X: 0.000000, Y: 0.000000, ALTITUDE: -0.000000, VX: 0.000000, VY: 0.000000, VZ: 0.000000 
TIME: 15.637807, ROLL: 0.007919, PITCH: 0.017974, YAW: -0.001840, X: 0.000000, Y: 0.000000, ALTITUDE: -0.000000, VX: 0.000000, VY: 0.000000, VZ: 0.000000 
TIME: 15.643464, ROLL: 0.007919, PITCH: 0.017974, YAW: -0.001840, X: 0.000000, Y: 0.000000, ALTITUDE: -0.000000, VX: 0.000000, VY: 0.000000, VZ: 0.000000 
TIME: 15.648150, ROLL: 0.007919, PITCH: 0.017974, YAW: -0.001840, X: 0.000000, Y: 0.000000, ALTITUDE: -0.000000, VX: 0.000000, VY: 0.000000, VZ: 0.000000 
TIME: 15.652595, ROLL: 0.007919, PITCH: 0.017974, YAW: -0.001840, X: 0.000000, Y: 0.000000, ALTITUDE: -0.000000, VX: 0.000000, VY: 0.000000, VZ: 0.000000 
TIME: 15.658039, ROLL: 0.007828, PITCH: 0.018052, YAW: -0.001814, X: 0.000000, Y: 0.000000, ALTITUDE: -0.000000, VX: 0.000000, VY: 0.000000, VZ: 0.000000 
TIME: 15.662242, ROLL: 0.007828, PITCH: 0.018052, YAW: -0.001814, X: 0.000000, Y: 0.000000, ALTITUDE: -0.000000, VX: 0.000000, VY: 0.000000, VZ: 0.000000 
TIME: 15.667179, ROLL: 0.007828, PITCH: 0.018052, YAW: -0.001814, X: 0.000000, Y: 0.000000, ALTITUDE: -0.000000, VX: 0.000000, VY: 0.000000, VZ: 0.000000 
TIME: 15.671568, ROLL: 0.007828, PITCH: 0.018052, YAW: -0.001814, X: 0.000000, Y: 0.000000, ALTITUDE: -0.000000, VX: 0.000000, VY: 0.000000, VZ: 0.000000 
TIME: 15.676918, ROLL: 0.007828, PITCH: 0.018052, YAW: -0.001814, X: 0.000000, Y: 0.000000, ALTITUDE: -0.000000, VX: 0.000000, VY: 0.000000, VZ: 0.000000 
TIME: 15.681383, ROLL: 0.007840, PITCH: 0.017987, YAW: -0.001788, X: 0.000000, Y: 0.000000, ALTITUDE: -0.000000, VX: 0.000000, VY: 0.000000, VZ: 0.000000 
TIME: 15.687028, ROLL: 0.007840, PITCH: 0.017987, YAW: -0.001788, X: 0.000000, Y: 0.000000, ALTITUDE: -0.000000, VX: 0.000000, VY: 0.000000, VZ: 0.000000 
TIME: 15.691319, ROLL: 0.007840, PITCH: 0.017987, YAW: -0.001788, X: 0.000000, Y: 0.000000, ALTITUDE: -0.000000, VX: 0.000000, VY: 0.000000, VZ: 0.000000 
TIME: 15.694737, ROLL: 0.007780, PITCH: 0.018138, YAW: -0.001813, X: 0.000000, Y: 0.000000, ALTITUDE: -0.000000, VX: 0.000000, VY: 0.000000, VZ: 0.000000 
TIME: 15.696641, ROLL: 0.007780, PITCH: 0.018138, YAW: -0.001813, X: 0.000000, Y: 0.000000, ALTITUDE: -0.000000, VX: 0.000000, VY: 0.000000, VZ: 0.000000 
TIME: 15.698991, ROLL: 0.007780, PITCH: 0.018138, YAW: -0.001813, X: 0.000000, Y: 0.000000, ALTITUDE: -0.000000, VX: 0.000000, VY: 0.000000, VZ: 0.000000 
TIME: 15.700795, ROLL: 0.007780, PITCH: 0.018138, YAW: -0.001813, X: 0.000000, Y: 0.000000, ALTITUDE: -0.000000, VX: 0.000000, VY: 0.000000, VZ: 0.000000 
TIME: 15.702749, ROLL: 0.007971, PITCH: 0.018307, YAW: -0.001771, X: 0.000000, Y: 0.000000, ALTITUDE: -0.000000, VX: 0.000000, VY: 0.000000, VZ: 0.000000 
TIME: 15.707262, ROLL: 0.007971, PITCH: 0.018307, YAW: -0.001771, X: 0.000000, Y: 0.000000, ALTITUDE: -0.000000, VX: 0.000000, VY: 0.000000, VZ: 0.000000 
TIME: 15.712942, ROLL: 0.007971, PITCH: 0.018307, YAW: -0.001771, X: 0.000000, Y: 0.000000, ALTITUDE: -0.000000, VX: 0.000000, VY: 0.000000, VZ: 0.000000 
TIME: 15.717548, ROLL: 0.007971, PITCH: 0.018307, YAW: -0.001771, X: 0.000000, Y: 0.000000, ALTITUDE: -0.000000, VX: 0.000000, VY: 0.000000, VZ: 0.000000 
TIME: 15.724167, ROLL: 0.008014, PITCH: 0.018563, YAW: -0.001809, X: 0.000000, Y: 0.000000, ALTITUDE: -0.000000, VX: 0.000000, VY: 0.000000, VZ: 0.000000 
TIME: 15.728904, ROLL: 0.008014, PITCH: 0.018563, YAW: -0.001809, X: 0.000000, Y: 0.000000, ALTITUDE: -0.000000, VX: 0.000000, VY: 0.000000, VZ: 0.000000 
TIME: 15.734419, ROLL: 0.008014, PITCH: 0.018563, YAW: -0.001809, X: 0.000000, Y: 0.000000, ALTITUDE: -0.000000, VX: 0.000000, VY: 0.000000, VZ: 0.000000 
TIME: 15.738484, ROLL: 0.008014, PITCH: 0.018563, YAW: -0.001809, X: 0.000000, Y: 0.000000, ALTITUDE: -0.000000, VX: 0.000000, VY: 0.000000, VZ: 0.000000 
TIME: 15.744119, ROLL: 0.007896, PITCH: 0.018550, YAW: -0.001842, X: 0.000000, Y: 0.000000, ALTITUDE: -0.000000, VX: 0.000000, VY: 0.000000, VZ: 0.000000 
TIME: 15.748879, ROLL: 0.007896, PITCH: 0.018550, YAW: -0.001842, X: 0.000000, Y: 0.000000, ALTITUDE: -0.000000, VX: 0.000000, VY: 0.000000, VZ: 0.000000 
TIME: 15.753092, ROLL: 0.007896, PITCH: 0.018550, YAW: -0.001842, X: 0.000000, Y: 0.000000, ALTITUDE: -0.000000, VX: 0.000000, VY: 0.000000, VZ: 0.000000 
TIME: 15.758451, ROLL: 0.007896, PITCH: 0.018550, YAW: -0.001842, X: 0.000000, Y: 0.000000, ALTITUDE: -0.000000, VX: 0.000000, VY: 0.000000, VZ: 0.000000 
TIME: 15.762986, ROLL: 0.007896, PITCH: 0.018550, YAW: -0.001842, X: 0.000000, Y: 0.000000, ALTITUDE: -0.000000, VX: 0.000000, VY: 0.000000, VZ: 0.000000 
TIME: 15.768490, ROLL: 0.007867, PITCH: 0.018416, YAW: -0.001823, X: 0.000000, Y: 0.000000, ALTITUDE: -0.000000, VX: 0.000000, VY: 0.000000, VZ: 0.000000 
TIME: 15.772546, ROLL: 0.007867, PITCH: 0.018416, YAW: -0.001823, X: 0.000000, Y: 0.000000, ALTITUDE: -0.000000, VX: 0.000000, VY: 0.000000, VZ: 0.000000 
TIME: 15.778095, ROLL: 0.007867, PITCH: 0.018416, YAW: -0.001823, X: 0.000000, Y: 0.000000, ALTITUDE: -0.000000, VX: 0.000000, VY: 0.000000, VZ: 0.000000 
TIME: 15.782215, ROLL: 0.007985, PITCH: 0.018274, YAW: -0.001837, X: 0.000000, Y: 0.000000, ALTITUDE: -0.000000, VX: 0.000000, VY: 0.000000, VZ: 0.000000 
TIME: 15.787849, ROLL: 0.007985, PITCH: 0.018274, YAW: -0.001837, X: 0.000000, Y: 0.000000, ALTITUDE: -0.000000, VX: 0.000000, VY: 0.000000, VZ: 0.000000 
TIME: 15.789694, ROLL: 0.007985, PITCH: 0.018274, YAW: -0.001837, X: 0.000000, Y: 0.000000, ALTITUDE: -0.000000, VX: 0.000000, VY: 0.000000, VZ: 0.000000 
TIME: 15.795091, ROLL: 0.007985, PITCH: 0.018274, YAW: -0.001837, X: 0.000000, Y: 0.000000, ALTITUDE: -0.000000, VX: 0.000000, VY: 0.000000, VZ: 0.000000 
TIME: 15.799462, ROLL: 0.007974, PITCH: 0.018172, YAW: -0.001824, X: 0.000000, Y: 0.000000, ALTITUDE: -0.000000, VX: 0.000000, VY: 0.000000, VZ: 0.000000 
TIME: 15.805111, ROLL: 0.007974, PITCH: 0.018172, YAW: -0.001824, X: 0.000000, Y: 0.000000, ALTITUDE: -0.000000, VX: 0.000000, VY: 0.000000, VZ: 0.000000 
TIME: 15.809270, ROLL: 0.007974, PITCH: 0.018172, YAW: -0.001824, X: 0.000000, Y: 0.000000, ALTITUDE: -0.000000, VX: 0.000000, VY: 0.000000, VZ: 0.000000 
TIME: 15.814764, ROLL: 0.007974, PITCH: 0.018172, YAW: -0.001824, X: 0.000000, Y: 0.000000, ALTITUDE: -0.000000, VX: 0.000000, VY: 0.000000, VZ: 0.000000 
TIME: 15.820989, ROLL: 0.007999, PITCH: 0.018045, YAW: -0.001843, X: 0.000000, Y: 0.000000, ALTITUDE: -0.000000, VX: 0.000000, VY: 0.000000, VZ: 0.000000 
TIME: 15.825723, ROLL: 0.007999, PITCH: 0.018045, YAW: -0.001843, X: 0.000000, Y: 0.000000, ALTITUDE: -0.000000, VX: 0.000000, VY: 0.000000, VZ: 0.000000 
TIME: 15.831105, ROLL: 0.007999, PITCH: 0.018045, YAW: -0.001843, X: 0.000000, Y: 0.000000, ALTITUDE: -0.000000, VX: 0.000000, VY: 0.000000, VZ: 0.000000 
TIME: 15.836721, ROLL: 0.007999, PITCH: 0.018045, YAW: -0.001843, X: 0.000000, Y: 0.000000, ALTITUDE: -0.000000, VX: 0.000000, VY: 0.000000, VZ: 0.000000 
TIME: 15.841272, ROLL: 0.008034, PITCH: 0.017811, YAW: -0.001806, X: 0.000000, Y: 0.000000, ALTITUDE: -0.000000, VX: 0.000000, VY: 0.000000, VZ: 0.000000 
TIME: 15.847337, ROLL: 0.008034, PITCH: 0.017811, YAW: -0.001806, X: 0.000000, Y: 0.000000, ALTITUDE: -0.000000, VX: 0.000000, VY: 0.000000, VZ: 0.000000 
TIME: 15.851766, ROLL: 0.008034, PITCH: 0.017811, YAW: -0.001806, X: 0.000000, Y: 0.000000, ALTITUDE: -0.000000, VX: 0.000000, VY: 0.000000, VZ: 0.000000 
TIME: 15.855869, ROLL: 0.008034, PITCH: 0.017811, YAW: -0.001806, X: 0.000000, Y: 0.000000, ALTITUDE: -0.000000, VX: 0.000000, VY: 0.000000, VZ: 0.000000 
TIME: 15.860895, ROLL: 0.008034, PITCH: 0.017811, YAW: -0.001806, X: 0.000000, Y: 0.000000, ALTITUDE: -0.000000, VX: 0.000000, VY: 0.000000, VZ: 0.000000 
TIME: 15.865252, ROLL: 0.007917, PITCH: 0.017751, YAW: -0.001754, X: 0.000000, Y: 0.000000, ALTITUDE: -0.000000, VX: 0.000000, VY: 0.000000, VZ: 0.000000 
TIME: 15.870909, ROLL: 0.007917, PITCH: 0.017751, YAW: -0.001754, X: 0.000000, Y: 0.000000, ALTITUDE: -0.000000, VX: 0.000000, VY: 0.000000, VZ: 0.000000 
TIME: 15.874981, ROLL: 0.007917, PITCH: 0.017751, YAW: -0.001754, X: 0.000000, Y: 0.000000, ALTITUDE: -0.000000, VX: 0.000000, VY: 0.000000, VZ: 0.000000 
TIME: 15.880754, ROLL: 0.007901, PITCH: 0.017750, YAW: -0.001847, X: 0.000000, Y: 0.000000, ALTITUDE: -0.000000, VX: 0.000000, VY: 0.000000, VZ: 0.000000 
TIME: 15.885446, ROLL: 0.007901, PITCH: 0.017750, YAW: -0.001847, X: 0.000000, Y: 0.000000, ALTITUDE: -0.000000, VX: 0.000000, VY: 0.000000, VZ: 0.000000 
TIME: 15.890757, ROLL: 0.007901, PITCH: 0.017750, YAW: -0.001847, X: 0.000000, Y: 0.000000, ALTITUDE: -0.000000, VX: 0.000000, VY: 0.000000, VZ: 0.000000 
TIME: 15.895218, ROLL: 0.007901, PITCH: 0.017750, YAW: -0.001847, X: 0.000000, Y: 0.000000, ALTITUDE: -0.000000, VX: 0.000000, VY: 0.000000, VZ: 0.000000 
