TIME: 0.000081, ROLL: 0.000000, PITCH: 0.000000, YAW: 0.000000, X: 0.000000, Y: 0.000000, ALTITUDE: 0.000000, VX: 0.000000, VY: 0.000000, VZ: 0.000000 
TIME: 0.053566, ROLL: 0.011498, PITCH: 0.023494, YAW: 0.000759, X: 0.000000, Y: 0.000000, ALTITUDE: 0.000000, VX: 0.000000, VY: 0.000000, VZ: 0.000000 
TIME: 0.106520, ROLL: 0.011498, PITCH: 0.023494, YAW: 0.000759, X: 0.000000, Y: 0.000000, ALTITUDE: -0.000000, VX: 0.000000, VY: 0.000000, VZ: 0.000000 
TIME: 0.159328, ROLL: 0.011498, PITCH: 0.023494, YAW: 0.000759, X: 0.000000, Y: 0.000000, ALTITUDE: -0.000000, VX: 0.000000, VY: 0.000000, VZ: 0.000000 
TIME: 0.212294, ROLL: 0.011389, PITCH: 0.023211, YAW: 0.000731, X: 0.000000, Y: 0.000000, ALTITUDE: -0.000000, VX: 0.000000, VY: 0.000000, VZ: 0.000000 
TIME: 0.265234, ROLL: 0.011389, PITCH: 0.023211, YAW: 0.000731, X: 0.000000, Y: 0.000000, ALTITUDE: -0.000000, VX: 0.000000, VY: 0.000000, VZ: 0.000000 
TIME: 0.317608, ROLL: 0.011389, PITCH: 0.023211, YAW: 0.000731, X: 0.000000, Y: 0.000000, ALTITUDE: -0.000000, VX: 0.000000, VY: 0.000000, VZ: 0.000000 
TIME: 0.370407, ROLL: 0.011389, PITCH: 0.023211, YAW: 0.000731, X: 0.000000, Y: 0.000000, ALTITUDE: -0.000000, VX: 0.000000, VY: 0.000000, VZ: 0.000000 
TIME: 0.423274, ROLL: 0.011429, PITCH: 0.022976, YAW: 0.000763, X: 0.000000, Y: 0.000000, ALTITUDE: -0.000000, VX: 0.000000, VY: 0.000000, VZ: 0.000000 
TIME: 0.476123, ROLL: 0.011429, PITCH: 0.022976, YAW: 0.000763, X: 0.000000, Y: 0.000000, ALTITUDE: -0.000000, VX: 0.000000, VY: 0.000000, VZ: 0.000000 
TIME: 0.528984, ROLL: 0.011429, PITCH: 0.022976, YAW: 0.000763, X: 0.000000, Y: 0.000000, ALTITUDE: -0.000000, VX: 0.000000, VY: 0.000000, VZ: 0.000000 
TIME: 0.581713, ROLL: 0.011429, PITCH: 0.022976, YAW: 0.000763, X: 0.000000, Y: 0.000000, ALTITUDE: -0.000000, VX: 0.000000, VY: 0.000000, VZ: 0.000000 
TIME: 0.634542, ROLL: 0.011467, PITCH: 0.022785, YAW: 0.000851, X: 0.000000, Y: 0.000000, ALTITUDE: -0.000000, VX: 0.000000, VY: 0.000000, VZ: 0.000000 
TIME: 0.687415, ROLL: 0.011467, PITCH: 0.022785, YAW: 0.000851, X: 0.000000, Y: 0.000000, ALTITUDE: -0.000000, VX: 0.000000, VY: 0.000000, VZ: 0.000000 
TIME: 0.741467, ROLL: 0.011467, PITCH: 0.022785, YAW: 0.000851, X: 0.000000, Y: 0.000000, ALTITUDE: -0.000000, VX: 0.000000, VY: 0.000000, VZ: 0.000000 
TIME: 0.794597, ROLL: 0.011467, PITCH: 0.022785, YAW: 0.000851, X: 0.000000, Y: 0.000000, ALTITUDE: -0.000000, VX: 0.000000, VY: 0.000000, VZ: 0.000000 
TIME: 0.847773, ROLL: 0.011418, PITCH: 0.022804, YAW: 0.000868, X: 0.000000, Y: 0.000000, ALTITUDE: -0.000000, VX: 0.000000, VY: 0.000000, VZ: 0.000000 
TIME: 0.900375, ROLL: 0.011418, PITCH: 0.022804, YAW: 0.000868, X: 0.000000, Y: 0.000000, ALTITUDE: -0.000000, VX: 0.000000, VY: 0.000000, VZ: 0.000000 
TIME: 0.953080, ROLL: 0.011418, PITCH: 0.022804, YAW: 0.000868, X: 0.000000, Y: 0.000000, ALTITUDE: -0.000000, VX: 0.000000, VY: 0.000000, VZ: 0.000000 
TIME: 1.005706, ROLL: 0.011418, PITCH: 0.022804, YAW: 0.000868, X: 0.000000, Y: 0.000000, ALTITUDE: -0.000000, VX: 0.000000, VY: 0.000000, VZ: 0.000000 
TIME: 1.059263, ROLL: 0.011418, PITCH: 0.022804, YAW: 0.000868, X: 0.000000, Y: 0.000000, ALTITUDE: -0.000000, VX: 0.000000, VY: 0.000000, VZ: 0.000000 
TIME: 1.111961, ROLL: 0.011394, PITCH: 0.023045, YAW: 0.000860, X: 0.000000, Y: 0.000000, ALTITUDE: -0.000000, VX: 0.000000, VY: 0.000000, VZ: 0.000000 
TIME: 1.164572, ROLL: 0.011394, PITCH: 0.023045, YAW: 0.000860, X: 0.000000, Y: 0.000000, ALTITUDE: -0.000000, VX: 0.000000, VY: 0.000000, VZ: 0.000000 
TIME: 1.217218, ROLL: 0.011394, PITCH: 0.023045, YAW: 0.000860, X: 0.000000, Y: 0.000000, ALTITUDE: -0.000000, VX: 0.000000, VY: 0.000000, VZ: 0.000000 
TIME: 1.270337, ROLL: 0.011506, PITCH: 0.023291, YAW: 0.000858, X: 0.000000, Y: 0.000000, ALTITUDE: -0.000000, VX: 0.000000, VY: 0.000000, VZ: 0.000000 
TIME: 1.323037, ROLL: 0.011506, PITCH: 0.023291, YAW: 0.000858, X: 0.000000, Y: 0.000000, ALTITUDE: -0.000000, VX: 0.000000, VY: 0.000000, VZ: 0.000000 
TIME: 1.375529, ROLL: 0.011506, PITCH: 0.023291, YAW: 0.000858, X: 0.000000, Y: 0.000000, ALTITUDE: -0.000000, VX: 0.000000, VY: 0.000000, VZ: 0.000000 
TIME: 1.428162, ROLL: 0.011506, PITCH: 0.023291, YAW: 0.000858, X: 0.000000, Y: 0.000000, ALTITUDE: -0.000000, VX: 0.000000, VY: 0.000000, VZ: 0.000000 
TIME: 1.481001, ROLL: 0.011690, PITCH: 0.023675, YAW: 0.000854, X: 0.000000, Y: 0.000000, ALTITUDE: -0.000000, VX: 0.000000, VY: 0.000000, VZ: 0.000000 
TIME: 1.536327, ROLL: 0.011690, PITCH: 0.023675, YAW: 0.000854, X: 0.000000, Y: 0.000000, ALTITUDE: -0.000000, VX: 0.000000, VY: 0.000000, VZ: 0.000000 
TIME: 1.591464, ROLL: 0.011690, PITCH: 0.023675, YAW: 0.000854, X: 0.000000, Y: 0.000000, ALTITUDE: -0.000000, VX: 0.000000, VY: 0.000000, VZ: 0.000000 
TIME: 1.644700, ROLL: 0.011690, PITCH: 0.023675, YAW: 0.000854, X: 0.000000, Y: 0.000000, ALTITUDE: -0.000000, VX: 0.000000, VY: 0.000000, VZ: 0.000000 
TIME: 1.698237, ROLL: 0.011731, PITCH: 0.023828, YAW: 0.000901, X: 0.000000, Y: 0.000000, ALTITUDE: -0.000000, VX: 0.000000, VY: 0.000000, VZ: 0.000000 
TIME: 1.752629, ROLL: 0.011731, PITCH: 0.023828, YAW: 0.000901, X: 0.000000, Y: 0.000000, ALTITUDE: -0.000000, VX: 0.000000, VY: 0.000000, VZ: 0.000000 
TIME: 1.805621, ROLL: 0.011731, PITCH: 0.023828, YAW: 0.000901, X: 0.000000, Y: 0.000000, ALTITUDE: -0.000000, VX: 0.000000, VY: 0.000000, VZ: 0.000000 
TIME: 1.858851, ROLL: 0.011731, PITCH: 0.023828, YAW: 0.000901, X: 0.000000, Y: 0.000000, ALTITUDE: -0.000000, VX: 0.000000, VY: 0.000000, VZ: 0.000000 
TIME: 1.902139, ROLL: 0.011859, PITCH: 0.024041, YAW: 0.000873, X: 0.000000, Y: 0.000000, ALTITUDE: -0.000000, VX: 0.000000, VY: 0.000000, VZ: 0.000000 
TIME: 1.920417, ROLL: 0.011859, PITCH: 0.024041, YAW: 0.000873, X: 0.000000, Y: 0.000000, ALTITUDE: -0.000000, VX: 0.000000, VY: 0.000000, VZ: 0.000000 
TIME: 1.973689, ROLL: 0.011859, PITCH: 0.024041, YAW: 0.000873, X: 0.000000, Y: 0.000000, ALTITUDE: -0.000000, VX: 0.000000, VY: 0.000000, VZ: 0.000000 
TIME: 2.026464, ROLL: 0.011859, PITCH: 0.024041, YAW: 0.000873, X: 0.000000, Y: 0.000000, ALTITUDE: -0.000000, VX: 0.000000, VY: 0.000000, VZ: 0.000000 
TIME: 2.079022, ROLL: 0.011859, PITCH: 0.024041, YAW: 0.000873, X: 0.000000, Y: 0.000000, ALTITUDE: -0.000000, VX: 0.000000, VY: 0.000000, VZ: 0.000000 
TIME: 2.132006, ROLL: 0.011741, PITCH: 0.024213, YAW: 0.000822, X: 0.000000, Y: 0.000000, ALTITUDE: -0.000000, VX: 0.000000, VY: 0.000000, VZ: 0.000000 
TIME: 2.185122, ROLL: 0.011741, PITCH: 0.024213, YAW: 0.000822, X: 0.000000, Y: 0.000000, ALTITUDE: -0.000000, VX: 0.000000, VY: 0.000000, VZ: 0.000000 
TIME: 2.237798, ROLL: 0.011741, PITCH: 0.024213, YAW: 0.000822, X: 0.000000, Y: 0.000000, ALTITUDE: -0.000000, VX: 0.000000, VY: 0.000000, VZ: 0.000000 
TIME: 2.290271, ROLL: 0.011741, PITCH: 0.024213, YAW: 0.000822, X: 0.000000, Y: 0.000000, ALTITUDE: -0.000000, VX: 0.000000, VY: 0.000000, VZ: 0.000000 
TIME: 2.343122, ROLL: 0.011684, PITCH: 0.024488, YAW: 0.000899, X: 0.000000, Y: 0.000000, ALTITUDE: -0.000000, VX: 0.000000, VY: 0.000000, VZ: 0.000000 
TIME: 2.395465, ROLL: 0.011684, PITCH: 0.024488, YAW: 0.000899, X: 0.000000, Y: 0.000000, ALTITUDE: -0.000000, VX: 0.000000, VY: 0.000000, VZ: 0.000000 
TIME: 2.447802, ROLL: 0.011684, PITCH: 0.024488, YAW: 0.000899, X: 0.000000, Y: 0.000000, ALTITUDE: -0.000000, VX: 0.000000, VY: 0.000000, VZ: 0.000000 
TIME: 2.500559, ROLL: 0.011684, PITCH: 0.024488, YAW: 0.000899, X: 0.000000, Y: 0.000000, ALTITUDE: -0.000000, VX: 0.000000, VY: 0.000000, VZ: 0.000000 
TIME: 2.553718, ROLL: 0.011550, PITCH: 0.024316, YAW: 0.000884, X: 0.000000, Y: 0.000000, ALTITUDE: -0.000000, VX: 0.000000, VY: 0.000000, VZ: 0.000000 
TIME: 2.606536, ROLL: 0.011550, PITCH: 0.024316, YAW: 0.000884, X: 0.000000, Y: 0.000000, ALTITUDE: -0.000000, VX: 0.000000, VY: 0.000000, VZ: 0.000000 
TIME: 2.659327, ROLL: 0.011550, PITCH: 0.024316, YAW: 0.000884, X: 0.000000, Y: 0.000000, ALTITUDE: -0.000000, VX: 0.000000, VY: 0.000000, VZ: 0.000000 
TIME: 2.712044, ROLL: 0.011274, PITCH: 0.024131, YAW: 0.000820, X: 0.000000, Y: 0.000000, ALTITUDE: -0.000000, VX: 0.000000, VY: 0.000000, VZ: 0.000000 
TIME: 2.764699, ROLL: 0.011274, PITCH: 0.024131, YAW: 0.000820, X: 0.000000, Y: 0.000000, ALTITUDE: -0.000000, VX: 0.000000, VY: 0.000000, VZ: 0.000000 
TIME: 2.817528, ROLL: 0.011274, PITCH: 0.024131, YAW: 0.000820, X: 0.000000, Y: 0.000000, ALTITUDE: -0.000000, VX: 0.000000, VY: 0.000000, VZ: 0.000000 
TIME: 2.869691, ROLL: 0.011274, PITCH: 0.024131, YAW: 0.000820, X: 0.000000, Y: 0.000000, ALTITUDE: -0.000000, VX: 0.000000, VY: 0.000000, VZ: 0.000000 
TIME: 2.922391, ROLL: 0.011192, PITCH: 0.023840, YAW: 0.000832, X: 0.000000, Y: 0.000000, ALTITUDE: -0.000000, VX: 0.000000, VY: 0.000000, VZ: 0.000000 
TIME: 2.975090, ROLL: 0.011192, PITCH: 0.023840, YAW: 0.000832, X: 0.000000, Y: 0.000000, ALTITUDE: -0.000000, VX: 0.000000, VY: 0.000000, VZ: 0.000000 
TIME: 3.027741, ROLL: 0.011192, PITCH: 0.023840, YAW: 0.000832, X: 0.000000, Y: 0.000000, ALTITUDE: -0.000000, VX: 0.000000, VY: 0.000000, VZ: 0.000000 
TIME: 3.080227, ROLL: 0.011192, PITCH: 0.023840, YAW: 0.000832, X: 0.000000, Y: 0.000000, ALTITUDE: -0.000000, VX: 0.000000, VY: 0.000000, VZ: 0.000000 
TIME: 3.132870, ROLL: 0.011192, PITCH: 0.023840, YAW: 0.000832, X: 0.000000, Y: 0.000000, ALTITUDE: -0.000000, VX: 0.000000, VY: 0.000000, VZ: 0.000000 
TIME: 3.185756, ROLL: 0.011235, PITCH: 0.023494, YAW: 0.000828, X: 0.000000, Y: 0.000000, ALTITUDE: -0.000000, VX: 0.000000, VY: 0.000000, VZ: 0.000000 
TIME: 3.238517, ROLL: 0.011235, PITCH: 0.023494, YAW: 0.000828, X: 0.000000, Y: 0.000000, ALTITUDE: -0.000000, VX: 0.000000, VY: 0.000000, VZ: 0.000000 
TIME: 3.291348, ROLL: 0.011235, PITCH: 0.023494, YAW: 0.000828, X: 0.000000, Y: 0.000000, ALTITUDE: -0.000000, VX: 0.000000, VY: 0.000000, VZ: 0.000000 
TIME: 3.343848, ROLL: 0.011103, PITCH: 0.023197, YAW: 0.000871, X: 0.000000, Y: 0.000000, ALTITUDE: -0.000000, VX: 0.000000, VY: 0.000000, VZ: 0.000000 
TIME: 3.396526, ROLL: 0.011103, PITCH: 0.023197, YAW: 0.000871, X: 0.000000, Y: 0.000000, ALTITUDE: -0.000000, VX: 0.000000, VY: 0.000000, VZ: 0.000000 
TIME: 3.449215, ROLL: 0.011103, PITCH: 0.023197, YAW: 0.000871, X: 0.000000, Y: 0.000000, ALTITUDE: -0.000000, VX: 0.000000, VY: 0.000000, VZ: 0.000000 
TIME: 3.501481, ROLL: 0.011103, PITCH: 0.023197, YAW: 0.000871, X: 0.000000, Y: 0.000000, ALTITUDE: -0.000000, VX: 0.000000, VY: 0.000000, VZ: 0.000000 
TIME: 3.554236, ROLL: 0.010996, PITCH: 0.023113, YAW: 0.000886, X: 0.000000, Y: 0.000000, ALTITUDE: -0.000000, VX: 0.000000, VY: 0.000000, VZ: 0.000000 
TIME: 3.607044, ROLL: 0.010996, PITCH: 0.023113, YAW: 0.000886, X: 0.000000, Y: 0.000000, ALTITUDE: -0.000000, VX: 0.000000, VY: 0.000000, VZ: 0.000000 
TIME: 3.659581, ROLL: 0.010996, PITCH: 0.023113, YAW: 0.000886, X: 0.000000, Y: 0.000000, ALTITUDE: -0.000000, VX: 0.000000, VY: 0.000000, VZ: 0.000000 
TIME: 3.712413, ROLL: 0.010996, PITCH: 0.023113, YAW: 0.000886, X: 0.000000, Y: 0.000000, ALTITUDE: -0.000000, VX: 0.000000, VY: 0.000000, VZ: 0.000000 
TIME: 3.765243, ROLL: 0.010966, PITCH: 0.022845, YAW: 0.000894, X: 0.000000, Y: 0.000000, ALTITUDE: -0.000000, VX: 0.000000, VY: 0.000000, VZ: 0.000000 
TIME: 3.817925, ROLL: 0.010966, PITCH: 0.022845, YAW: 0.000894, X: 0.000000, Y: 0.000000, ALTITUDE: -0.000000, VX: 0.000000, VY: 0.000000, VZ: 0.000000 
TIME: 3.870603, ROLL: 0.010966, PITCH: 0.022845, YAW: 0.000894, X: 0.000000, Y: 0.000000, ALTITUDE: -0.000000, VX: 0.000000, VY: 0.000000, VZ: 0.000000 
TIME: 3.923157, ROLL: 0.010966, PITCH: 0.022845, YAW: 0.000894, X: 0.000000, Y: 0.000000, ALTITUDE: -0.000000, VX: 0.000000, VY: 0.000000, VZ: 0.000000 
TIME: 3.975943, ROLL: 0.011068, PITCH: 0.022680, YAW: 0.000928, X: 0.000000, Y: 0.000000, ALTITUDE: -0.000000, VX: 0.000000, VY: 0.000000, VZ: 0.000000 
TIME: 4.028337, ROLL: 0.011068, PITCH: 0.022680, YAW: 0.000928, X: 0.000000, Y: 0.000000, ALTITUDE: -0.000000, VX: 0.000000, VY: 0.000000, VZ: 0.000000 
TIME: 4.080587, ROLL: 0.011068, PITCH: 0.022680, YAW: 0.000928, X: 0.000000, Y: 0.000000, ALTITUDE: -0.000000, VX: 0.000000, VY: 0.000000, VZ: 0.000000 
TIME: 4.133059, ROLL: 0.011068, PITCH: 0.022680, YAW: 0.000928, X: 0.000000, Y: 0.000000, ALTITUDE: -0.000000, VX: 0.000000, VY: 0.000000, VZ: 0.000000 
TIME: 4.185755, ROLL: 0.011068, PITCH: 0.022680, YAW: 0.000928, X: 0.000000, Y: 0.000000, ALTITUDE: -0.000000, VX: 0.000000, VY: 0.000000, VZ: 0.000000 
TIME: 4.238816, ROLL: 0.011140, PITCH: 0.022864, YAW: 0.000906, X: 0.000000, Y: 0.000000, ALTITUDE: -0.000000, VX: 0.000000, VY: 0.000000, VZ: 0.000000 
TIME: 4.291500, ROLL: 0.011140, PITCH: 0.022864, YAW: 0.000906, X: 0.000000, Y: 0.000000, ALTITUDE: -0.000000, VX: 0.000000, VY: 0.000000, VZ: 0.000000 
TIME: 4.344039, ROLL: 0.011140, PITCH: 0.022864, YAW: 0.000906, X: 0.000000, Y: 0.000000, ALTITUDE: -0.000000, VX: 0.000000, VY: 0.000000, VZ: 0.000000 
TIME: 4.396474, ROLL: 0.011235, PITCH: 0.023257, YAW: 0.000896, X: 0.000000, Y: 0.000000, ALTITUDE: -0.000000, VX: 0.000000, VY: 0.000000, VZ: 0.000000 
TIME: 4.448942, ROLL: 0.011235, PITCH: 0.023257, YAW: 0.000896, X: 0.000000, Y: 0.000000, ALTITUDE: -0.000000, VX: 0.000000, VY: 0.000000, VZ: 0.000000 
TIME: 4.501624, ROLL: 0.011235, PITCH: 0.023257, YAW: 0.000896, X: 0.000000, Y: 0.000000, ALTITUDE: -0.000000, VX: 0.000000, VY: 0.000000, VZ: 0.000000 
TIME: 4.554395, ROLL: 0.011235, PITCH: 0.023257, YAW: 0.000896, X: 0.000000, Y: 0.000000, ALTITUDE: -0.000000, VX: 0.000000, VY: 0.000000, VZ: 0.000000 
TIME: 4.607169, ROLL: 0.010945, PITCH: 0.023427, YAW: 0.001266, X: 0.000000, Y: 0.000000, ALTITUDE: -0.000000, VX: 0.000000, VY: 0.000000, VZ: 0.000000 
TIME: 4.659277, ROLL: 0.010945, PITCH: 0.023427, YAW: 0.001266, X: 0.000000, Y: 0.000000, ALTITUDE: -0.000000, VX: 0.000000, VY: 0.000000, VZ: 0.000000 
TIME: 4.711899, ROLL: 0.010945, PITCH: 0.023427, YAW: 0.001266, X: 0.000000, Y: 0.000000, ALTITUDE: -0.000000, VX: 0.000000, VY: 0.000000, VZ: 0.000000 
TIME: 4.764374, ROLL: 0.010945, PITCH: 0.023427, YAW: 0.001266, X: 0.000000, Y: 0.000000, ALTITUDE: -0.000000, VX: 0.000000, VY: 0.000000, VZ: 0.000000 
TIME: 4.817112, ROLL: 0.011122, PITCH: 0.023668, YAW: 0.001382, X: 0.000000, Y: 0.000000, ALTITUDE: -0.000000, VX: 0.000000, VY: 0.000000, VZ: 0.000000 
TIME: 4.869683, ROLL: 0.011122, PITCH: 0.023668, YAW: 0.001382, X: 0.000000, Y: 0.000000, ALTITUDE: -0.000000, VX: 0.000000, VY: 0.000000, VZ: 0.000000 
TIME: 4.922295, ROLL: 0.011122, PITCH: 0.023668, YAW: 0.001382, X: 0.000000, Y: 0.000000, ALTITUDE: -0.000000, VX: 0.000000, VY: 0.000000, VZ: 0.000000 
TIME: 4.974764, ROLL: 0.011122, PITCH: 0.023668, YAW: 0.001382, X: 0.000000, Y: 0.000000, ALTITUDE: -0.000000, VX: 0.000000, VY: 0.000000, VZ: 0.000000 
TIME: 5.027543, ROLL: 0.011032, PITCH: 0.023775, YAW: 0.000869, X: 0.000000, Y: 0.000000, ALTITUDE: -0.000000, VX: 0.000000, VY: 0.000000, VZ: 0.000000 
TIME: 5.080289, ROLL: 0.011032, PITCH: 0.023775, YAW: 0.000869, X: 0.000000, Y: 0.000000, ALTITUDE: -0.000000, VX: 0.000000, VY: 0.000000, VZ: 0.000000 
TIME: 5.132961, ROLL: 0.011032, PITCH: 0.023775, YAW: 0.000869, X: 0.000000, Y: 0.000000, ALTITUDE: -0.000000, VX: 0.000000, VY: 0.000000, VZ: 0.000000 
TIME: 5.185427, ROLL: 0.011032, PITCH: 0.023775, YAW: 0.000869, X: 0.000000, Y: 0.000000, ALTITUDE: -0.000000, VX: 0.000000, VY: 0.000000, VZ: 0.000000 
TIME: 5.238135, ROLL: 0.011032, PITCH: 0.023775, YAW: 0.000869, X: 0.000000, Y: 0.000000, ALTITUDE: -0.000000, VX: 0.000000, VY: 0.000000, VZ: 0.000000 
TIME: 5.290804, ROLL: 0.010764, PITCH: 0.023812, YAW: 0.000936, X: 0.000000, Y: 0.000000, ALTITUDE: -0.000000, VX: 0.000000, VY: 0.000000, VZ: 0.000000 
TIME: 5.343074, ROLL: 0.010764, PITCH: 0.023812, YAW: 0.000936, X: 0.000000, Y: 0.000000, ALTITUDE: -0.000000, VX: 0.000000, VY: 0.000000, VZ: 0.000000 
TIME: 5.395824, ROLL: 0.010764, PITCH: 0.023812, YAW: 0.000936, X: 0.000000, Y: 0.000000, ALTITUDE: -0.000000, VX: 0.000000, VY: 0.000000, VZ: 0.000000 
TIME: 5.448566, ROLL: 0.010746, PITCH: 0.024423, YAW: -0.000011, X: 0.000000, Y: 0.000000, ALTITUDE: -0.000000, VX: 0.000000, VY: 0.000000, VZ: 0.000000 
TIME: 5.501460, ROLL: 0.010746, PITCH: 0.024423, YAW: -0.000011, X: 0.000000, Y: 0.000000, ALTITUDE: -0.000000, VX: 0.000000, VY: 0.000000, VZ: 0.000000 
TIME: 5.553962, ROLL: 0.010746, PITCH: 0.024423, YAW: -0.000011, X: 0.000000, Y: 0.000000, ALTITUDE: -0.000000, VX: 0.000000, VY: 0.000000, VZ: 0.000000 
TIME: 5.606492, ROLL: 0.010746, PITCH: 0.024423, YAW: -0.000011, X: 0.000000, Y: 0.000000, ALTITUDE: -0.000000, VX: 0.000000, VY: 0.000000, VZ: 0.000000 
TIME: 5.659471, ROLL: 0.010746, PITCH: 0.024423, YAW: -0.000011, X: 0.000000, Y: 0.000000, ALTITUDE: -0.000000, VX: 0.000000, VY: 0.000000, VZ: 0.000000 
TIME: 5.712167, ROLL: 0.014311, PITCH: 0.021822, YAW: -0.005180, X: 0.000000, Y: 0.000000, ALTITUDE: -0.000000, VX: 0.000000, VY: 0.000000, VZ: 0.000000 
TIME: 5.764449, ROLL: 0.014311, PITCH: 0.021822, YAW: -0.005180, X: 0.000000, Y: 0.000000, ALTITUDE: -0.000000, VX: 0.000000, VY: 0.000000, VZ: 0.000000 
TIME: 5.817261, ROLL: 0.014311, PITCH: 0.021822, YAW: -0.005180, X: 0.000000, Y: 0.000000, ALTITUDE: -0.000000, VX: 0.000000, VY: 0.000000, VZ: 0.000000 
TIME: 5.870142, ROLL: 0.010582, PITCH: 0.021991, YAW: -0.005648, X: 0.000000, Y: 0.000000, ALTITUDE: -0.000000, VX: 0.000000, VY: 0.000000, VZ: 0.000000 
TIME: 5.923068, ROLL: 0.010582, PITCH: 0.021991, YAW: -0.005648, X: 0.000000, Y: 0.000000, ALTITUDE: -0.000000, VX: 0.000000, VY: 0.000000, VZ: 0.000000 
TIME: 5.975406, ROLL: 0.010582, PITCH: 0.021991, YAW: -0.005648, X: 0.000000, Y: 0.000000, ALTITUDE: -0.000000, VX: 0.000000, VY: 0.000000, VZ: 0.000000 
TIME: 6.028091, ROLL: 0.010582, PITCH: 0.021991, YAW: -0.005648, X: 0.000000, Y: 0.000000, ALTITUDE: -0.000000, VX: 0.000000, VY: 0.000000, VZ: 0.000000 
TIME: 6.080783, ROLL: -0.008537, PITCH: 0.044065, YAW: 0.000923, X: 0.000000, Y: 0.000000, ALTITUDE: -0.000000, VX: 0.000000, VY: 0.000000, VZ: 0.000000 
TIME: 6.133674, ROLL: -0.008537, PITCH: 0.044065, YAW: 0.000923, X: -0.004390, Y: -0.001308, ALTITUDE: -0.002201, VX: -0.020857, VY: -0.006216, VZ: -0.075076 
TIME: 6.186298, ROLL: -0.008537, PITCH: 0.044065, YAW: 0.000923, X: -0.004390, Y: -0.001308, ALTITUDE: -0.002201, VX: -0.020857, VY: -0.006216, VZ: -0.075076 
TIME: 6.239045, ROLL: -0.008537, PITCH: 0.044065, YAW: 0.000923, X: -0.004390, Y: -0.001308, ALTITUDE: -0.002201, VX: -0.020857, VY: -0.006216, VZ: -0.075076 
TIME: 6.291453, ROLL: -0.008537, PITCH: 0.044065, YAW: 0.000923, X: -0.004390, Y: -0.001308, ALTITUDE: -0.002201, VX: -0.020857, VY: -0.006216, VZ: -0.075076 
TIME: 6.344381, ROLL: -0.030588, PITCH: -0.001060, YAW: 0.007639, X: -0.009694, Y: -0.003111, ALTITUDE: -0.002201, VX: -0.022889, VY: -0.007780, VZ: -0.283176 
TIME: 6.397064, ROLL: -0.030588, PITCH: -0.001060, YAW: 0.007639, X: -0.009694, Y: -0.003111, ALTITUDE: -0.042665, VX: -0.022889, VY: -0.007780, VZ: -0.283176 
TIME: 6.449584, ROLL: -0.030588, PITCH: -0.001060, YAW: 0.007639, X: -0.009694, Y: -0.003111, ALTITUDE: -0.042665, VX: -0.022889, VY: -0.007780, VZ: -0.283176 
TIME: 6.501968, ROLL: -0.030588, PITCH: -0.001060, YAW: 0.007639, X: -0.009694, Y: -0.003111, ALTITUDE: -0.042665, VX: -0.022889, VY: -0.007780, VZ: -0.283176 
TIME: 6.554926, ROLL: -0.008374, PITCH: -0.032575, YAW: 0.001258, X: 0.004244, Y: -0.012560, ALTITUDE: -0.120960, VX: 0.072997, VY: -0.049487, VZ: -0.539433 
TIME: 6.607627, ROLL: -0.008374, PITCH: -0.032575, YAW: 0.001258, X: 0.004244, Y: -0.012560, ALTITUDE: -0.120960, VX: 0.072997, VY: -0.049487, VZ: -0.539433 
TIME: 6.660235, ROLL: -0.008374, PITCH: -0.032575, YAW: 0.001258, X: 0.004244, Y: -0.012560, ALTITUDE: -0.120960, VX: 0.072997, VY: -0.049487, VZ: -0.539433 
TIME: 6.712964, ROLL: -0.008374, PITCH: -0.032575, YAW: 0.001258, X: 0.004244, Y: -0.012560, ALTITUDE: -0.120960, VX: 0.072997, VY: -0.049487, VZ: -0.539433 
TIME: 6.765672, ROLL: 0.051512, PITCH: 0.028649, YAW: -0.002921, X: -0.004317, Y: 0.000171, ALTITUDE: -0.259030, VX: -0.040698, VY: 0.060520, VZ: -0.793629 
TIME: 6.818075, ROLL: 0.051512, PITCH: 0.028649, YAW: -0.002921, X: -0.004317, Y: 0.000171, ALTITUDE: -0.259030, VX: -0.040698, VY: 0.060520, VZ: -0.793629 
TIME: 6.871068, ROLL: 0.051512, PITCH: 0.028649, YAW: -0.002921, X: -0.004317, Y: 0.000171, ALTITUDE: -0.259030, VX: -0.040698, VY: 0.060520, VZ: -0.793629 
TIME: 6.923806, ROLL: 0.051512, PITCH: 0.028649, YAW: -0.002921, X: -0.004317, Y: 0.000171, ALTITUDE: -0.259030, VX: -0.040698, VY: 0.060520, VZ: -0.793629 
TIME: 6.976648, ROLL: 0.004398, PITCH: -0.007320, YAW: -0.003207, X: -0.013967, Y: 0.007999, ALTITUDE: -0.438385, VX: -0.044036, VY: 0.035723, VZ: -0.908040 
TIME: 7.029537, ROLL: 0.004398, PITCH: -0.007320, YAW: -0.003207, X: -0.013967, Y: 0.007999, ALTITUDE: -0.438385, VX: -0.044036, VY: 0.035723, VZ: -0.908040 
TIME: 7.082313, ROLL: 0.004398, PITCH: -0.007320, YAW: -0.003207, X: -0.013967, Y: 0.007999, ALTITUDE: -0.438385, VX: -0.044036, VY: 0.035723, VZ: -0.908040 
TIME: 7.135056, ROLL: 0.004398, PITCH: -0.007320, YAW: -0.003207, X: -0.013967, Y: 0.007999, ALTITUDE: -0.438385, VX: -0.044036, VY: 0.035723, VZ: -0.908040 
TIME: 7.187869, ROLL: -0.003870, PITCH: -0.012484, YAW: -0.000509, X: 0.001697, Y: 0.001273, ALTITUDE: -0.645756, VX: 0.074385, VY: -0.031940, VZ: -0.831406 
TIME: 7.240467, ROLL: -0.003870, PITCH: -0.012484, YAW: -0.000509, X: 0.001697, Y: 0.001273, ALTITUDE: -0.645756, VX: 0.074385, VY: -0.031940, VZ: -0.831406 
TIME: 7.293152, ROLL: -0.003870, PITCH: -0.012484, YAW: -0.000509, X: 0.001697, Y: 0.001273, ALTITUDE: -0.645756, VX: 0.074385, VY: -0.031940, VZ: -0.831406 
TIME: 7.345529, ROLL: -0.003870, PITCH: -0.012484, YAW: -0.000509, X: 0.001697, Y: 0.001273, ALTITUDE: -0.645756, VX: 0.074385, VY: -0.031940, VZ: -0.831406 
TIME: 7.398415, ROLL: 0.009654, PITCH: -0.000399, YAW: 0.001476, X: 0.028749, Y: -0.008094, ALTITUDE: -0.645756, VX: 0.119559, VY: -0.041401, VZ: -0.568040 
TIME: 7.451234, ROLL: 0.009654, PITCH: -0.000399, YAW: 0.001476, X: 0.028749, Y: -0.008094, ALTITUDE: -0.824428, VX: 0.119559, VY: -0.041401, VZ: -0.568040 
TIME: 7.504086, ROLL: 0.009654, PITCH: -0.000399, YAW: 0.001476, X: 0.028749, Y: -0.008094, ALTITUDE: -0.824428, VX: 0.119559, VY: -0.041401, VZ: -0.568040 
TIME: 7.556932, ROLL: 0.013052, PITCH: 0.021069, YAW: 0.006279, X: 0.028749, Y: -0.008094, ALTITUDE: -0.824428, VX: 0.119559, VY: -0.041401, VZ: -0.568040 
TIME: 7.609786, ROLL: 0.013052, PITCH: 0.021069, YAW: 0.006279, X: 0.060429, Y: -0.032275, ALTITUDE: -0.954827, VX: 0.168657, VY: -0.128731, VZ: -0.340809 
TIME: 7.662449, ROLL: 0.013052, PITCH: 0.021069, YAW: 0.006279, X: 0.060429, Y: -0.032275, ALTITUDE: -0.954827, VX: 0.168657, VY: -0.128731, VZ: -0.340809 
TIME: 7.715046, ROLL: 0.013052, PITCH: 0.021069, YAW: 0.006279, X: 0.060429, Y: -0.032275, ALTITUDE: -0.954827, VX: 0.168657, VY: -0.128731, VZ: -0.340809 
TIME: 7.767727, ROLL: 0.013052, PITCH: 0.021069, YAW: 0.006279, X: 0.060429, Y: -0.032275, ALTITUDE: -0.954827, VX: 0.168657, VY: -0.128731, VZ: -0.340809 
TIME: 7.820242, ROLL: 0.023857, PITCH: 0.042927, YAW: 0.010237, X: 0.092719, Y: -0.080669, ALTITUDE: -1.024158, VX: 0.144247, VY: -0.216185, VZ: -0.163083 
TIME: 7.873208, ROLL: 0.023857, PITCH: 0.042927, YAW: 0.010237, X: 0.092719, Y: -0.080669, ALTITUDE: -1.024158, VX: 0.144247, VY: -0.216185, VZ: -0.163083 
TIME: 7.925939, ROLL: 0.023857, PITCH: 0.042927, YAW: 0.010237, X: 0.092719, Y: -0.080669, ALTITUDE: -1.024158, VX: 0.144247, VY: -0.216185, VZ: -0.163083 
TIME: 7.978796, ROLL: 0.023857, PITCH: 0.042927, YAW: 0.010237, X: 0.092719, Y: -0.080669, ALTITUDE: -1.024158, VX: 0.144247, VY: -0.216185, VZ: -0.163083 
TIME: 8.031536, ROLL: 0.056999, PITCH: 0.032985, YAW: 0.000747, X: 0.110430, Y: -0.103202, ALTITUDE: -1.052834, VX: 0.089234, VY: -0.113528, VZ: -0.051910 
TIME: 8.084033, ROLL: 0.056999, PITCH: 0.032985, YAW: 0.000747, X: 0.110430, Y: -0.103202, ALTITUDE: -1.052834, VX: 0.089234, VY: -0.113528, VZ: -0.051910 
TIME: 8.136412, ROLL: 0.056999, PITCH: 0.032985, YAW: 0.000747, X: 0.110430, Y: -0.103202, ALTITUDE: -1.052834, VX: 0.089234, VY: -0.113528, VZ: -0.051910 
TIME: 8.188902, ROLL: 0.021564, PITCH: 0.029839, YAW: -0.018204, X: 0.110430, Y: -0.103202, ALTITUDE: -1.052834, VX: 0.089234, VY: -0.113528, VZ: -0.051910 
TIME: 8.241724, ROLL: 0.021564, PITCH: 0.029839, YAW: -0.018204, X: 0.125499, Y: -0.106532, ALTITUDE: -1.061242, VX: 0.071906, VY: -0.015893, VZ: 0.011712 
TIME: 8.293991, ROLL: 0.021564, PITCH: 0.029839, YAW: -0.018204, X: 0.125499, Y: -0.106532, ALTITUDE: -1.061242, VX: 0.071906, VY: -0.015893, VZ: 0.011712 
TIME: 8.346642, ROLL: 0.021564, PITCH: 0.029839, YAW: -0.018204, X: 0.125499, Y: -0.106532, ALTITUDE: -1.061242, VX: 0.071906, VY: -0.015893, VZ: 0.011712 
TIME: 8.399618, ROLL: 0.021564, PITCH: 0.029839, YAW: -0.018204, X: 0.125499, Y: -0.106532, ALTITUDE: -1.061242, VX: 0.071906, VY: -0.015893, VZ: 0.011712 
TIME: 8.452815, ROLL: 0.010686, PITCH: 0.033707, YAW: -0.031963, X: 0.136016, Y: -0.104698, ALTITUDE: -1.061242, VX: 0.045184, VY: 0.007878, VZ: 0.041440 
TIME: 8.505551, ROLL: 0.010686, PITCH: 0.033707, YAW: -0.031963, X: 0.136016, Y: -0.104698, ALTITUDE: -1.053446, VX: 0.045184, VY: 0.007878, VZ: 0.041440 
TIME: 8.558401, ROLL: 0.010686, PITCH: 0.033707, YAW: -0.031963, X: 0.136016, Y: -0.104698, ALTITUDE: -1.053446, VX: 0.045184, VY: 0.007878, VZ: 0.041440 
TIME: 8.611106, ROLL: 0.026240, PITCH: 0.040349, YAW: -0.037512, X: 0.136016, Y: -0.104698, ALTITUDE: -1.053446, VX: 0.045184, VY: 0.007878, VZ: 0.041440 
TIME: 8.663895, ROLL: 0.026240, PITCH: 0.040349, YAW: -0.037512, X: 0.140789, Y: -0.096336, ALTITUDE: -1.042394, VX: 0.025021, VY: 0.043831, VZ: 0.040045 
TIME: 8.716736, ROLL: 0.026240, PITCH: 0.040349, YAW: -0.037512, X: 0.140789, Y: -0.096336, ALTITUDE: -1.042394, VX: 0.025021, VY: 0.043831, VZ: 0.040045 
TIME: 8.769245, ROLL: 0.026240, PITCH: 0.040349, YAW: -0.037512, X: 0.140789, Y: -0.096336, ALTITUDE: -1.042394, VX: 0.025021, VY: 0.043831, VZ: 0.040045 
TIME: 8.822054, ROLL: 0.026240, PITCH: 0.040349, YAW: -0.037512, X: 0.140789, Y: -0.096336, ALTITUDE: -1.042394, VX: 0.025021, VY: 0.043831, VZ: 0.040045 
TIME: 8.874955, ROLL: 0.035121, PITCH: 0.044479, YAW: -0.034681, X: 0.135681, Y: -0.075498, ALTITUDE: -1.044843, VX: -0.023975, VY: 0.097806, VZ: 0.028582 
TIME: 8.927657, ROLL: 0.035121, PITCH: 0.044479, YAW: -0.034681, X: 0.135681, Y: -0.075498, ALTITUDE: -1.044843, VX: -0.023975, VY: 0.097806, VZ: 0.028582 
TIME: 8.980313, ROLL: 0.035121, PITCH: 0.044479, YAW: -0.034681, X: 0.135681, Y: -0.075498, ALTITUDE: -1.044843, VX: -0.023975, VY: 0.097806, VZ: 0.028582 
TIME: 9.033057, ROLL: 0.035121, PITCH: 0.044479, YAW: -0.034681, X: 0.135681, Y: -0.075498, ALTITUDE: -1.044843, VX: -0.023975, VY: 0.097806, VZ: 0.028582 
TIME: 9.085832, ROLL: 0.013864, PITCH: 0.040527, YAW: -0.023159, X: 0.124409, Y: -0.040753, ALTITUDE: -1.051653, VX: -0.051702, VY: 0.159362, VZ: 0.042012 
TIME: 9.138422, ROLL: 0.013864, PITCH: 0.040527, YAW: -0.023159, X: 0.124409, Y: -0.040753, ALTITUDE: -1.051653, VX: -0.051702, VY: 0.159362, VZ: 0.042012 
TIME: 9.191201, ROLL: 0.013864, PITCH: 0.040527, YAW: -0.023159, X: 0.124409, Y: -0.040753, ALTITUDE: -1.051653, VX: -0.051702, VY: 0.159362, VZ: 0.042012 
TIME: 9.243952, ROLL: 0.013864, PITCH: 0.040527, YAW: -0.023159, X: 0.124409, Y: -0.040753, ALTITUDE: -1.051653, VX: -0.051702, VY: 0.159362, VZ: 0.042012 
TIME: 9.296866, ROLL: -0.002767, PITCH: 0.029512, YAW: -0.012259, X: 0.106307, Y: -0.019245, ALTITUDE: -1.034878, VX: -0.089475, VY: 0.106314, VZ: 0.055034 
TIME: 9.349551, ROLL: -0.002767, PITCH: 0.029512, YAW: -0.012259, X: 0.106307, Y: -0.019245, ALTITUDE: -1.034878, VX: -0.089475, VY: 0.106314, VZ: 0.055034 
TIME: 9.402274, ROLL: -0.002767, PITCH: 0.029512, YAW: -0.012259, X: 0.106307, Y: -0.019245, ALTITUDE: -1.034878, VX: -0.089475, VY: 0.106314, VZ: 0.055034 
TIME: 9.455056, ROLL: -0.002767, PITCH: 0.029512, YAW: -0.012259, X: 0.106307, Y: -0.019245, ALTITUDE: -1.034878, VX: -0.089475, VY: 0.106314, VZ: 0.055034 
TIME: 9.507618, ROLL: -0.006603, PITCH: 0.022502, YAW: -0.005020, X: 0.081235, Y: -0.000254, ALTITUDE: -1.034878, VX: -0.107903, VY: 0.081726, VZ: 0.052119 
TIME: 9.560367, ROLL: -0.006603, PITCH: 0.022502, YAW: -0.005020, X: 0.081235, Y: -0.000254, ALTITUDE: -1.014994, VX: -0.107903, VY: 0.081726, VZ: 0.052119 
TIME: 9.613246, ROLL: -0.006603, PITCH: 0.022502, YAW: -0.005020, X: 0.081235, Y: -0.000254, ALTITUDE: -1.014994, VX: -0.107903, VY: 0.081726, VZ: 0.052119 
TIME: 9.666069, ROLL: -0.002887, PITCH: 0.016423, YAW: -0.002228, X: 0.081235, Y: -0.000254, ALTITUDE: -1.014994, VX: -0.107903, VY: 0.081726, VZ: 0.052119 
TIME: 9.718911, ROLL: -0.002887, PITCH: 0.016423, YAW: -0.002228, X: 0.060285, Y: 0.009876, ALTITUDE: -0.979551, VX: -0.109580, VY: 0.052990, VZ: 0.046517 
TIME: 9.771865, ROLL: -0.002887, PITCH: 0.016423, YAW: -0.002228, X: 0.060285, Y: 0.009876, ALTITUDE: -0.979551, VX: -0.109580, VY: 0.052990, VZ: 0.046517 
TIME: 9.824627, ROLL: -0.002887, PITCH: 0.016423, YAW: -0.002228, X: 0.060285, Y: 0.009876, ALTITUDE: -0.979551, VX: -0.109580, VY: 0.052990, VZ: 0.046517 
TIME: 9.877452, ROLL: 0.003143, PITCH: 0.003383, YAW: -0.002359, X: 0.060285, Y: 0.009876, ALTITUDE: -0.979551, VX: -0.109580, VY: 0.052990, VZ: 0.046517 
TIME: 9.930361, ROLL: 0.003143, PITCH: 0.003383, YAW: -0.002359, X: 0.037794, Y: 0.017748, ALTITUDE: -0.957836, VX: -0.108654, VY: 0.038030, VZ: 0.023549 
TIME: 9.983122, ROLL: 0.003143, PITCH: 0.003383, YAW: -0.002359, X: 0.037794, Y: 0.017748, ALTITUDE: -0.957836, VX: -0.108654, VY: 0.038030, VZ: 0.023549 
TIME: 10.035958, ROLL: 0.003143, PITCH: 0.003383, YAW: -0.002359, X: 0.037794, Y: 0.017748, ALTITUDE: -0.957836, VX: -0.108654, VY: 0.038030, VZ: 0.023549 
TIME: 10.088771, ROLL: 0.003143, PITCH: 0.003383, YAW: -0.002359, X: 0.037794, Y: 0.017748, ALTITUDE: -0.957836, VX: -0.108654, VY: 0.038030, VZ: 0.023549 
TIME: 10.141569, ROLL: -0.002990, PITCH: -0.003056, YAW: 0.000198, X: 0.025695, Y: 0.020779, ALTITUDE: -0.957836, VX: -0.052914, VY: 0.013256, VZ: -0.004185 
TIME: 10.194046, ROLL: -0.002990, PITCH: -0.003056, YAW: 0.000198, X: 0.025695, Y: 0.020779, ALTITUDE: -0.943997, VX: -0.052914, VY: 0.013256, VZ: -0.004185 
TIME: 10.246860, ROLL: -0.002990, PITCH: -0.003056, YAW: 0.000198, X: 0.025695, Y: 0.020779, ALTITUDE: -0.943997, VX: -0.052914, VY: 0.013256, VZ: -0.004185 
TIME: 10.299730, ROLL: -0.000221, PITCH: 0.008274, YAW: 0.002255, X: 0.025695, Y: 0.020779, ALTITUDE: -0.943997, VX: -0.052914, VY: 0.013256, VZ: -0.004185 
TIME: 10.353141, ROLL: -0.000221, PITCH: 0.008274, YAW: 0.002255, X: 0.018725, Y: 0.023829, ALTITUDE: -0.950501, VX: -0.035823, VY: 0.015674, VZ: -0.016085 
TIME: 10.401593, ROLL: -0.000221, PITCH: 0.008274, YAW: 0.002255, X: 0.018725, Y: 0.023829, ALTITUDE: -0.950501, VX: -0.035823, VY: 0.015674, VZ: -0.016085 
TIME: 10.451166, ROLL: -0.000221, PITCH: 0.008274, YAW: 0.002255, X: 0.018725, Y: 0.023829, ALTITUDE: -0.950501, VX: -0.035823, VY: 0.015674, VZ: -0.016085 
TIME: 10.497206, ROLL: -0.000221, PITCH: 0.008274, YAW: 0.002255, X: 0.018725, Y: 0.023829, ALTITUDE: -0.950501, VX: -0.035823, VY: 0.015674, VZ: -0.016085 
TIME: 10.546554, ROLL: -0.000330, PITCH: 0.014725, YAW: 0.004755, X: 0.009416, Y: 0.026840, ALTITUDE: -0.950501, VX: -0.042375, VY: 0.013706, VZ: 0.007050 
TIME: 10.599497, ROLL: -0.000330, PITCH: 0.014725, YAW: 0.004755, X: 0.009416, Y: 0.026840, ALTITUDE: -0.929702, VX: -0.042375, VY: 0.013706, VZ: 0.007050 
TIME: 10.652162, ROLL: -0.000330, PITCH: 0.014725, YAW: 0.004755, X: 0.009416, Y: 0.026840, ALTITUDE: -0.929702, VX: -0.042375, VY: 0.013706, VZ: 0.007050 
TIME: 10.704975, ROLL: -0.009814, PITCH: 0.004791, YAW: 0.003064, X: 0.009416, Y: 0.026840, ALTITUDE: -0.929702, VX: -0.042375, VY: 0.013706, VZ: 0.007050 
TIME: 10.757772, ROLL: -0.009814, PITCH: 0.004791, YAW: 0.003064, X: 0.000492, Y: 0.031311, ALTITUDE: -0.941675, VX: -0.048402, VY: 0.024252, VZ: -0.027184 
TIME: 10.810543, ROLL: -0.009814, PITCH: 0.004791, YAW: 0.003064, X: 0.000492, Y: 0.031311, ALTITUDE: -0.941675, VX: -0.048402, VY: 0.024252, VZ: -0.027184 
TIME: 10.863429, ROLL: -0.009814, PITCH: 0.004791, YAW: 0.003064, X: 0.000492, Y: 0.031311, ALTITUDE: -0.941675, VX: -0.048402, VY: 0.024252, VZ: -0.027184 
TIME: 10.916104, ROLL: -0.032755, PITCH: 0.003416, YAW: -0.007567, X: 0.000492, Y: 0.031311, ALTITUDE: -0.941675, VX: -0.048402, VY: 0.024252, VZ: -0.027184 
TIME: 10.968701, ROLL: -0.032755, PITCH: 0.003416, YAW: -0.007567, X: -0.007137, Y: 0.029500, ALTITUDE: -0.963498, VX: -0.035925, VY: -0.008528, VZ: -0.031728 
TIME: 11.021395, ROLL: -0.032755, PITCH: 0.003416, YAW: -0.007567, X: -0.007137, Y: 0.029500, ALTITUDE: -0.963498, VX: -0.035925, VY: -0.008528, VZ: -0.031728 
TIME: 11.044492, ROLL: -0.032755, PITCH: 0.003416, YAW: -0.007567, X: -0.007137, Y: 0.029500, ALTITUDE: -0.963498, VX: -0.035925, VY: -0.008528, VZ: -0.031728 
TIME: 11.055276, ROLL: -0.032755, PITCH: 0.003416, YAW: -0.007567, X: -0.007137, Y: 0.029500, ALTITUDE: -0.963498, VX: -0.035925, VY: -0.008528, VZ: -0.031728 
TIME: 11.069621, ROLL: -0.021228, PITCH: 0.012658, YAW: -0.020370, X: -0.010919, Y: 0.024640, ALTITUDE: -0.963498, VX: -0.028950, VY: -0.037210, VZ: -0.017149 
TIME: 11.078376, ROLL: -0.021228, PITCH: 0.012658, YAW: -0.020370, X: -0.010919, Y: 0.024640, ALTITUDE: -0.942297, VX: -0.028950, VY: -0.037210, VZ: -0.017149 
TIME: 11.100387, ROLL: -0.021228, PITCH: 0.012658, YAW: -0.020370, X: -0.010919, Y: 0.024640, ALTITUDE: -0.942297, VX: -0.028950, VY: -0.037210, VZ: -0.017149 
TIME: 11.154375, ROLL: 0.024909, PITCH: 0.003639, YAW: -0.019505, X: -0.010919, Y: 0.024640, ALTITUDE: -0.942297, VX: -0.028950, VY: -0.037210, VZ: -0.017149 
TIME: 11.170340, ROLL: 0.024909, PITCH: 0.003639, YAW: -0.019505, X: -0.014751, Y: 0.025306, ALTITUDE: -0.942297, VX: -0.039750, VY: 0.006905, VZ: -0.024751 
TIME: 11.183477, ROLL: 0.024909, PITCH: 0.003639, YAW: -0.019505, X: -0.014751, Y: 0.025306, ALTITUDE: -0.929001, VX: -0.039750, VY: 0.006905, VZ: -0.024751 
TIME: 11.233931, ROLL: 0.024909, PITCH: 0.003639, YAW: -0.019505, X: -0.014751, Y: 0.025306, ALTITUDE: -0.929001, VX: -0.039750, VY: 0.006905, VZ: -0.024751 
TIME: 11.287279, ROLL: 0.024909, PITCH: 0.003639, YAW: -0.019505, X: -0.014751, Y: 0.025306, ALTITUDE: -0.929001, VX: -0.039750, VY: 0.006905, VZ: -0.024751 
TIME: 11.340167, ROLL: 0.004816, PITCH: -0.013595, YAW: -0.015512, X: -0.014066, Y: 0.030146, ALTITUDE: -0.929001, VX: 0.004157, VY: 0.029377, VZ: -0.050743 
TIME: 11.392852, ROLL: 0.004816, PITCH: -0.013595, YAW: -0.015512, X: -0.014066, Y: 0.030146, ALTITUDE: -0.934406, VX: 0.004157, VY: 0.029377, VZ: -0.050743 
TIME: 11.445321, ROLL: 0.004816, PITCH: -0.013595, YAW: -0.015512, X: -0.014066, Y: 0.030146, ALTITUDE: -0.934406, VX: 0.004157, VY: 0.029377, VZ: -0.050743 
TIME: 11.498105, ROLL: 0.016312, PITCH: -0.000462, YAW: -0.002830, X: -0.014066, Y: 0.030146, ALTITUDE: -0.934406, VX: 0.004157, VY: 0.029377, VZ: -0.050743 
TIME: 11.551175, ROLL: 0.016312, PITCH: -0.000462, YAW: -0.002830, X: -0.008019, Y: 0.033486, ALTITUDE: -0.941086, VX: 0.032251, VY: 0.017811, VZ: -0.096569 
TIME: 11.603895, ROLL: 0.016312, PITCH: -0.000462, YAW: -0.002830, X: -0.008019, Y: 0.033486, ALTITUDE: -0.941086, VX: 0.032251, VY: 0.017811, VZ: -0.096569 
TIME: 11.656528, ROLL: 0.016312, PITCH: -0.000462, YAW: -0.002830, X: -0.008019, Y: 0.033486, ALTITUDE: -0.941086, VX: 0.032251, VY: 0.017811, VZ: -0.096569 
TIME: 11.709337, ROLL: 0.018308, PITCH: 0.003209, YAW: 0.011465, X: -0.008019, Y: 0.033486, ALTITUDE: -0.941086, VX: 0.032251, VY: 0.017811, VZ: -0.096569 
TIME: 11.762456, ROLL: 0.018308, PITCH: 0.003209, YAW: 0.011465, X: 0.000108, Y: 0.045945, ALTITUDE: -0.967464, VX: 0.038086, VY: 0.058387, VZ: -0.182574 
TIME: 11.816520, ROLL: 0.018308, PITCH: 0.003209, YAW: 0.011465, X: 0.000108, Y: 0.045945, ALTITUDE: -0.967464, VX: 0.038086, VY: 0.058387, VZ: -0.182574 
TIME: 11.869188, ROLL: 0.018308, PITCH: 0.003209, YAW: 0.011465, X: 0.000108, Y: 0.045945, ALTITUDE: -0.967464, VX: 0.038086, VY: 0.058387, VZ: -0.182574 
TIME: 11.921960, ROLL: -0.008834, PITCH: -0.008830, YAW: 0.015099, X: 0.000108, Y: 0.045945, ALTITUDE: -0.967464, VX: 0.038086, VY: 0.058387, VZ: -0.182574 
TIME: 11.974688, ROLL: -0.008834, PITCH: -0.008830, YAW: 0.015099, X: 0.010728, Y: 0.052779, ALTITUDE: -1.001152, VX: 0.050025, VY: 0.032192, VZ: -0.163568 
TIME: 12.028119, ROLL: -0.008834, PITCH: -0.008830, YAW: 0.015099, X: 0.010728, Y: 0.052779, ALTITUDE: -1.001152, VX: 0.050025, VY: 0.032192, VZ: -0.163568 
TIME: 12.082087, ROLL: -0.008834, PITCH: -0.008830, YAW: 0.015099, X: 0.010728, Y: 0.052779, ALTITUDE: -1.001152, VX: 0.050025, VY: 0.032192, VZ: -0.163568 
TIME: 12.134892, ROLL: -0.010158, PITCH: -0.013379, YAW: 0.016479, X: 0.010728, Y: 0.052779, ALTITUDE: -1.001152, VX: 0.050025, VY: 0.032192, VZ: -0.163568 
TIME: 12.187492, ROLL: -0.010158, PITCH: -0.013379, YAW: 0.016479, X: 0.028732, Y: 0.057281, ALTITUDE: -1.037467, VX: 0.084599, VY: 0.021153, VZ: -0.104765 
TIME: 12.241465, ROLL: -0.010158, PITCH: -0.013379, YAW: 0.016479, X: 0.028732, Y: 0.057281, ALTITUDE: -1.037467, VX: 0.084599, VY: 0.021153, VZ: -0.104765 
TIME: 12.294509, ROLL: -0.010158, PITCH: -0.013379, YAW: 0.016479, X: 0.028732, Y: 0.057281, ALTITUDE: -1.037467, VX: 0.084599, VY: 0.021153, VZ: -0.104765 
TIME: 12.347253, ROLL: -0.010158, PITCH: -0.013379, YAW: 0.016479, X: 0.028732, Y: 0.057281, ALTITUDE: -1.037467, VX: 0.084599, VY: 0.021153, VZ: -0.104765 
TIME: 12.399989, ROLL: -0.016061, PITCH: -0.012965, YAW: 0.016014, X: 0.057156, Y: 0.056218, ALTITUDE: -1.037467, VX: 0.121835, VY: -0.004554, VZ: -0.014526 
TIME: 12.452781, ROLL: -0.016061, PITCH: -0.012965, YAW: 0.016014, X: 0.057156, Y: 0.056218, ALTITUDE: -1.048244, VX: 0.121835, VY: -0.004554, VZ: -0.014526 
TIME: 12.506625, ROLL: -0.016061, PITCH: -0.012965, YAW: 0.016014, X: 0.057156, Y: 0.056218, ALTITUDE: -1.048244, VX: 0.121835, VY: -0.004554, VZ: -0.014526 
TIME: 12.560394, ROLL: 0.008197, PITCH: -0.021531, YAW: 0.016155, X: 0.057156, Y: 0.056218, ALTITUDE: -1.048244, VX: 0.121835, VY: -0.004554, VZ: -0.014526 
TIME: 12.613549, ROLL: 0.008197, PITCH: -0.021531, YAW: 0.016155, X: 0.087344, Y: 0.056100, ALTITUDE: -1.040622, VX: 0.152843, VY: -0.000599, VZ: 0.061091 
TIME: 12.666557, ROLL: 0.008197, PITCH: -0.021531, YAW: 0.016155, X: 0.087344, Y: 0.056100, ALTITUDE: -1.040622, VX: 0.152843, VY: -0.000599, VZ: 0.061091 
TIME: 12.719506, ROLL: 0.008197, PITCH: -0.021531, YAW: 0.016155, X: 0.087344, Y: 0.056100, ALTITUDE: -1.040622, VX: 0.152843, VY: -0.000599, VZ: 0.061091 
TIME: 12.772871, ROLL: -0.006538, PITCH: -0.036038, YAW: 0.014768, X: 0.087344, Y: 0.056100, ALTITUDE: -1.040622, VX: 0.152843, VY: -0.000599, VZ: 0.061091 
TIME: 12.825621, ROLL: -0.006538, PITCH: -0.036038, YAW: 0.014768, X: 0.139933, Y: 0.061852, ALTITUDE: -1.024541, VX: 0.248011, VY: 0.027128, VZ: 0.090157 
TIME: 12.878351, ROLL: -0.006538, PITCH: -0.036038, YAW: 0.014768, X: 0.139933, Y: 0.061852, ALTITUDE: -1.024541, VX: 0.248011, VY: 0.027128, VZ: 0.090157 
TIME: 12.930855, ROLL: -0.006538, PITCH: -0.036038, YAW: 0.014768, X: 0.139933, Y: 0.061852, ALTITUDE: -1.024541, VX: 0.248011, VY: 0.027128, VZ: 0.090157 
TIME: 12.983661, ROLL: -0.030508, PITCH: -0.035985, YAW: 0.001884, X: 0.139933, Y: 0.061852, ALTITUDE: -1.024541, VX: 0.248011, VY: 0.027128, VZ: 0.090157 
TIME: 13.036618, ROLL: -0.030508, PITCH: -0.035985, YAW: 0.001884, X: 0.214754, Y: 0.056363, ALTITUDE: -1.008995, VX: 0.360087, VY: -0.026417, VZ: 0.078732 
TIME: 13.089385, ROLL: -0.030508, PITCH: -0.035985, YAW: 0.001884, X: 0.214754, Y: 0.056363, ALTITUDE: -1.008995, VX: 0.360087, VY: -0.026417, VZ: 0.078732 
TIME: 13.142008, ROLL: -0.030508, PITCH: -0.035985, YAW: 0.001884, X: 0.214754, Y: 0.056363, ALTITUDE: -1.008995, VX: 0.360087, VY: -0.026417, VZ: 0.078732 
TIME: 13.194655, ROLL: -0.020116, PITCH: -0.045120, YAW: -0.010353, X: 0.214754, Y: 0.056363, ALTITUDE: -1.008995, VX: 0.360087, VY: -0.026417, VZ: 0.078732 
TIME: 13.248606, ROLL: -0.020116, PITCH: -0.045120, YAW: -0.010353, X: 0.300685, Y: 0.047204, ALTITUDE: -1.002286, VX: 0.411117, VY: -0.043818, VZ: 0.039875 
TIME: 13.302716, ROLL: -0.020116, PITCH: -0.045120, YAW: -0.010353, X: 0.300685, Y: 0.047204, ALTITUDE: -1.002286, VX: 0.411117, VY: -0.043818, VZ: 0.039875 
TIME: 13.355925, ROLL: -0.020116, PITCH: -0.045120, YAW: -0.010353, X: 0.300685, Y: 0.047204, ALTITUDE: -1.002286, VX: 0.411117, VY: -0.043818, VZ: 0.039875 
TIME: 13.408909, ROLL: -0.020116, PITCH: -0.045120, YAW: -0.010353, X: 0.300685, Y: 0.047204, ALTITUDE: -1.002286, VX: 0.411117, VY: -0.043818, VZ: 0.039875 
TIME: 13.461580, ROLL: 0.006945, PITCH: -0.040845, YAW: -0.020284, X: 0.407938, Y: 0.040636, ALTITUDE: -1.002286, VX: 0.451842, VY: -0.027674, VZ: 0.016691 
TIME: 13.514339, ROLL: 0.006945, PITCH: -0.040845, YAW: -0.020284, X: 0.407938, Y: 0.040636, ALTITUDE: -1.000306, VX: 0.451842, VY: -0.027674, VZ: 0.016691 
TIME: 13.567002, ROLL: 0.006945, PITCH: -0.040845, YAW: -0.020284, X: 0.407938, Y: 0.040636, ALTITUDE: -1.000306, VX: 0.451842, VY: -0.027674, VZ: 0.016691 
TIME: 13.621118, ROLL: -0.014677, PITCH: -0.045005, YAW: -0.040069, X: 0.407938, Y: 0.040636, ALTITUDE: -1.000306, VX: 0.451842, VY: -0.027674, VZ: 0.016691 
TIME: 13.647296, ROLL: -0.014677, PITCH: -0.045005, YAW: -0.040069, X: 0.504047, Y: 0.037600, ALTITUDE: -1.001316, VX: 0.512032, VY: -0.016171, VZ: -0.011717 
TIME: 13.700401, ROLL: -0.014677, PITCH: -0.045005, YAW: -0.040069, X: 0.504047, Y: 0.037600, ALTITUDE: -1.001316, VX: 0.512032, VY: -0.016171, VZ: -0.011717 
TIME: 13.752949, ROLL: -0.014677, PITCH: -0.045005, YAW: -0.040069, X: 0.504047, Y: 0.037600, ALTITUDE: -1.001316, VX: 0.512032, VY: -0.016171, VZ: -0.011717 
TIME: 13.805810, ROLL: -0.014677, PITCH: -0.045005, YAW: -0.040069, X: 0.504047, Y: 0.037600, ALTITUDE: -1.001316, VX: 0.512032, VY: -0.016171, VZ: -0.011717 
TIME: 13.858499, ROLL: -0.030655, PITCH: -0.039780, YAW: -0.060848, X: 0.608619, Y: 0.020541, ALTITUDE: -1.001316, VX: 0.548163, VY: -0.089422, VZ: -0.024357 
TIME: 13.913099, ROLL: -0.030655, PITCH: -0.039780, YAW: -0.060848, X: 0.608619, Y: 0.020541, ALTITUDE: -1.002203, VX: 0.548163, VY: -0.089422, VZ: -0.024357 
TIME: 13.928736, ROLL: -0.030655, PITCH: -0.039780, YAW: -0.060848, X: 0.608619, Y: 0.020541, ALTITUDE: -1.002203, VX: 0.548163, VY: -0.089422, VZ: -0.024357 
TIME: 13.955583, ROLL: 0.008895, PITCH: -0.009000, YAW: -0.049569, X: 0.608619, Y: 0.020541, ALTITUDE: -1.002203, VX: 0.548163, VY: -0.089422, VZ: -0.024357 
TIME: 14.008188, ROLL: 0.008895, PITCH: -0.009000, YAW: -0.049569, X: 0.692901, Y: 0.012065, ALTITUDE: -1.011435, VX: 0.581006, VY: -0.058430, VZ: -0.020054 
TIME: 14.061007, ROLL: 0.008895, PITCH: -0.009000, YAW: -0.049569, X: 0.692901, Y: 0.012065, ALTITUDE: -1.011435, VX: 0.581006, VY: -0.058430, VZ: -0.020054 
TIME: 14.113976, ROLL: 0.008895, PITCH: -0.009000, YAW: -0.049569, X: 0.692901, Y: 0.012065, ALTITUDE: -1.011435, VX: 0.581006, VY: -0.058430, VZ: -0.020054 
TIME: 14.166573, ROLL: 0.005661, PITCH: 0.007331, YAW: -0.019344, X: 0.692901, Y: 0.012065, ALTITUDE: -1.011435, VX: 0.581006, VY: -0.058430, VZ: -0.020054 
TIME: 14.219405, ROLL: 0.005661, PITCH: 0.007331, YAW: -0.019344, X: 0.803347, Y: 0.003473, ALTITUDE: -1.029815, VX: 0.524874, VY: -0.040831, VZ: -0.012981 
TIME: 14.272102, ROLL: 0.005661, PITCH: 0.007331, YAW: -0.019344, X: 0.803347, Y: 0.003473, ALTITUDE: -1.029815, VX: 0.524874, VY: -0.040831, VZ: -0.012981 
TIME: 14.325330, ROLL: 0.005661, PITCH: 0.007331, YAW: -0.019344, X: 0.803347, Y: 0.003473, ALTITUDE: -1.029815, VX: 0.524874, VY: -0.040831, VZ: -0.012981 
TIME: 14.378009, ROLL: 0.005661, PITCH: 0.007331, YAW: -0.019344, X: 0.803347, Y: 0.003473, ALTITUDE: -1.029815, VX: 0.524874, VY: -0.040831, VZ: -0.012981 
TIME: 14.430737, ROLL: 0.018460, PITCH: 0.020295, YAW: 0.010641, X: 0.912177, Y: -0.008805, ALTITUDE: -1.029815, VX: 0.456449, VY: -0.051497, VZ: 0.039336 
TIME: 14.483599, ROLL: 0.018460, PITCH: 0.020295, YAW: 0.010641, X: 0.912177, Y: -0.008805, ALTITUDE: -1.024312, VX: 0.456449, VY: -0.051497, VZ: 0.039336 
TIME: 14.536286, ROLL: 0.018460, PITCH: 0.020295, YAW: 0.010641, X: 0.912177, Y: -0.008805, ALTITUDE: -1.024312, VX: 0.456449, VY: -0.051497, VZ: 0.039336 
TIME: 14.589972, ROLL: 0.018460, PITCH: 0.020295, YAW: 0.010641, X: 0.912177, Y: -0.008805, ALTITUDE: -1.024312, VX: 0.456449, VY: -0.051497, VZ: 0.039336 
TIME: 14.642904, ROLL: 0.040454, PITCH: 0.021312, YAW: 0.027472, X: 0.983734, Y: -0.012338, ALTITUDE: -1.014131, VX: 0.385308, VY: -0.019028, VZ: 0.071542 
TIME: 14.695799, ROLL: 0.040454, PITCH: 0.021312, YAW: 0.027472, X: 0.983734, Y: -0.012338, ALTITUDE: -1.014131, VX: 0.385308, VY: -0.019028, VZ: 0.071542 
TIME: 14.748347, ROLL: 0.040454, PITCH: 0.021312, YAW: 0.027472, X: 0.983734, Y: -0.012338, ALTITUDE: -1.014131, VX: 0.385308, VY: -0.019028, VZ: 0.071542 
TIME: 14.801175, ROLL: 0.040454, PITCH: 0.021312, YAW: 0.027472, X: 0.983734, Y: -0.012338, ALTITUDE: -1.014131, VX: 0.385308, VY: -0.019028, VZ: 0.071542 
TIME: 14.840251, ROLL: 0.001047, PITCH: 0.013193, YAW: 0.034737, X: 1.060720, Y: -0.016086, ALTITUDE: -1.014131, VX: 0.346128, VY: -0.016850, VZ: 0.058080 
TIME: 14.854366, ROLL: 0.001047, PITCH: 0.013193, YAW: 0.034737, X: 1.060720, Y: -0.016086, ALTITUDE: -1.001582, VX: 0.346128, VY: -0.016850, VZ: 0.058080 
TIME: 14.862186, ROLL: 0.001047, PITCH: 0.013193, YAW: 0.034737, X: 1.060720, Y: -0.016086, ALTITUDE: -1.001582, VX: 0.346128, VY: -0.016850, VZ: 0.058080 
TIME: 14.882618, ROLL: -0.006987, PITCH: 0.025985, YAW: 0.044451, X: 1.060720, Y: -0.016086, ALTITUDE: -1.001582, VX: 0.346128, VY: -0.016850, VZ: 0.058080 
TIME: 14.935418, ROLL: -0.006987, PITCH: 0.025985, YAW: 0.044451, X: 1.082681, Y: -0.019066, ALTITUDE: -0.990756, VX: 0.305311, VY: -0.041428, VZ: 0.037756 
TIME: 14.988635, ROLL: -0.006987, PITCH: 0.025985, YAW: 0.044451, X: 1.082681, Y: -0.019066, ALTITUDE: -0.990756, VX: 0.305311, VY: -0.041428, VZ: 0.037756 
TIME: 15.007038, ROLL: -0.006987, PITCH: 0.025985, YAW: 0.044451, X: 1.082681, Y: -0.019066, ALTITUDE: -0.990756, VX: 0.305311, VY: -0.041428, VZ: 0.037756 
TIME: 15.024524, ROLL: -0.006987, PITCH: 0.025985, YAW: 0.044451, X: 1.082681, Y: -0.019066, ALTITUDE: -0.990756, VX: 0.305311, VY: -0.041428, VZ: 0.037756 
TIME: 15.037601, ROLL: -0.005491, PITCH: 0.049886, YAW: 0.048823, X: 1.107833, Y: -0.027361, ALTITUDE: -0.982408, VX: 0.201848, VY: -0.066566, VZ: 0.026353 
TIME: 15.055665, ROLL: -0.005491, PITCH: 0.049886, YAW: 0.048823, X: 1.107833, Y: -0.027361, ALTITUDE: -0.982408, VX: 0.201848, VY: -0.066566, VZ: 0.026353 
TIME: 15.066189, ROLL: -0.005491, PITCH: 0.049886, YAW: 0.048823, X: 1.107833, Y: -0.027361, ALTITUDE: -0.982408, VX: 0.201848, VY: -0.066566, VZ: 0.026353 
TIME: 15.113500, ROLL: -0.005491, PITCH: 0.049886, YAW: 0.048823, X: 1.107833, Y: -0.027361, ALTITUDE: -0.982408, VX: 0.201848, VY: -0.066566, VZ: 0.026353 
TIME: 15.166030, ROLL: 0.002027, PITCH: 0.059519, YAW: 0.050470, X: 1.116055, Y: -0.035463, ALTITUDE: -0.982408, VX: 0.062910, VY: -0.061993, VZ: -0.008347 
TIME: 15.218805, ROLL: 0.002027, PITCH: 0.059519, YAW: 0.050470, X: 1.116055, Y: -0.035463, ALTITUDE: -0.983985, VX: 0.062910, VY: -0.061993, VZ: -0.008347 
TIME: 15.272197, ROLL: 0.002027, PITCH: 0.059519, YAW: 0.050470, X: 1.116055, Y: -0.035463, ALTITUDE: -0.983985, VX: 0.062910, VY: -0.061993, VZ: -0.008347 
TIME: 15.326702, ROLL: 0.002027, PITCH: 0.059519, YAW: 0.050470, X: 1.116055, Y: -0.035463, ALTITUDE: -0.983985, VX: 0.062910, VY: -0.061993, VZ: -0.008347 
TIME: 15.380491, ROLL: 0.006107, PITCH: 0.047741, YAW: 0.056295, X: 1.113007, Y: -0.047267, ALTITUDE: -0.979795, VX: -0.015898, VY: -0.061576, VZ: -0.008562 
TIME: 15.433201, ROLL: 0.006107, PITCH: 0.047741, YAW: 0.056295, X: 1.113007, Y: -0.047267, ALTITUDE: -0.979795, VX: -0.015898, VY: -0.061576, VZ: -0.008562 
TIME: 15.485867, ROLL: 0.006107, PITCH: 0.047741, YAW: 0.056295, X: 1.113007, Y: -0.047267, ALTITUDE: -0.979795, VX: -0.015898, VY: -0.061576, VZ: -0.008562 
TIME: 15.538591, ROLL: 0.006107, PITCH: 0.047741, YAW: 0.056295, X: 1.113007, Y: -0.047267, ALTITUDE: -0.979795, VX: -0.015898, VY: -0.061576, VZ: -0.008562 
TIME: 15.591825, ROLL: -0.002306, PITCH: 0.043734, YAW: 0.063113, X: 1.100463, Y: -0.065050, ALTITUDE: -0.985940, VX: -0.059907, VY: -0.084924, VZ: -0.033242 
TIME: 15.645207, ROLL: -0.002306, PITCH: 0.043734, YAW: 0.063113, X: 1.100463, Y: -0.065050, ALTITUDE: -0.985940, VX: -0.059907, VY: -0.084924, VZ: -0.033242 
TIME: 15.697700, ROLL: -0.002306, PITCH: 0.043734, YAW: 0.063113, X: 1.100463, Y: -0.065050, ALTITUDE: -0.985940, VX: -0.059907, VY: -0.084924, VZ: -0.033242 
TIME: 15.750387, ROLL: -0.002306, PITCH: 0.043734, YAW: 0.063113, X: 1.100463, Y: -0.065050, ALTITUDE: -0.985940, VX: -0.059907, VY: -0.084924, VZ: -0.033242 
TIME: 15.803216, ROLL: 0.028052, PITCH: 0.034911, YAW: 0.070134, X: 1.080436, Y: -0.081020, ALTITUDE: -0.981360, VX: -0.094619, VY: -0.075450, VZ: -0.034156 
TIME: 15.857123, ROLL: 0.028052, PITCH: 0.034911, YAW: 0.070134, X: 1.080436, Y: -0.081020, ALTITUDE: -0.981360, VX: -0.094619, VY: -0.075450, VZ: -0.034156 
TIME: 15.909742, ROLL: 0.028052, PITCH: 0.034911, YAW: 0.070134, X: 1.080436, Y: -0.081020, ALTITUDE: -0.981360, VX: -0.094619, VY: -0.075450, VZ: -0.034156 
TIME: 15.962510, ROLL: 0.028052, PITCH: 0.034911, YAW: 0.070134, X: 1.080436, Y: -0.081020, ALTITUDE: -0.981360, VX: -0.094619, VY: -0.075450, VZ: -0.034156 
TIME: 16.015289, ROLL: 0.010716, PITCH: 0.044753, YAW: 0.080092, X: 1.054646, Y: -0.085109, ALTITUDE: -0.984232, VX: -0.120212, VY: -0.019062, VZ: -0.032386 
TIME: 16.068501, ROLL: 0.010716, PITCH: 0.044753, YAW: 0.080092, X: 1.054646, Y: -0.085109, ALTITUDE: -0.984232, VX: -0.120212, VY: -0.019062, VZ: -0.032386 
TIME: 16.121874, ROLL: 0.010716, PITCH: 0.044753, YAW: 0.080092, X: 1.054646, Y: -0.085109, ALTITUDE: -0.984232, VX: -0.120212, VY: -0.019062, VZ: -0.032386 
TIME: 16.175451, ROLL: 0.010716, PITCH: 0.044753, YAW: 0.080092, X: 1.054646, Y: -0.085109, ALTITUDE: -0.984232, VX: -0.120212, VY: -0.019062, VZ: -0.032386 
TIME: 16.229166, ROLL: 0.031892, PITCH: 0.044367, YAW: 0.083204, X: 1.054646, Y: -0.085109, ALTITUDE: -0.984232, VX: -0.120212, VY: -0.019062, VZ: -0.032386 
TIME: 16.282637, ROLL: 0.031892, PITCH: 0.044367, YAW: 0.083204, X: 1.009292, Y: -0.084536, ALTITUDE: -0.991665, VX: -0.180684, VY: 0.002282, VZ: -0.067628 
TIME: 16.335859, ROLL: 0.031892, PITCH: 0.044367, YAW: 0.083204, X: 1.009292, Y: -0.084536, ALTITUDE: -0.991665, VX: -0.180684, VY: 0.002282, VZ: -0.067628 
TIME: 16.389347, ROLL: 0.031892, PITCH: 0.044367, YAW: 0.083204, X: 1.009292, Y: -0.084536, ALTITUDE: -0.991665, VX: -0.180684, VY: 0.002282, VZ: -0.067628 
TIME: 16.442423, ROLL: 0.021033, PITCH: 0.051199, YAW: 0.090662, X: 0.967487, Y: -0.075328, ALTITUDE: -0.995904, VX: -0.237825, VY: 0.052387, VZ: -0.023324 
TIME: 16.495653, ROLL: 0.021033, PITCH: 0.051199, YAW: 0.090662, X: 0.967487, Y: -0.075328, ALTITUDE: -0.995904, VX: -0.237825, VY: 0.052387, VZ: -0.023324 
TIME: 16.548491, ROLL: 0.021033, PITCH: 0.051199, YAW: 0.090662, X: 0.967487, Y: -0.075328, ALTITUDE: -0.995904, VX: -0.237825, VY: 0.052387, VZ: -0.023324 
TIME: 16.601732, ROLL: -0.001947, PITCH: 0.074330, YAW: 0.091627, X: 0.967487, Y: -0.075328, ALTITUDE: -0.995904, VX: -0.237825, VY: 0.052387, VZ: -0.023324 
TIME: 16.655046, ROLL: -0.001947, PITCH: 0.074330, YAW: 0.091627, X: 0.899717, Y: -0.064965, ALTITUDE: -0.987675, VX: -0.321915, VY: 0.049222, VZ: -0.010383 
TIME: 16.708338, ROLL: -0.001947, PITCH: 0.074330, YAW: 0.091627, X: 0.899717, Y: -0.064965, ALTITUDE: -0.987675, VX: -0.321915, VY: 0.049222, VZ: -0.010383 
TIME: 16.761509, ROLL: -0.001947, PITCH: 0.074330, YAW: 0.091627, X: 0.899717, Y: -0.064965, ALTITUDE: -0.987675, VX: -0.321915, VY: 0.049222, VZ: -0.010383 
TIME: 16.815268, ROLL: -0.001947, PITCH: 0.074330, YAW: 0.091627, X: 0.899717, Y: -0.064965, ALTITUDE: -0.987675, VX: -0.321915, VY: 0.049222, VZ: -0.010383 
TIME: 16.868519, ROLL: -0.012464, PITCH: 0.076594, YAW: 0.088558, X: 0.803621, Y: -0.066372, ALTITUDE: -1.012870, VX: -0.443102, VY: -0.006485, VZ: -0.050195 
TIME: 16.922100, ROLL: -0.012464, PITCH: 0.076594, YAW: 0.088558, X: 0.803621, Y: -0.066372, ALTITUDE: -1.012870, VX: -0.443102, VY: -0.006485, VZ: -0.050195 
TIME: 16.975208, ROLL: -0.012464, PITCH: 0.076594, YAW: 0.088558, X: 0.803621, Y: -0.066372, ALTITUDE: -1.012870, VX: -0.443102, VY: -0.006485, VZ: -0.050195 
TIME: 17.028540, ROLL: -0.012464, PITCH: 0.076594, YAW: 0.088558, X: 0.803621, Y: -0.066372, ALTITUDE: -1.012870, VX: -0.443102, VY: -0.006485, VZ: -0.050195 
TIME: 17.078169, ROLL: 0.026993, PITCH: 0.060366, YAW: 0.057565, X: 0.686825, Y: -0.066820, ALTITUDE: -1.040337, VX: -0.535710, VY: -0.002056, VZ: -0.003165 
TIME: 17.129213, ROLL: 0.026993, PITCH: 0.060366, YAW: 0.057565, X: 0.686825, Y: -0.066820, ALTITUDE: -1.040337, VX: -0.535710, VY: -0.002056, VZ: -0.003165 
TIME: 17.182007, ROLL: 0.026993, PITCH: 0.060366, YAW: 0.057565, X: 0.686825, Y: -0.066820, ALTITUDE: -1.040337, VX: -0.535710, VY: -0.002056, VZ: -0.003165 
TIME: 17.235708, ROLL: 0.026993, PITCH: 0.060366, YAW: 0.057565, X: 0.686825, Y: -0.066820, ALTITUDE: -1.040337, VX: -0.535710, VY: -0.002056, VZ: -0.003165 
TIME: 17.288555, ROLL: 0.044185, PITCH: 0.033630, YAW: 0.017541, X: 0.548684, Y: -0.051317, ALTITUDE: -1.040337, VX: -0.624113, VY: 0.070043, VZ: 0.076627 
TIME: 17.341679, ROLL: 0.044185, PITCH: 0.033630, YAW: 0.017541, X: 0.548684, Y: -0.051317, ALTITUDE: -1.044405, VX: -0.624113, VY: 0.070043, VZ: 0.076627 
TIME: 17.394403, ROLL: 0.044185, PITCH: 0.033630, YAW: 0.017541, X: 0.548684, Y: -0.051317, ALTITUDE: -1.044405, VX: -0.624113, VY: 0.070043, VZ: 0.076627 
TIME: 17.447596, ROLL: 0.044185, PITCH: 0.033630, YAW: 0.017541, X: 0.548684, Y: -0.051317, ALTITUDE: -1.044405, VX: -0.624113, VY: 0.070043, VZ: 0.076627 
TIME: 17.500338, ROLL: 0.006503, PITCH: -0.011320, YAW: 0.004426, X: 0.442098, Y: -0.025436, ALTITUDE: -1.026794, VX: -0.563096, VY: 0.136732, VZ: 0.120020 
TIME: 17.552895, ROLL: 0.006503, PITCH: -0.011320, YAW: 0.004426, X: 0.442098, Y: -0.025436, ALTITUDE: -1.026794, VX: -0.563096, VY: 0.136732, VZ: 0.120020 
TIME: 17.605112, ROLL: 0.006503, PITCH: -0.011320, YAW: 0.004426, X: 0.442098, Y: -0.025436, ALTITUDE: -1.026794, VX: -0.563096, VY: 0.136732, VZ: 0.120020 
TIME: 17.659019, ROLL: 0.006503, PITCH: -0.011320, YAW: 0.004426, X: 0.442098, Y: -0.025436, ALTITUDE: -1.026794, VX: -0.563096, VY: 0.136732, VZ: 0.120020 
TIME: 17.670416, ROLL: -0.009211, PITCH: -0.037967, YAW: -0.004349, X: 0.354297, Y: -0.012255, ALTITUDE: -1.026794, VX: -0.442402, VY: 0.066413, VZ: 0.037885 
TIME: 17.688574, ROLL: -0.009211, PITCH: -0.037967, YAW: -0.004349, X: 0.354297, Y: -0.012255, ALTITUDE: -1.024058, VX: -0.442402, VY: 0.066413, VZ: 0.037885 
TIME: 17.697886, ROLL: -0.009211, PITCH: -0.037967, YAW: -0.004349, X: 0.354297, Y: -0.012255, ALTITUDE: -1.024058, VX: -0.442402, VY: 0.066413, VZ: 0.037885 
TIME: 17.713587, ROLL: -0.009211, PITCH: -0.037967, YAW: -0.004349, X: 0.354297, Y: -0.012255, ALTITUDE: -1.024058, VX: -0.442402, VY: 0.066413, VZ: 0.037885 
TIME: 17.723068, ROLL: 0.015063, PITCH: -0.031107, YAW: -0.021723, X: 0.337689, Y: -0.008240, ALTITUDE: -1.013098, VX: -0.335744, VY: 0.081175, VZ: 0.046681 
TIME: 17.736467, ROLL: 0.015063, PITCH: -0.031107, YAW: -0.021723, X: 0.337689, Y: -0.008240, ALTITUDE: -1.013098, VX: -0.335744, VY: 0.081175, VZ: 0.046681 
TIME: 17.749752, ROLL: 0.015063, PITCH: -0.031107, YAW: -0.021723, X: 0.337689, Y: -0.008240, ALTITUDE: -1.013098, VX: -0.335744, VY: 0.081175, VZ: 0.046681 
TIME: 17.766338, ROLL: 0.015063, PITCH: -0.031107, YAW: -0.021723, X: 0.337689, Y: -0.008240, ALTITUDE: -1.013098, VX: -0.335744, VY: 0.081175, VZ: 0.046681 
TIME: 17.775797, ROLL: 0.005965, PITCH: -0.040290, YAW: -0.039320, X: 0.325920, Y: -0.003809, ALTITUDE: -0.995391, VX: -0.220828, VY: 0.083129, VZ: 0.061299 
TIME: 17.798429, ROLL: 0.005965, PITCH: -0.040290, YAW: -0.039320, X: 0.325920, Y: -0.003809, ALTITUDE: -0.995391, VX: -0.220828, VY: 0.083129, VZ: 0.061299 
TIME: 17.851084, ROLL: 0.005965, PITCH: -0.040290, YAW: -0.039320, X: 0.325920, Y: -0.003809, ALTITUDE: -0.995391, VX: -0.220828, VY: 0.083129, VZ: 0.061299 
TIME: 17.904198, ROLL: 0.005965, PITCH: -0.040290, YAW: -0.039320, X: 0.325920, Y: -0.003809, ALTITUDE: -0.995391, VX: -0.220828, VY: 0.083129, VZ: 0.061299 
TIME: 17.957106, ROLL: 0.026365, PITCH: -0.041288, YAW: -0.043818, X: 0.317005, Y: 0.015735, ALTITUDE: -0.995391, VX: -0.048739, VY: 0.106846, VZ: 0.031374 
TIME: 18.010056, ROLL: 0.026365, PITCH: -0.041288, YAW: -0.043818, X: 0.317005, Y: 0.015735, ALTITUDE: -0.980362, VX: -0.048739, VY: 0.106846, VZ: 0.031374 
TIME: 18.062933, ROLL: 0.026365, PITCH: -0.041288, YAW: -0.043818, X: 0.317005, Y: 0.015735, ALTITUDE: -0.980362, VX: -0.048739, VY: 0.106846, VZ: 0.031374 
TIME: 18.116480, ROLL: 0.026365, PITCH: -0.041288, YAW: -0.043818, X: 0.317005, Y: 0.015735, ALTITUDE: -0.980362, VX: -0.048739, VY: 0.106846, VZ: 0.031374 
TIME: 18.169310, ROLL: 0.004698, PITCH: -0.009633, YAW: -0.043177, X: 0.320306, Y: 0.030933, ALTITUDE: -0.977554, VX: 0.017358, VY: 0.079925, VZ: 0.001112 
TIME: 18.222040, ROLL: 0.004698, PITCH: -0.009633, YAW: -0.043177, X: 0.320306, Y: 0.030933, ALTITUDE: -0.977554, VX: 0.017358, VY: 0.079925, VZ: 0.001112 
TIME: 18.274597, ROLL: 0.004698, PITCH: -0.009633, YAW: -0.043177, X: 0.320306, Y: 0.030933, ALTITUDE: -0.977554, VX: 0.017358, VY: 0.079925, VZ: 0.001112 
TIME: 18.327471, ROLL: 0.004698, PITCH: -0.009633, YAW: -0.043177, X: 0.320306, Y: 0.030933, ALTITUDE: -0.977554, VX: 0.017358, VY: 0.079925, VZ: 0.001112 
TIME: 18.369852, ROLL: -0.012073, PITCH: 0.015533, YAW: -0.045728, X: 0.323225, Y: 0.046507, ALTITUDE: -0.977554, VX: 0.013633, VY: 0.072733, VZ: -0.013846 
TIME: 18.384428, ROLL: -0.012073, PITCH: 0.015533, YAW: -0.045728, X: 0.323225, Y: 0.046507, ALTITUDE: -0.968683, VX: 0.013633, VY: 0.072733, VZ: -0.013846 
TIME: 18.398464, ROLL: -0.012073, PITCH: 0.015533, YAW: -0.045728, X: 0.323225, Y: 0.046507, ALTITUDE: -0.968683, VX: 0.013633, VY: 0.072733, VZ: -0.013846 
TIME: 18.415501, ROLL: -0.012073, PITCH: 0.015533, YAW: -0.045728, X: 0.323225, Y: 0.046507, ALTITUDE: -0.968683, VX: 0.013633, VY: 0.072733, VZ: -0.013846 
TIME: 18.425922, ROLL: -0.049741, PITCH: 0.020433, YAW: -0.061968, X: 0.322987, Y: 0.047686, ALTITUDE: -0.967912, VX: -0.003928, VY: 0.019516, VZ: -0.031925 
TIME: 18.442303, ROLL: -0.049741, PITCH: 0.020433, YAW: -0.061968, X: 0.322987, Y: 0.047686, ALTITUDE: -0.967912, VX: -0.003928, VY: 0.019516, VZ: -0.031925 
TIME: 18.453394, ROLL: -0.049741, PITCH: 0.020433, YAW: -0.061968, X: 0.322987, Y: 0.047686, ALTITUDE: -0.967912, VX: -0.003928, VY: 0.019516, VZ: -0.031925 
TIME: 18.468683, ROLL: -0.049741, PITCH: 0.020433, YAW: -0.061968, X: 0.322987, Y: 0.047686, ALTITUDE: -0.967912, VX: -0.003928, VY: 0.019516, VZ: -0.031925 
TIME: 18.477879, ROLL: -0.038934, PITCH: 0.014840, YAW: -0.083103, X: 0.321615, Y: 0.046411, ALTITUDE: -0.967912, VX: -0.025782, VY: -0.023959, VZ: -0.026500 
TIME: 18.490923, ROLL: -0.038934, PITCH: 0.014840, YAW: -0.083103, X: 0.321615, Y: 0.046411, ALTITUDE: -0.971456, VX: -0.025782, VY: -0.023959, VZ: -0.026500 
TIME: 18.501450, ROLL: -0.038934, PITCH: 0.014840, YAW: -0.083103, X: 0.321615, Y: 0.046411, ALTITUDE: -0.971456, VX: -0.025782, VY: -0.023959, VZ: -0.026500 
TIME: 18.517935, ROLL: -0.038934, PITCH: 0.014840, YAW: -0.083103, X: 0.321615, Y: 0.046411, ALTITUDE: -0.971456, VX: -0.025782, VY: -0.023959, VZ: -0.026500 
TIME: 18.550055, ROLL: -0.021049, PITCH: -0.005748, YAW: -0.099575, X: 0.321615, Y: 0.046411, ALTITUDE: -0.971456, VX: -0.025782, VY: -0.023959, VZ: -0.026500 
TIME: 18.603403, ROLL: -0.021049, PITCH: -0.005748, YAW: -0.099575, X: 0.321169, Y: 0.044834, ALTITUDE: -0.973386, VX: -0.005476, VY: -0.019358, VZ: -0.007838 
TIME: 18.656191, ROLL: -0.021049, PITCH: -0.005748, YAW: -0.099575, X: 0.321169, Y: 0.044834, ALTITUDE: -0.973386, VX: -0.005476, VY: -0.019358, VZ: -0.007838 
