TIME: 0.000225, ROLL: 0.000000, PITCH: 0.000000, YAW: 0.000000, X: 0.000000, Y: 0.000000, ALTITUDE: 0.000000, VX: 0.000000, VY: 0.000000, VZ: 0.000000 
TIME: 0.054354, ROLL: 0.010835, PITCH: 0.024066, YAW: 0.000506, X: 0.000000, Y: 0.000000, ALTITUDE: 0.000000, VX: 0.000000, VY: 0.000000, VZ: 0.000000 
TIME: 0.107435, ROLL: 0.010835, PITCH: 0.024066, YAW: 0.000506, X: 0.000000, Y: 0.000000, ALTITUDE: -0.000000, VX: 0.000000, VY: 0.000000, VZ: 0.000000 
TIME: 0.160185, ROLL: 0.010835, PITCH: 0.024066, YAW: 0.000506, X: 0.000000, Y: 0.000000, ALTITUDE: -0.000000, VX: 0.000000, VY: 0.000000, VZ: 0.000000 
TIME: 0.213390, ROLL: 0.010668, PITCH: 0.024260, YAW: 0.000510, X: 0.000000, Y: 0.000000, ALTITUDE: -0.000000, VX: 0.000000, VY: 0.000000, VZ: 0.000000 
TIME: 0.266212, ROLL: 0.010668, PITCH: 0.024260, YAW: 0.000510, X: 0.000000, Y: 0.000000, ALTITUDE: -0.000000, VX: 0.000000, VY: 0.000000, VZ: 0.000000 
TIME: 0.319060, ROLL: 0.010668, PITCH: 0.024260, YAW: 0.000510, X: 0.000000, Y: 0.000000, ALTITUDE: -0.000000, VX: 0.000000, VY: 0.000000, VZ: 0.000000 
TIME: 0.371611, ROLL: 0.010668, PITCH: 0.024260, YAW: 0.000510, X: 0.000000, Y: 0.000000, ALTITUDE: -0.000000, VX: 0.000000, VY: 0.000000, VZ: 0.000000 
TIME: 0.424285, ROLL: 0.010772, PITCH: 0.024213, YAW: 0.000519, X: 0.000000, Y: 0.000000, ALTITUDE: -0.000000, VX: 0.000000, VY: 0.000000, VZ: 0.000000 
TIME: 0.477035, ROLL: 0.010772, PITCH: 0.024213, YAW: 0.000519, X: 0.000000, Y: 0.000000, ALTITUDE: -0.000000, VX: 0.000000, VY: 0.000000, VZ: 0.000000 
TIME: 0.529617, ROLL: 0.010772, PITCH: 0.024213, YAW: 0.000519, X: 0.000000, Y: 0.000000, ALTITUDE: -0.000000, VX: 0.000000, VY: 0.000000, VZ: 0.000000 
TIME: 0.582305, ROLL: 0.010772, PITCH: 0.024213, YAW: 0.000519, X: 0.000000, Y: 0.000000, ALTITUDE: -0.000000, VX: 0.000000, VY: 0.000000, VZ: 0.000000 
TIME: 0.635324, ROLL: 0.010909, PITCH: 0.024206, YAW: 0.000517, X: 0.000000, Y: 0.000000, ALTITUDE: -0.000000, VX: 0.000000, VY: 0.000000, VZ: 0.000000 
TIME: 0.688295, ROLL: 0.010909, PITCH: 0.024206, YAW: 0.000517, X: 0.000000, Y: 0.000000, ALTITUDE: -0.000000, VX: 0.000000, VY: 0.000000, VZ: 0.000000 
TIME: 0.740958, ROLL: 0.010909, PITCH: 0.024206, YAW: 0.000517, X: 0.000000, Y: 0.000000, ALTITUDE: -0.000000, VX: 0.000000, VY: 0.000000, VZ: 0.000000 
TIME: 0.793277, ROLL: 0.010909, PITCH: 0.024206, YAW: 0.000517, X: 0.000000, Y: 0.000000, ALTITUDE: -0.000000, VX: 0.000000, VY: 0.000000, VZ: 0.000000 
TIME: 0.845904, ROLL: 0.010896, PITCH: 0.024527, YAW: 0.000493, X: 0.000000, Y: 0.000000, ALTITUDE: -0.000000, VX: 0.000000, VY: 0.000000, VZ: 0.000000 
TIME: 0.898682, ROLL: 0.010896, PITCH: 0.024527, YAW: 0.000493, X: 0.000000, Y: 0.000000, ALTITUDE: -0.000000, VX: 0.000000, VY: 0.000000, VZ: 0.000000 
TIME: 0.951282, ROLL: 0.010896, PITCH: 0.024527, YAW: 0.000493, X: 0.000000, Y: 0.000000, ALTITUDE: -0.000000, VX: 0.000000, VY: 0.000000, VZ: 0.000000 
TIME: 1.003719, ROLL: 0.010896, PITCH: 0.024527, YAW: 0.000493, X: 0.000000, Y: 0.000000, ALTITUDE: -0.000000, VX: 0.000000, VY: 0.000000, VZ: 0.000000 
TIME: 1.056532, ROLL: 0.010896, PITCH: 0.024527, YAW: 0.000493, X: 0.000000, Y: 0.000000, ALTITUDE: -0.000000, VX: 0.000000, VY: 0.000000, VZ: 0.000000 
TIME: 1.109399, ROLL: 0.010963, PITCH: 0.024572, YAW: 0.000514, X: 0.000000, Y: 0.000000, ALTITUDE: -0.000000, VX: 0.000000, VY: 0.000000, VZ: 0.000000 
TIME: 1.162053, ROLL: 0.010963, PITCH: 0.024572, YAW: 0.000514, X: 0.000000, Y: 0.000000, ALTITUDE: -0.000000, VX: 0.000000, VY: 0.000000, VZ: 0.000000 
TIME: 1.214577, ROLL: 0.010963, PITCH: 0.024572, YAW: 0.000514, X: 0.000000, Y: 0.000000, ALTITUDE: -0.000000, VX: 0.000000, VY: 0.000000, VZ: 0.000000 
TIME: 1.267476, ROLL: 0.010946, PITCH: 0.024616, YAW: 0.000508, X: 0.000000, Y: 0.000000, ALTITUDE: -0.000000, VX: 0.000000, VY: 0.000000, VZ: 0.000000 
TIME: 1.320296, ROLL: 0.010946, PITCH: 0.024616, YAW: 0.000508, X: 0.000000, Y: 0.000000, ALTITUDE: -0.000000, VX: 0.000000, VY: 0.000000, VZ: 0.000000 
TIME: 1.372796, ROLL: 0.010946, PITCH: 0.024616, YAW: 0.000508, X: 0.000000, Y: 0.000000, ALTITUDE: -0.000000, VX: 0.000000, VY: 0.000000, VZ: 0.000000 
TIME: 1.425419, ROLL: 0.010946, PITCH: 0.024616, YAW: 0.000508, X: 0.000000, Y: 0.000000, ALTITUDE: -0.000000, VX: 0.000000, VY: 0.000000, VZ: 0.000000 
TIME: 1.477955, ROLL: 0.010911, PITCH: 0.024550, YAW: 0.000474, X: 0.000000, Y: 0.000000, ALTITUDE: -0.000000, VX: 0.000000, VY: 0.000000, VZ: 0.000000 
TIME: 1.530373, ROLL: 0.010911, PITCH: 0.024550, YAW: 0.000474, X: 0.000000, Y: 0.000000, ALTITUDE: -0.000000, VX: 0.000000, VY: 0.000000, VZ: 0.000000 
TIME: 1.582650, ROLL: 0.010911, PITCH: 0.024550, YAW: 0.000474, X: 0.000000, Y: 0.000000, ALTITUDE: -0.000000, VX: 0.000000, VY: 0.000000, VZ: 0.000000 
TIME: 1.635262, ROLL: 0.010911, PITCH: 0.024550, YAW: 0.000474, X: 0.000000, Y: 0.000000, ALTITUDE: -0.000000, VX: 0.000000, VY: 0.000000, VZ: 0.000000 
TIME: 1.687613, ROLL: 0.011054, PITCH: 0.024568, YAW: 0.000468, X: 0.000000, Y: 0.000000, ALTITUDE: -0.000000, VX: 0.000000, VY: 0.000000, VZ: 0.000000 
TIME: 1.740360, ROLL: 0.011054, PITCH: 0.024568, YAW: 0.000468, X: 0.000000, Y: 0.000000, ALTITUDE: -0.000000, VX: 0.000000, VY: 0.000000, VZ: 0.000000 
TIME: 1.792972, ROLL: 0.011054, PITCH: 0.024568, YAW: 0.000468, X: 0.000000, Y: 0.000000, ALTITUDE: -0.000000, VX: 0.000000, VY: 0.000000, VZ: 0.000000 
TIME: 1.845580, ROLL: 0.011054, PITCH: 0.024568, YAW: 0.000468, X: 0.000000, Y: 0.000000, ALTITUDE: -0.000000, VX: 0.000000, VY: 0.000000, VZ: 0.000000 
TIME: 1.897920, ROLL: 0.011054, PITCH: 0.024568, YAW: 0.000468, X: 0.000000, Y: 0.000000, ALTITUDE: -0.000000, VX: 0.000000, VY: 0.000000, VZ: 0.000000 
TIME: 1.949805, ROLL: 0.010996, PITCH: 0.024550, YAW: 0.000487, X: 0.000000, Y: 0.000000, ALTITUDE: -0.000000, VX: 0.000000, VY: 0.000000, VZ: 0.000000 
TIME: 2.001981, ROLL: 0.010996, PITCH: 0.024550, YAW: 0.000487, X: 0.000000, Y: 0.000000, ALTITUDE: -0.000000, VX: 0.000000, VY: 0.000000, VZ: 0.000000 
TIME: 2.054365, ROLL: 0.010996, PITCH: 0.024550, YAW: 0.000487, X: 0.000000, Y: 0.000000, ALTITUDE: -0.000000, VX: 0.000000, VY: 0.000000, VZ: 0.000000 
TIME: 2.107101, ROLL: 0.010996, PITCH: 0.024550, YAW: 0.000487, X: 0.000000, Y: 0.000000, ALTITUDE: -0.000000, VX: 0.000000, VY: 0.000000, VZ: 0.000000 
TIME: 2.159937, ROLL: 0.010802, PITCH: 0.024310, YAW: 0.000475, X: 0.000000, Y: 0.000000, ALTITUDE: -0.000000, VX: 0.000000, VY: 0.000000, VZ: 0.000000 
TIME: 2.212471, ROLL: 0.010802, PITCH: 0.024310, YAW: 0.000475, X: 0.000000, Y: 0.000000, ALTITUDE: -0.000000, VX: 0.000000, VY: 0.000000, VZ: 0.000000 
TIME: 2.265218, ROLL: 0.010802, PITCH: 0.024310, YAW: 0.000475, X: 0.000000, Y: 0.000000, ALTITUDE: -0.000000, VX: 0.000000, VY: 0.000000, VZ: 0.000000 
TIME: 2.317421, ROLL: 0.010856, PITCH: 0.024220, YAW: 0.000456, X: 0.000000, Y: 0.000000, ALTITUDE: -0.000000, VX: 0.000000, VY: 0.000000, VZ: 0.000000 
TIME: 2.370039, ROLL: 0.010856, PITCH: 0.024220, YAW: 0.000456, X: 0.000000, Y: 0.000000, ALTITUDE: -0.000000, VX: 0.000000, VY: 0.000000, VZ: 0.000000 
TIME: 2.422605, ROLL: 0.010856, PITCH: 0.024220, YAW: 0.000456, X: 0.000000, Y: 0.000000, ALTITUDE: -0.000000, VX: 0.000000, VY: 0.000000, VZ: 0.000000 
TIME: 2.475037, ROLL: 0.010856, PITCH: 0.024220, YAW: 0.000456, X: 0.000000, Y: 0.000000, ALTITUDE: -0.000000, VX: 0.000000, VY: 0.000000, VZ: 0.000000 
TIME: 2.527663, ROLL: 0.010761, PITCH: 0.024272, YAW: 0.000494, X: 0.000000, Y: 0.000000, ALTITUDE: -0.000000, VX: 0.000000, VY: 0.000000, VZ: 0.000000 
TIME: 2.580456, ROLL: 0.010761, PITCH: 0.024272, YAW: 0.000494, X: 0.000000, Y: 0.000000, ALTITUDE: -0.000000, VX: 0.000000, VY: 0.000000, VZ: 0.000000 
TIME: 2.633065, ROLL: 0.010761, PITCH: 0.024272, YAW: 0.000494, X: 0.000000, Y: 0.000000, ALTITUDE: -0.000000, VX: 0.000000, VY: 0.000000, VZ: 0.000000 
TIME: 2.685696, ROLL: 0.010761, PITCH: 0.024272, YAW: 0.000494, X: 0.000000, Y: 0.000000, ALTITUDE: -0.000000, VX: 0.000000, VY: 0.000000, VZ: 0.000000 
TIME: 2.738305, ROLL: 0.010736, PITCH: 0.024228, YAW: 0.000496, X: 0.000000, Y: 0.000000, ALTITUDE: -0.000000, VX: 0.000000, VY: 0.000000, VZ: 0.000000 
TIME: 2.791051, ROLL: 0.010736, PITCH: 0.024228, YAW: 0.000496, X: 0.000000, Y: 0.000000, ALTITUDE: -0.000000, VX: 0.000000, VY: 0.000000, VZ: 0.000000 
TIME: 2.843745, ROLL: 0.010736, PITCH: 0.024228, YAW: 0.000496, X: 0.000000, Y: 0.000000, ALTITUDE: -0.000000, VX: 0.000000, VY: 0.000000, VZ: 0.000000 
TIME: 2.896223, ROLL: 0.010736, PITCH: 0.024228, YAW: 0.000496, X: 0.000000, Y: 0.000000, ALTITUDE: -0.000000, VX: 0.000000, VY: 0.000000, VZ: 0.000000 
TIME: 2.948967, ROLL: 0.010739, PITCH: 0.024020, YAW: 0.000498, X: 0.000000, Y: 0.000000, ALTITUDE: -0.000000, VX: 0.000000, VY: 0.000000, VZ: 0.000000 
TIME: 3.001766, ROLL: 0.010739, PITCH: 0.024020, YAW: 0.000498, X: 0.000000, Y: 0.000000, ALTITUDE: -0.000000, VX: 0.000000, VY: 0.000000, VZ: 0.000000 
TIME: 3.054427, ROLL: 0.010739, PITCH: 0.024020, YAW: 0.000498, X: 0.000000, Y: 0.000000, ALTITUDE: -0.000000, VX: 0.000000, VY: 0.000000, VZ: 0.000000 
TIME: 3.106933, ROLL: 0.010739, PITCH: 0.024020, YAW: 0.000498, X: 0.000000, Y: 0.000000, ALTITUDE: -0.000000, VX: 0.000000, VY: 0.000000, VZ: 0.000000 
TIME: 3.159726, ROLL: 0.010739, PITCH: 0.024020, YAW: 0.000498, X: 0.000000, Y: 0.000000, ALTITUDE: -0.000000, VX: 0.000000, VY: 0.000000, VZ: 0.000000 
TIME: 3.212533, ROLL: 0.010562, PITCH: 0.023905, YAW: 0.000483, X: 0.000000, Y: 0.000000, ALTITUDE: -0.000000, VX: 0.000000, VY: 0.000000, VZ: 0.000000 
TIME: 3.265324, ROLL: 0.010562, PITCH: 0.023905, YAW: 0.000483, X: 0.000000, Y: 0.000000, ALTITUDE: -0.000000, VX: 0.000000, VY: 0.000000, VZ: 0.000000 
TIME: 3.318136, ROLL: 0.010562, PITCH: 0.023905, YAW: 0.000483, X: 0.000000, Y: 0.000000, ALTITUDE: -0.000000, VX: 0.000000, VY: 0.000000, VZ: 0.000000 
TIME: 3.370942, ROLL: 0.010616, PITCH: 0.024035, YAW: 0.000484, X: 0.000000, Y: 0.000000, ALTITUDE: -0.000000, VX: 0.000000, VY: 0.000000, VZ: 0.000000 
TIME: 3.423800, ROLL: 0.010616, PITCH: 0.024035, YAW: 0.000484, X: 0.000000, Y: 0.000000, ALTITUDE: -0.000000, VX: 0.000000, VY: 0.000000, VZ: 0.000000 
TIME: 3.476442, ROLL: 0.010616, PITCH: 0.024035, YAW: 0.000484, X: 0.000000, Y: 0.000000, ALTITUDE: -0.000000, VX: 0.000000, VY: 0.000000, VZ: 0.000000 
TIME: 3.529161, ROLL: 0.010616, PITCH: 0.024035, YAW: 0.000484, X: 0.000000, Y: 0.000000, ALTITUDE: -0.000000, VX: 0.000000, VY: 0.000000, VZ: 0.000000 
TIME: 3.581739, ROLL: 0.010755, PITCH: 0.024055, YAW: 0.000530, X: 0.000000, Y: 0.000000, ALTITUDE: -0.000000, VX: 0.000000, VY: 0.000000, VZ: 0.000000 
TIME: 3.634569, ROLL: 0.010755, PITCH: 0.024055, YAW: 0.000530, X: 0.000000, Y: 0.000000, ALTITUDE: -0.000000, VX: 0.000000, VY: 0.000000, VZ: 0.000000 
TIME: 3.687188, ROLL: 0.010755, PITCH: 0.024055, YAW: 0.000530, X: 0.000000, Y: 0.000000, ALTITUDE: -0.000000, VX: 0.000000, VY: 0.000000, VZ: 0.000000 
TIME: 3.739680, ROLL: 0.010755, PITCH: 0.024055, YAW: 0.000530, X: 0.000000, Y: 0.000000, ALTITUDE: -0.000000, VX: 0.000000, VY: 0.000000, VZ: 0.000000 
TIME: 3.792293, ROLL: 0.010718, PITCH: 0.024165, YAW: 0.000537, X: 0.000000, Y: 0.000000, ALTITUDE: -0.000000, VX: 0.000000, VY: 0.000000, VZ: 0.000000 
TIME: 3.845041, ROLL: 0.010718, PITCH: 0.024165, YAW: 0.000537, X: 0.000000, Y: 0.000000, ALTITUDE: -0.000000, VX: 0.000000, VY: 0.000000, VZ: 0.000000 
TIME: 3.897498, ROLL: 0.010718, PITCH: 0.024165, YAW: 0.000537, X: 0.000000, Y: 0.000000, ALTITUDE: -0.000000, VX: 0.000000, VY: 0.000000, VZ: 0.000000 
TIME: 3.950006, ROLL: 0.010718, PITCH: 0.024165, YAW: 0.000537, X: 0.000000, Y: 0.000000, ALTITUDE: -0.000000, VX: 0.000000, VY: 0.000000, VZ: 0.000000 
TIME: 4.002777, ROLL: 0.010843, PITCH: 0.024320, YAW: 0.000354, X: 0.000000, Y: 0.000000, ALTITUDE: -0.000000, VX: 0.000000, VY: 0.000000, VZ: 0.000000 
TIME: 4.055610, ROLL: 0.010843, PITCH: 0.024320, YAW: 0.000354, X: 0.000000, Y: 0.000000, ALTITUDE: -0.000000, VX: 0.000000, VY: 0.000000, VZ: 0.000000 
TIME: 4.108252, ROLL: 0.010843, PITCH: 0.024320, YAW: 0.000354, X: 0.000000, Y: 0.000000, ALTITUDE: -0.000000, VX: 0.000000, VY: 0.000000, VZ: 0.000000 
TIME: 4.160727, ROLL: 0.010843, PITCH: 0.024320, YAW: 0.000354, X: 0.000000, Y: 0.000000, ALTITUDE: -0.000000, VX: 0.000000, VY: 0.000000, VZ: 0.000000 
TIME: 4.213098, ROLL: 0.010843, PITCH: 0.024320, YAW: 0.000354, X: 0.000000, Y: 0.000000, ALTITUDE: -0.000000, VX: 0.000000, VY: 0.000000, VZ: 0.000000 
TIME: 4.266087, ROLL: 0.005133, PITCH: 0.024884, YAW: 0.001441, X: 0.000000, Y: 0.000000, ALTITUDE: -0.000000, VX: 0.000000, VY: 0.000000, VZ: 0.000000 
TIME: 4.318693, ROLL: 0.005133, PITCH: 0.024884, YAW: 0.001441, X: 0.000000, Y: 0.000000, ALTITUDE: -0.000000, VX: 0.000000, VY: 0.000000, VZ: 0.000000 
TIME: 4.371231, ROLL: 0.005133, PITCH: 0.024884, YAW: 0.001441, X: 0.000000, Y: 0.000000, ALTITUDE: -0.000000, VX: 0.000000, VY: 0.000000, VZ: 0.000000 
TIME: 4.424015, ROLL: 0.014451, PITCH: 0.023187, YAW: 0.006810, X: 0.000000, Y: 0.000000, ALTITUDE: -0.000000, VX: 0.000000, VY: 0.000000, VZ: 0.000000 
TIME: 4.476808, ROLL: 0.014451, PITCH: 0.023187, YAW: 0.006810, X: 0.000000, Y: 0.000000, ALTITUDE: -0.000000, VX: 0.000000, VY: 0.000000, VZ: 0.000000 
TIME: 4.529555, ROLL: 0.014451, PITCH: 0.023187, YAW: 0.006810, X: 0.000000, Y: 0.000000, ALTITUDE: -0.000000, VX: 0.000000, VY: 0.000000, VZ: 0.000000 
TIME: 4.582003, ROLL: 0.014451, PITCH: 0.023187, YAW: 0.006810, X: 0.000000, Y: 0.000000, ALTITUDE: -0.000000, VX: 0.000000, VY: 0.000000, VZ: 0.000000 
TIME: 4.634711, ROLL: 0.028740, PITCH: 0.019442, YAW: 0.125303, X: 0.000000, Y: 0.000000, ALTITUDE: -0.000000, VX: 0.000000, VY: 0.000000, VZ: 0.000000 
TIME: 4.687483, ROLL: 0.028740, PITCH: 0.019442, YAW: 0.125303, X: 0.000000, Y: 0.000000, ALTITUDE: -0.000000, VX: 0.000000, VY: 0.000000, VZ: 0.000000 
TIME: 4.739869, ROLL: 0.028740, PITCH: 0.019442, YAW: 0.125303, X: 0.000000, Y: 0.000000, ALTITUDE: -0.000000, VX: 0.000000, VY: 0.000000, VZ: 0.000000 
TIME: 4.792300, ROLL: 0.028740, PITCH: 0.019442, YAW: 0.125303, X: 0.000000, Y: 0.000000, ALTITUDE: -0.000000, VX: 0.000000, VY: 0.000000, VZ: 0.000000 
TIME: 4.844758, ROLL: 0.079713, PITCH: 0.013081, YAW: 0.623702, X: 0.000000, Y: 0.000000, ALTITUDE: -0.000000, VX: 0.000000, VY: 0.000000, VZ: 0.000000 
TIME: 4.897175, ROLL: 0.079713, PITCH: 0.013081, YAW: 0.623702, X: 0.000000, Y: 0.000000, ALTITUDE: -0.000000, VX: 0.000000, VY: 0.000000, VZ: 0.000000 
TIME: 4.949656, ROLL: 0.079713, PITCH: 0.013081, YAW: 0.623702, X: 0.000000, Y: 0.000000, ALTITUDE: -0.000000, VX: 0.000000, VY: 0.000000, VZ: 0.000000 
TIME: 5.002120, ROLL: 0.079713, PITCH: 0.013081, YAW: 0.623702, X: 0.000000, Y: 0.000000, ALTITUDE: -0.000000, VX: 0.000000, VY: 0.000000, VZ: 0.000000 
TIME: 5.054503, ROLL: 0.049427, PITCH: 0.008392, YAW: 0.729625, X: 0.000000, Y: 0.000000, ALTITUDE: -0.000000, VX: 0.000000, VY: 0.000000, VZ: 0.000000 
TIME: 5.107046, ROLL: 0.049427, PITCH: 0.008392, YAW: 0.729625, X: 0.000000, Y: 0.000000, ALTITUDE: -0.000000, VX: 0.000000, VY: 0.000000, VZ: 0.000000 
TIME: 5.159578, ROLL: 0.049427, PITCH: 0.008392, YAW: 0.729625, X: 0.000000, Y: 0.000000, ALTITUDE: -0.000000, VX: 0.000000, VY: 0.000000, VZ: 0.000000 
TIME: 5.212097, ROLL: 0.049427, PITCH: 0.008392, YAW: 0.729625, X: 0.000000, Y: 0.000000, ALTITUDE: -0.000000, VX: 0.000000, VY: 0.000000, VZ: 0.000000 
TIME: 5.264590, ROLL: 0.049427, PITCH: 0.008392, YAW: 0.729625, X: 0.000000, Y: 0.000000, ALTITUDE: -0.000000, VX: 0.000000, VY: 0.000000, VZ: 0.000000 
TIME: 5.317169, ROLL: 0.035907, PITCH: 0.008593, YAW: 0.745591, X: 0.000000, Y: 0.000000, ALTITUDE: -0.000000, VX: 0.000000, VY: 0.000000, VZ: 0.000000 
TIME: 5.369880, ROLL: 0.035907, PITCH: 0.008593, YAW: 0.745591, X: 0.000000, Y: 0.000000, ALTITUDE: -0.000000, VX: 0.000000, VY: 0.000000, VZ: 0.000000 
TIME: 5.422611, ROLL: 0.035907, PITCH: 0.008593, YAW: 0.745591, X: 0.000000, Y: 0.000000, ALTITUDE: -0.000000, VX: 0.000000, VY: 0.000000, VZ: 0.000000 
TIME: 5.475073, ROLL: 0.023219, PITCH: 0.011437, YAW: 0.740223, X: 0.000000, Y: 0.000000, ALTITUDE: -0.000000, VX: 0.000000, VY: 0.000000, VZ: 0.000000 
TIME: 5.527606, ROLL: 0.023219, PITCH: 0.011437, YAW: 0.740223, X: 0.000000, Y: 0.000000, ALTITUDE: -0.000000, VX: 0.000000, VY: 0.000000, VZ: 0.000000 
TIME: 5.580025, ROLL: 0.023219, PITCH: 0.011437, YAW: 0.740223, X: 0.000000, Y: 0.000000, ALTITUDE: -0.000000, VX: 0.000000, VY: 0.000000, VZ: 0.000000 
TIME: 5.632569, ROLL: 0.023219, PITCH: 0.011437, YAW: 0.740223, X: 0.000000, Y: 0.000000, ALTITUDE: -0.000000, VX: 0.000000, VY: 0.000000, VZ: 0.000000 
TIME: 5.685296, ROLL: 0.021300, PITCH: 0.016761, YAW: 0.740154, X: 0.000000, Y: 0.000000, ALTITUDE: -0.000000, VX: 0.000000, VY: 0.000000, VZ: 0.000000 
TIME: 5.737843, ROLL: 0.021300, PITCH: 0.016761, YAW: 0.740154, X: 0.000000, Y: 0.000000, ALTITUDE: -0.000000, VX: 0.000000, VY: 0.000000, VZ: 0.000000 
TIME: 5.790371, ROLL: 0.021300, PITCH: 0.016761, YAW: 0.740154, X: 0.000000, Y: 0.000000, ALTITUDE: -0.000000, VX: 0.000000, VY: 0.000000, VZ: 0.000000 
TIME: 5.843011, ROLL: 0.021300, PITCH: 0.016761, YAW: 0.740154, X: 0.000000, Y: 0.000000, ALTITUDE: -0.000000, VX: 0.000000, VY: 0.000000, VZ: 0.000000 
TIME: 5.895617, ROLL: 0.020918, PITCH: 0.018563, YAW: 0.740215, X: 0.000000, Y: 0.000000, ALTITUDE: -0.000000, VX: 0.000000, VY: 0.000000, VZ: 0.000000 
TIME: 5.948370, ROLL: 0.020918, PITCH: 0.018563, YAW: 0.740215, X: 0.000000, Y: 0.000000, ALTITUDE: -0.000000, VX: 0.000000, VY: 0.000000, VZ: 0.000000 
TIME: 6.000619, ROLL: 0.020918, PITCH: 0.018563, YAW: 0.740215, X: 0.000000, Y: 0.000000, ALTITUDE: -0.000000, VX: 0.000000, VY: 0.000000, VZ: 0.000000 
TIME: 6.053259, ROLL: 0.020918, PITCH: 0.018563, YAW: 0.740215, X: 0.000000, Y: 0.000000, ALTITUDE: -0.000000, VX: 0.000000, VY: 0.000000, VZ: 0.000000 
TIME: 6.105801, ROLL: 0.021291, PITCH: 0.019444, YAW: 0.740186, X: 0.000000, Y: 0.000000, ALTITUDE: -0.000000, VX: 0.000000, VY: 0.000000, VZ: 0.000000 
TIME: 6.158648, ROLL: 0.021291, PITCH: 0.019444, YAW: 0.740186, X: 0.000000, Y: 0.000000, ALTITUDE: -0.000000, VX: 0.000000, VY: 0.000000, VZ: 0.000000 
TIME: 6.211407, ROLL: 0.021291, PITCH: 0.019444, YAW: 0.740186, X: 0.000000, Y: 0.000000, ALTITUDE: -0.000000, VX: 0.000000, VY: 0.000000, VZ: 0.000000 
TIME: 6.264003, ROLL: 0.021291, PITCH: 0.019444, YAW: 0.740186, X: 0.000000, Y: 0.000000, ALTITUDE: -0.000000, VX: 0.000000, VY: 0.000000, VZ: 0.000000 
TIME: 6.316527, ROLL: 0.021291, PITCH: 0.019444, YAW: 0.740186, X: 0.000000, Y: 0.000000, ALTITUDE: -0.000000, VX: 0.000000, VY: 0.000000, VZ: 0.000000 
TIME: 6.369233, ROLL: 0.021316, PITCH: 0.020172, YAW: 0.740254, X: 0.000000, Y: 0.000000, ALTITUDE: -0.000000, VX: 0.000000, VY: 0.000000, VZ: 0.000000 
TIME: 6.421451, ROLL: 0.021316, PITCH: 0.020172, YAW: 0.740254, X: 0.000000, Y: 0.000000, ALTITUDE: -0.000000, VX: 0.000000, VY: 0.000000, VZ: 0.000000 
TIME: 6.474000, ROLL: 0.021316, PITCH: 0.020172, YAW: 0.740254, X: 0.000000, Y: 0.000000, ALTITUDE: -0.000000, VX: 0.000000, VY: 0.000000, VZ: 0.000000 
TIME: 6.526528, ROLL: 0.021309, PITCH: 0.020579, YAW: 0.740246, X: 0.000000, Y: 0.000000, ALTITUDE: -0.000000, VX: 0.000000, VY: 0.000000, VZ: 0.000000 
TIME: 6.579121, ROLL: 0.021309, PITCH: 0.020579, YAW: 0.740246, X: 0.000000, Y: 0.000000, ALTITUDE: -0.000000, VX: 0.000000, VY: 0.000000, VZ: 0.000000 
TIME: 6.631865, ROLL: 0.021309, PITCH: 0.020579, YAW: 0.740246, X: 0.000000, Y: 0.000000, ALTITUDE: -0.000000, VX: 0.000000, VY: 0.000000, VZ: 0.000000 
TIME: 6.684481, ROLL: 0.021309, PITCH: 0.020579, YAW: 0.740246, X: 0.000000, Y: 0.000000, ALTITUDE: -0.000000, VX: 0.000000, VY: 0.000000, VZ: 0.000000 
TIME: 6.737211, ROLL: 0.021284, PITCH: 0.021048, YAW: 0.740200, X: 0.000000, Y: 0.000000, ALTITUDE: -0.000000, VX: 0.000000, VY: 0.000000, VZ: 0.000000 
TIME: 6.789887, ROLL: 0.021284, PITCH: 0.021048, YAW: 0.740200, X: 0.000000, Y: 0.000000, ALTITUDE: -0.000000, VX: 0.000000, VY: 0.000000, VZ: 0.000000 
TIME: 6.842688, ROLL: 0.021284, PITCH: 0.021048, YAW: 0.740200, X: 0.000000, Y: 0.000000, ALTITUDE: -0.000000, VX: 0.000000, VY: 0.000000, VZ: 0.000000 
TIME: 6.895297, ROLL: 0.021284, PITCH: 0.021048, YAW: 0.740200, X: 0.000000, Y: 0.000000, ALTITUDE: -0.000000, VX: 0.000000, VY: 0.000000, VZ: 0.000000 
TIME: 6.948072, ROLL: 0.021169, PITCH: 0.021320, YAW: 0.740213, X: 0.000000, Y: 0.000000, ALTITUDE: -0.000000, VX: 0.000000, VY: 0.000000, VZ: 0.000000 
TIME: 7.000462, ROLL: 0.021169, PITCH: 0.021320, YAW: 0.740213, X: 0.000000, Y: 0.000000, ALTITUDE: -0.000000, VX: 0.000000, VY: 0.000000, VZ: 0.000000 
TIME: 7.053324, ROLL: 0.021169, PITCH: 0.021320, YAW: 0.740213, X: 0.000000, Y: 0.000000, ALTITUDE: -0.000000, VX: 0.000000, VY: 0.000000, VZ: 0.000000 
TIME: 7.105778, ROLL: 0.021169, PITCH: 0.021320, YAW: 0.740213, X: 0.000000, Y: 0.000000, ALTITUDE: -0.000000, VX: 0.000000, VY: 0.000000, VZ: 0.000000 
TIME: 7.158393, ROLL: 0.021123, PITCH: 0.021614, YAW: 0.740278, X: 0.000000, Y: 0.000000, ALTITUDE: -0.000000, VX: 0.000000, VY: 0.000000, VZ: 0.000000 
TIME: 7.211033, ROLL: 0.021123, PITCH: 0.021614, YAW: 0.740278, X: 0.000000, Y: 0.000000, ALTITUDE: -0.000000, VX: 0.000000, VY: 0.000000, VZ: 0.000000 
TIME: 7.263790, ROLL: 0.021123, PITCH: 0.021614, YAW: 0.740278, X: 0.000000, Y: 0.000000, ALTITUDE: -0.000000, VX: 0.000000, VY: 0.000000, VZ: 0.000000 
TIME: 7.316104, ROLL: 0.021123, PITCH: 0.021614, YAW: 0.740278, X: 0.000000, Y: 0.000000, ALTITUDE: -0.000000, VX: 0.000000, VY: 0.000000, VZ: 0.000000 
TIME: 7.368589, ROLL: 0.021123, PITCH: 0.021614, YAW: 0.740278, X: 0.000000, Y: 0.000000, ALTITUDE: -0.000000, VX: 0.000000, VY: 0.000000, VZ: 0.000000 
TIME: 7.421202, ROLL: 0.020982, PITCH: 0.021745, YAW: 0.740263, X: 0.000000, Y: 0.000000, ALTITUDE: -0.000000, VX: 0.000000, VY: 0.000000, VZ: 0.000000 
TIME: 7.473426, ROLL: 0.020982, PITCH: 0.021745, YAW: 0.740263, X: 0.000000, Y: 0.000000, ALTITUDE: -0.000000, VX: 0.000000, VY: 0.000000, VZ: 0.000000 
TIME: 7.525835, ROLL: 0.020982, PITCH: 0.021745, YAW: 0.740263, X: 0.000000, Y: 0.000000, ALTITUDE: -0.000000, VX: 0.000000, VY: 0.000000, VZ: 0.000000 
TIME: 7.578203, ROLL: 0.020991, PITCH: 0.021889, YAW: 0.740262, X: 0.000000, Y: 0.000000, ALTITUDE: -0.000000, VX: 0.000000, VY: 0.000000, VZ: 0.000000 
TIME: 7.630782, ROLL: 0.020991, PITCH: 0.021889, YAW: 0.740262, X: 0.000000, Y: 0.000000, ALTITUDE: -0.000000, VX: 0.000000, VY: 0.000000, VZ: 0.000000 
TIME: 7.683317, ROLL: 0.020991, PITCH: 0.021889, YAW: 0.740262, X: 0.000000, Y: 0.000000, ALTITUDE: -0.000000, VX: 0.000000, VY: 0.000000, VZ: 0.000000 
TIME: 7.735962, ROLL: 0.020991, PITCH: 0.021889, YAW: 0.740262, X: 0.000000, Y: 0.000000, ALTITUDE: -0.000000, VX: 0.000000, VY: 0.000000, VZ: 0.000000 
TIME: 7.788342, ROLL: 0.020822, PITCH: 0.022104, YAW: 0.740259, X: 0.000000, Y: 0.000000, ALTITUDE: -0.000000, VX: 0.000000, VY: 0.000000, VZ: 0.000000 
TIME: 7.840779, ROLL: 0.020822, PITCH: 0.022104, YAW: 0.740259, X: 0.000000, Y: 0.000000, ALTITUDE: -0.000000, VX: 0.000000, VY: 0.000000, VZ: 0.000000 
TIME: 7.893458, ROLL: 0.020822, PITCH: 0.022104, YAW: 0.740259, X: 0.000000, Y: 0.000000, ALTITUDE: -0.000000, VX: 0.000000, VY: 0.000000, VZ: 0.000000 
TIME: 7.946283, ROLL: 0.020822, PITCH: 0.022104, YAW: 0.740259, X: 0.000000, Y: 0.000000, ALTITUDE: -0.000000, VX: 0.000000, VY: 0.000000, VZ: 0.000000 
TIME: 7.998914, ROLL: 0.020835, PITCH: 0.021900, YAW: 0.740239, X: 0.000000, Y: 0.000000, ALTITUDE: -0.000000, VX: 0.000000, VY: 0.000000, VZ: 0.000000 
TIME: 8.051539, ROLL: 0.020835, PITCH: 0.021900, YAW: 0.740239, X: 0.000000, Y: 0.000000, ALTITUDE: -0.000000, VX: 0.000000, VY: 0.000000, VZ: 0.000000 
TIME: 8.104831, ROLL: 0.020835, PITCH: 0.021900, YAW: 0.740239, X: 0.000000, Y: 0.000000, ALTITUDE: -0.000000, VX: 0.000000, VY: 0.000000, VZ: 0.000000 
TIME: 8.157427, ROLL: 0.020835, PITCH: 0.021900, YAW: 0.740239, X: 0.000000, Y: 0.000000, ALTITUDE: -0.000000, VX: 0.000000, VY: 0.000000, VZ: 0.000000 
TIME: 8.210119, ROLL: 0.020906, PITCH: 0.021815, YAW: 0.740237, X: 0.000000, Y: 0.000000, ALTITUDE: -0.000000, VX: 0.000000, VY: 0.000000, VZ: 0.000000 
TIME: 8.263080, ROLL: 0.020906, PITCH: 0.021815, YAW: 0.740237, X: 0.000000, Y: 0.000000, ALTITUDE: -0.000000, VX: 0.000000, VY: 0.000000, VZ: 0.000000 
TIME: 8.317540, ROLL: 0.020906, PITCH: 0.021815, YAW: 0.740237, X: 0.000000, Y: 0.000000, ALTITUDE: -0.000000, VX: 0.000000, VY: 0.000000, VZ: 0.000000 
TIME: 8.370556, ROLL: 0.020906, PITCH: 0.021815, YAW: 0.740237, X: 0.000000, Y: 0.000000, ALTITUDE: -0.000000, VX: 0.000000, VY: 0.000000, VZ: 0.000000 
TIME: 8.423285, ROLL: 0.020906, PITCH: 0.021815, YAW: 0.740237, X: 0.000000, Y: 0.000000, ALTITUDE: -0.000000, VX: 0.000000, VY: 0.000000, VZ: 0.000000 
TIME: 8.476163, ROLL: 0.020794, PITCH: 0.021955, YAW: 0.740236, X: 0.000000, Y: 0.000000, ALTITUDE: -0.000000, VX: 0.000000, VY: 0.000000, VZ: 0.000000 
TIME: 8.528889, ROLL: 0.020794, PITCH: 0.021955, YAW: 0.740236, X: 0.000000, Y: 0.000000, ALTITUDE: -0.000000, VX: 0.000000, VY: 0.000000, VZ: 0.000000 
TIME: 8.582013, ROLL: 0.020794, PITCH: 0.021955, YAW: 0.740236, X: 0.000000, Y: 0.000000, ALTITUDE: -0.000000, VX: 0.000000, VY: 0.000000, VZ: 0.000000 
TIME: 8.634660, ROLL: 0.020648, PITCH: 0.021947, YAW: 0.740242, X: 0.000000, Y: 0.000000, ALTITUDE: -0.000000, VX: 0.000000, VY: 0.000000, VZ: 0.000000 
TIME: 8.687530, ROLL: 0.020648, PITCH: 0.021947, YAW: 0.740242, X: 0.000000, Y: 0.000000, ALTITUDE: -0.000000, VX: 0.000000, VY: 0.000000, VZ: 0.000000 
TIME: 8.740360, ROLL: 0.020648, PITCH: 0.021947, YAW: 0.740242, X: 0.000000, Y: 0.000000, ALTITUDE: -0.000000, VX: 0.000000, VY: 0.000000, VZ: 0.000000 
TIME: 8.794666, ROLL: 0.020648, PITCH: 0.021947, YAW: 0.740242, X: 0.000000, Y: 0.000000, ALTITUDE: -0.000000, VX: 0.000000, VY: 0.000000, VZ: 0.000000 
TIME: 8.850103, ROLL: 0.020624, PITCH: 0.022081, YAW: 0.740250, X: 0.000000, Y: 0.000000, ALTITUDE: -0.000000, VX: 0.000000, VY: 0.000000, VZ: 0.000000 
TIME: 8.903599, ROLL: 0.020624, PITCH: 0.022081, YAW: 0.740250, X: 0.000000, Y: 0.000000, ALTITUDE: -0.000000, VX: 0.000000, VY: 0.000000, VZ: 0.000000 
TIME: 8.955918, ROLL: 0.020624, PITCH: 0.022081, YAW: 0.740250, X: 0.000000, Y: 0.000000, ALTITUDE: -0.000000, VX: 0.000000, VY: 0.000000, VZ: 0.000000 
TIME: 9.008243, ROLL: 0.020624, PITCH: 0.022081, YAW: 0.740250, X: 0.000000, Y: 0.000000, ALTITUDE: -0.000000, VX: 0.000000, VY: 0.000000, VZ: 0.000000 
TIME: 9.060637, ROLL: 0.020714, PITCH: 0.021989, YAW: 0.740242, X: 0.000000, Y: 0.000000, ALTITUDE: -0.000000, VX: 0.000000, VY: 0.000000, VZ: 0.000000 
TIME: 9.114794, ROLL: 0.020714, PITCH: 0.021989, YAW: 0.740242, X: 0.000000, Y: 0.000000, ALTITUDE: -0.000000, VX: 0.000000, VY: 0.000000, VZ: 0.000000 
TIME: 9.168915, ROLL: 0.020714, PITCH: 0.021989, YAW: 0.740242, X: 0.000000, Y: 0.000000, ALTITUDE: -0.000000, VX: 0.000000, VY: 0.000000, VZ: 0.000000 
TIME: 9.194024, ROLL: 0.020714, PITCH: 0.021989, YAW: 0.740242, X: 0.000000, Y: 0.000000, ALTITUDE: -0.000000, VX: 0.000000, VY: 0.000000, VZ: 0.000000 
TIME: 9.215935, ROLL: 0.020588, PITCH: 0.022024, YAW: 0.740259, X: 0.000000, Y: 0.000000, ALTITUDE: -0.000000, VX: 0.000000, VY: 0.000000, VZ: 0.000000 
TIME: 9.249914, ROLL: 0.020588, PITCH: 0.022024, YAW: 0.740259, X: 0.000000, Y: 0.000000, ALTITUDE: -0.000000, VX: 0.000000, VY: 0.000000, VZ: 0.000000 
TIME: 9.289053, ROLL: 0.020588, PITCH: 0.022024, YAW: 0.740259, X: 0.000000, Y: 0.000000, ALTITUDE: -0.000000, VX: 0.000000, VY: 0.000000, VZ: 0.000000 
TIME: 9.341726, ROLL: 0.020588, PITCH: 0.022024, YAW: 0.740259, X: 0.000000, Y: 0.000000, ALTITUDE: -0.000000, VX: 0.000000, VY: 0.000000, VZ: 0.000000 
TIME: 9.394375, ROLL: 0.020588, PITCH: 0.022024, YAW: 0.740259, X: 0.000000, Y: 0.000000, ALTITUDE: -0.000000, VX: 0.000000, VY: 0.000000, VZ: 0.000000 
TIME: 9.447141, ROLL: 0.020863, PITCH: 0.021987, YAW: 0.740281, X: 0.000000, Y: 0.000000, ALTITUDE: -0.000000, VX: 0.000000, VY: 0.000000, VZ: 0.000000 
TIME: 9.499731, ROLL: 0.020863, PITCH: 0.021987, YAW: 0.740281, X: 0.000000, Y: 0.000000, ALTITUDE: -0.000000, VX: 0.000000, VY: 0.000000, VZ: 0.000000 
TIME: 9.552679, ROLL: 0.020863, PITCH: 0.021987, YAW: 0.740281, X: 0.000000, Y: 0.000000, ALTITUDE: -0.000000, VX: 0.000000, VY: 0.000000, VZ: 0.000000 
TIME: 9.605475, ROLL: 0.020855, PITCH: 0.021818, YAW: 0.740255, X: 0.000000, Y: 0.000000, ALTITUDE: -0.000000, VX: 0.000000, VY: 0.000000, VZ: 0.000000 
TIME: 9.658415, ROLL: 0.020855, PITCH: 0.021818, YAW: 0.740255, X: 0.000000, Y: 0.000000, ALTITUDE: -0.000000, VX: 0.000000, VY: 0.000000, VZ: 0.000000 
TIME: 9.711387, ROLL: 0.020855, PITCH: 0.021818, YAW: 0.740255, X: 0.000000, Y: 0.000000, ALTITUDE: -0.000000, VX: 0.000000, VY: 0.000000, VZ: 0.000000 
TIME: 9.764197, ROLL: 0.020855, PITCH: 0.021818, YAW: 0.740255, X: 0.000000, Y: 0.000000, ALTITUDE: -0.000000, VX: 0.000000, VY: 0.000000, VZ: 0.000000 
TIME: 9.816827, ROLL: 0.020799, PITCH: 0.021766, YAW: 0.740218, X: 0.000000, Y: 0.000000, ALTITUDE: -0.000000, VX: 0.000000, VY: 0.000000, VZ: 0.000000 
TIME: 9.869631, ROLL: 0.020799, PITCH: 0.021766, YAW: 0.740218, X: 0.000000, Y: 0.000000, ALTITUDE: -0.000000, VX: 0.000000, VY: 0.000000, VZ: 0.000000 
TIME: 9.912968, ROLL: 0.020799, PITCH: 0.021766, YAW: 0.740218, X: 0.000000, Y: 0.000000, ALTITUDE: -0.000000, VX: 0.000000, VY: 0.000000, VZ: 0.000000 
TIME: 9.927405, ROLL: 0.020799, PITCH: 0.021766, YAW: 0.740218, X: 0.000000, Y: 0.000000, ALTITUDE: -0.000000, VX: 0.000000, VY: 0.000000, VZ: 0.000000 
TIME: 9.942258, ROLL: 0.020929, PITCH: 0.021840, YAW: 0.740237, X: 0.000000, Y: 0.000000, ALTITUDE: -0.000000, VX: 0.000000, VY: 0.000000, VZ: 0.000000 
TIME: 9.957019, ROLL: 0.020929, PITCH: 0.021840, YAW: 0.740237, X: 0.000000, Y: 0.000000, ALTITUDE: -0.000000, VX: 0.000000, VY: 0.000000, VZ: 0.000000 
TIME: 9.965907, ROLL: 0.020929, PITCH: 0.021840, YAW: 0.740237, X: 0.000000, Y: 0.000000, ALTITUDE: -0.000000, VX: 0.000000, VY: 0.000000, VZ: 0.000000 
TIME: 10.007050, ROLL: 0.020929, PITCH: 0.021840, YAW: 0.740237, X: 0.000000, Y: 0.000000, ALTITUDE: -0.000000, VX: 0.000000, VY: 0.000000, VZ: 0.000000 
TIME: 10.059794, ROLL: 0.020948, PITCH: 0.021666, YAW: 0.740221, X: 0.000000, Y: 0.000000, ALTITUDE: -0.000000, VX: 0.000000, VY: 0.000000, VZ: 0.000000 
TIME: 10.112706, ROLL: 0.020948, PITCH: 0.021666, YAW: 0.740221, X: 0.000000, Y: 0.000000, ALTITUDE: -0.000000, VX: 0.000000, VY: 0.000000, VZ: 0.000000 
TIME: 10.165468, ROLL: 0.020948, PITCH: 0.021666, YAW: 0.740221, X: 0.000000, Y: 0.000000, ALTITUDE: -0.000000, VX: 0.000000, VY: 0.000000, VZ: 0.000000 
TIME: 10.218700, ROLL: 0.020948, PITCH: 0.021666, YAW: 0.740221, X: 0.000000, Y: 0.000000, ALTITUDE: -0.000000, VX: 0.000000, VY: 0.000000, VZ: 0.000000 
TIME: 10.273328, ROLL: 0.020948, PITCH: 0.021666, YAW: 0.740221, X: 0.000000, Y: 0.000000, ALTITUDE: -0.000000, VX: 0.000000, VY: 0.000000, VZ: 0.000000 
TIME: 10.327157, ROLL: 0.021110, PITCH: 0.021752, YAW: 0.740255, X: 0.000000, Y: 0.000000, ALTITUDE: -0.000000, VX: 0.000000, VY: 0.000000, VZ: 0.000000 
TIME: 10.380223, ROLL: 0.021110, PITCH: 0.021752, YAW: 0.740255, X: 0.000000, Y: 0.000000, ALTITUDE: -0.000000, VX: 0.000000, VY: 0.000000, VZ: 0.000000 
TIME: 10.433741, ROLL: 0.021110, PITCH: 0.021752, YAW: 0.740255, X: 0.000000, Y: 0.000000, ALTITUDE: -0.000000, VX: 0.000000, VY: 0.000000, VZ: 0.000000 
TIME: 10.488036, ROLL: 0.020984, PITCH: 0.021899, YAW: 0.740212, X: 0.000000, Y: 0.000000, ALTITUDE: -0.000000, VX: 0.000000, VY: 0.000000, VZ: 0.000000 
TIME: 10.541339, ROLL: 0.020984, PITCH: 0.021899, YAW: 0.740212, X: 0.000000, Y: 0.000000, ALTITUDE: -0.000000, VX: 0.000000, VY: 0.000000, VZ: 0.000000 
TIME: 10.594607, ROLL: 0.020984, PITCH: 0.021899, YAW: 0.740212, X: 0.000000, Y: 0.000000, ALTITUDE: -0.000000, VX: 0.000000, VY: 0.000000, VZ: 0.000000 
TIME: 10.647612, ROLL: 0.020984, PITCH: 0.021899, YAW: 0.740212, X: 0.000000, Y: 0.000000, ALTITUDE: -0.000000, VX: 0.000000, VY: 0.000000, VZ: 0.000000 
TIME: 10.700326, ROLL: 0.020923, PITCH: 0.021765, YAW: 0.740187, X: 0.000000, Y: 0.000000, ALTITUDE: -0.000000, VX: 0.000000, VY: 0.000000, VZ: 0.000000 
TIME: 10.753316, ROLL: 0.020923, PITCH: 0.021765, YAW: 0.740187, X: 0.000000, Y: 0.000000, ALTITUDE: -0.000000, VX: 0.000000, VY: 0.000000, VZ: 0.000000 
TIME: 10.807059, ROLL: 0.020923, PITCH: 0.021765, YAW: 0.740187, X: 0.000000, Y: 0.000000, ALTITUDE: -0.000000, VX: 0.000000, VY: 0.000000, VZ: 0.000000 
TIME: 10.859857, ROLL: 0.020923, PITCH: 0.021765, YAW: 0.740187, X: 0.000000, Y: 0.000000, ALTITUDE: -0.000000, VX: 0.000000, VY: 0.000000, VZ: 0.000000 
TIME: 10.912859, ROLL: 0.020967, PITCH: 0.021841, YAW: 0.740275, X: 0.000000, Y: 0.000000, ALTITUDE: -0.000000, VX: 0.000000, VY: 0.000000, VZ: 0.000000 
TIME: 10.965768, ROLL: 0.020967, PITCH: 0.021841, YAW: 0.740275, X: 0.000000, Y: 0.000000, ALTITUDE: -0.000000, VX: 0.000000, VY: 0.000000, VZ: 0.000000 
TIME: 11.018953, ROLL: 0.020967, PITCH: 0.021841, YAW: 0.740275, X: 0.000000, Y: 0.000000, ALTITUDE: -0.000000, VX: 0.000000, VY: 0.000000, VZ: 0.000000 
TIME: 11.072948, ROLL: 0.020967, PITCH: 0.021841, YAW: 0.740275, X: 0.000000, Y: 0.000000, ALTITUDE: -0.000000, VX: 0.000000, VY: 0.000000, VZ: 0.000000 
TIME: 11.126002, ROLL: 0.020723, PITCH: 0.021831, YAW: 0.740260, X: 0.000000, Y: 0.000000, ALTITUDE: -0.000000, VX: 0.000000, VY: 0.000000, VZ: 0.000000 
TIME: 11.179099, ROLL: 0.020723, PITCH: 0.021831, YAW: 0.740260, X: 0.000000, Y: 0.000000, ALTITUDE: -0.000000, VX: 0.000000, VY: 0.000000, VZ: 0.000000 
TIME: 11.231919, ROLL: 0.020723, PITCH: 0.021831, YAW: 0.740260, X: 0.000000, Y: 0.000000, ALTITUDE: -0.000000, VX: 0.000000, VY: 0.000000, VZ: 0.000000 
TIME: 11.284660, ROLL: 0.020723, PITCH: 0.021831, YAW: 0.740260, X: 0.000000, Y: 0.000000, ALTITUDE: -0.000000, VX: 0.000000, VY: 0.000000, VZ: 0.000000 
TIME: 11.337524, ROLL: 0.020723, PITCH: 0.021831, YAW: 0.740260, X: 0.000000, Y: 0.000000, ALTITUDE: -0.000000, VX: 0.000000, VY: 0.000000, VZ: 0.000000 
TIME: 11.391604, ROLL: 0.020598, PITCH: 0.021979, YAW: 0.740246, X: 0.000000, Y: 0.000000, ALTITUDE: -0.000000, VX: 0.000000, VY: 0.000000, VZ: 0.000000 
TIME: 11.445405, ROLL: 0.020598, PITCH: 0.021979, YAW: 0.740246, X: 0.000000, Y: 0.000000, ALTITUDE: -0.000000, VX: 0.000000, VY: 0.000000, VZ: 0.000000 
TIME: 11.498405, ROLL: 0.020598, PITCH: 0.021979, YAW: 0.740246, X: 0.000000, Y: 0.000000, ALTITUDE: -0.000000, VX: 0.000000, VY: 0.000000, VZ: 0.000000 
TIME: 11.551136, ROLL: 0.020602, PITCH: 0.022019, YAW: 0.740270, X: 0.000000, Y: 0.000000, ALTITUDE: -0.000000, VX: 0.000000, VY: 0.000000, VZ: 0.000000 
TIME: 11.603974, ROLL: 0.020602, PITCH: 0.022019, YAW: 0.740270, X: 0.000000, Y: 0.000000, ALTITUDE: -0.000000, VX: 0.000000, VY: 0.000000, VZ: 0.000000 
TIME: 11.656698, ROLL: 0.020602, PITCH: 0.022019, YAW: 0.740270, X: 0.000000, Y: 0.000000, ALTITUDE: -0.000000, VX: 0.000000, VY: 0.000000, VZ: 0.000000 
TIME: 11.709828, ROLL: 0.020602, PITCH: 0.022019, YAW: 0.740270, X: 0.000000, Y: 0.000000, ALTITUDE: -0.000000, VX: 0.000000, VY: 0.000000, VZ: 0.000000 
TIME: 11.762550, ROLL: 0.020397, PITCH: 0.022239, YAW: 0.740293, X: 0.000000, Y: 0.000000, ALTITUDE: -0.000000, VX: 0.000000, VY: 0.000000, VZ: 0.000000 
TIME: 11.815372, ROLL: 0.020397, PITCH: 0.022239, YAW: 0.740293, X: 0.000000, Y: 0.000000, ALTITUDE: -0.000000, VX: 0.000000, VY: 0.000000, VZ: 0.000000 
TIME: 11.867895, ROLL: 0.020397, PITCH: 0.022239, YAW: 0.740293, X: 0.000000, Y: 0.000000, ALTITUDE: -0.000000, VX: 0.000000, VY: 0.000000, VZ: 0.000000 
TIME: 11.921533, ROLL: 0.020397, PITCH: 0.022239, YAW: 0.740293, X: 0.000000, Y: 0.000000, ALTITUDE: -0.000000, VX: 0.000000, VY: 0.000000, VZ: 0.000000 
TIME: 11.974405, ROLL: 0.020525, PITCH: 0.022200, YAW: 0.740256, X: 0.000000, Y: 0.000000, ALTITUDE: -0.000000, VX: 0.000000, VY: 0.000000, VZ: 0.000000 
TIME: 12.027245, ROLL: 0.020525, PITCH: 0.022200, YAW: 0.740256, X: 0.000000, Y: 0.000000, ALTITUDE: -0.000000, VX: 0.000000, VY: 0.000000, VZ: 0.000000 
TIME: 12.079974, ROLL: 0.020525, PITCH: 0.022200, YAW: 0.740256, X: 0.000000, Y: 0.000000, ALTITUDE: -0.000000, VX: 0.000000, VY: 0.000000, VZ: 0.000000 
TIME: 12.133450, ROLL: 0.020525, PITCH: 0.022200, YAW: 0.740256, X: 0.000000, Y: 0.000000, ALTITUDE: -0.000000, VX: 0.000000, VY: 0.000000, VZ: 0.000000 
TIME: 12.187034, ROLL: 0.020612, PITCH: 0.021970, YAW: 0.740271, X: 0.000000, Y: 0.000000, ALTITUDE: -0.000000, VX: 0.000000, VY: 0.000000, VZ: 0.000000 
TIME: 12.239783, ROLL: 0.020612, PITCH: 0.021970, YAW: 0.740271, X: 0.000000, Y: 0.000000, ALTITUDE: -0.000000, VX: 0.000000, VY: 0.000000, VZ: 0.000000 
TIME: 12.292424, ROLL: 0.020612, PITCH: 0.021970, YAW: 0.740271, X: 0.000000, Y: 0.000000, ALTITUDE: -0.000000, VX: 0.000000, VY: 0.000000, VZ: 0.000000 
TIME: 12.345238, ROLL: 0.020612, PITCH: 0.021970, YAW: 0.740271, X: 0.000000, Y: 0.000000, ALTITUDE: -0.000000, VX: 0.000000, VY: 0.000000, VZ: 0.000000 
TIME: 12.398191, ROLL: 0.020612, PITCH: 0.021970, YAW: 0.740271, X: 0.000000, Y: 0.000000, ALTITUDE: -0.000000, VX: 0.000000, VY: 0.000000, VZ: 0.000000 
TIME: 12.425388, ROLL: 0.020153, PITCH: 0.022204, YAW: 0.740407, X: 0.000000, Y: 0.000000, ALTITUDE: -0.000000, VX: 0.000000, VY: 0.000000, VZ: 0.000000 
TIME: 12.434447, ROLL: 0.020153, PITCH: 0.022204, YAW: 0.740407, X: 0.000000, Y: 0.000000, ALTITUDE: -0.000000, VX: 0.000000, VY: 0.000000, VZ: 0.000000 
TIME: 12.447348, ROLL: 0.020153, PITCH: 0.022204, YAW: 0.740407, X: 0.000000, Y: 0.000000, ALTITUDE: -0.000000, VX: 0.000000, VY: 0.000000, VZ: 0.000000 
TIME: 12.454814, ROLL: 0.020332, PITCH: 0.021506, YAW: 0.739639, X: 0.000000, Y: 0.000000, ALTITUDE: -0.000000, VX: 0.000000, VY: 0.000000, VZ: 0.000000 
TIME: 12.497177, ROLL: 0.020332, PITCH: 0.021506, YAW: 0.739639, X: 0.000000, Y: 0.000000, ALTITUDE: -0.000000, VX: 0.000000, VY: 0.000000, VZ: 0.000000 
TIME: 12.546641, ROLL: 0.020332, PITCH: 0.021506, YAW: 0.739639, X: 0.000000, Y: 0.000000, ALTITUDE: -0.000000, VX: 0.000000, VY: 0.000000, VZ: 0.000000 
TIME: 12.563069, ROLL: 0.020332, PITCH: 0.021506, YAW: 0.739639, X: 0.000000, Y: 0.000000, ALTITUDE: -0.000000, VX: 0.000000, VY: 0.000000, VZ: 0.000000 
TIME: 12.589227, ROLL: 0.020784, PITCH: 0.021116, YAW: 0.740538, X: 0.000000, Y: 0.000000, ALTITUDE: -0.000000, VX: 0.000000, VY: 0.000000, VZ: 0.000000 
TIME: 12.641922, ROLL: 0.020784, PITCH: 0.021116, YAW: 0.740538, X: 0.000000, Y: 0.000000, ALTITUDE: -0.000000, VX: 0.000000, VY: 0.000000, VZ: 0.000000 
TIME: 12.694418, ROLL: 0.020784, PITCH: 0.021116, YAW: 0.740538, X: 0.000000, Y: 0.000000, ALTITUDE: -0.000000, VX: 0.000000, VY: 0.000000, VZ: 0.000000 
TIME: 12.747952, ROLL: 0.020784, PITCH: 0.021116, YAW: 0.740538, X: 0.000000, Y: 0.000000, ALTITUDE: -0.000000, VX: 0.000000, VY: 0.000000, VZ: 0.000000 
TIME: 12.800885, ROLL: 0.019177, PITCH: 0.021457, YAW: 0.739497, X: 0.000000, Y: 0.000000, ALTITUDE: -0.000000, VX: 0.000000, VY: 0.000000, VZ: 0.000000 
TIME: 12.853674, ROLL: 0.019177, PITCH: 0.021457, YAW: 0.739497, X: 0.000000, Y: 0.000000, ALTITUDE: -0.000000, VX: 0.000000, VY: 0.000000, VZ: 0.000000 
TIME: 12.906320, ROLL: 0.019177, PITCH: 0.021457, YAW: 0.739497, X: 0.000000, Y: 0.000000, ALTITUDE: -0.000000, VX: 0.000000, VY: 0.000000, VZ: 0.000000 
TIME: 12.959397, ROLL: 0.019177, PITCH: 0.021457, YAW: 0.739497, X: 0.000000, Y: 0.000000, ALTITUDE: -0.000000, VX: 0.000000, VY: 0.000000, VZ: 0.000000 
TIME: 13.012196, ROLL: 0.019071, PITCH: 0.021708, YAW: 0.738375, X: 0.000000, Y: 0.000000, ALTITUDE: -0.000000, VX: 0.000000, VY: 0.000000, VZ: 0.000000 
TIME: 13.065203, ROLL: 0.019071, PITCH: 0.021708, YAW: 0.738375, X: 0.000000, Y: 0.000000, ALTITUDE: -0.000000, VX: 0.000000, VY: 0.000000, VZ: 0.000000 
TIME: 13.118006, ROLL: 0.019071, PITCH: 0.021708, YAW: 0.738375, X: 0.000000, Y: 0.000000, ALTITUDE: -0.000000, VX: 0.000000, VY: 0.000000, VZ: 0.000000 
TIME: 13.170624, ROLL: 0.019071, PITCH: 0.021708, YAW: 0.738375, X: 0.000000, Y: 0.000000, ALTITUDE: -0.000000, VX: 0.000000, VY: 0.000000, VZ: 0.000000 
TIME: 13.223304, ROLL: 0.019071, PITCH: 0.021708, YAW: 0.738375, X: 0.000000, Y: 0.000000, ALTITUDE: -0.000000, VX: 0.000000, VY: 0.000000, VZ: 0.000000 
TIME: 13.276428, ROLL: 0.018620, PITCH: 0.021643, YAW: 0.736850, X: 0.000000, Y: 0.000000, ALTITUDE: -0.000000, VX: 0.000000, VY: 0.000000, VZ: 0.000000 
TIME: 13.329050, ROLL: 0.018620, PITCH: 0.021643, YAW: 0.736850, X: 0.000000, Y: 0.000000, ALTITUDE: -0.000000, VX: 0.000000, VY: 0.000000, VZ: 0.000000 
TIME: 13.381838, ROLL: 0.018620, PITCH: 0.021643, YAW: 0.736850, X: 0.000000, Y: 0.000000, ALTITUDE: -0.000000, VX: 0.000000, VY: 0.000000, VZ: 0.000000 
TIME: 13.434553, ROLL: 0.021936, PITCH: 0.020849, YAW: 0.726481, X: 0.000000, Y: 0.000000, ALTITUDE: -0.000000, VX: 0.000000, VY: 0.000000, VZ: 0.000000 
TIME: 13.483660, ROLL: 0.021936, PITCH: 0.020849, YAW: 0.726481, X: 0.000000, Y: 0.000000, ALTITUDE: -0.000000, VX: 0.000000, VY: 0.000000, VZ: 0.000000 
TIME: 13.492499, ROLL: 0.021936, PITCH: 0.020849, YAW: 0.726481, X: 0.000000, Y: 0.000000, ALTITUDE: -0.000000, VX: 0.000000, VY: 0.000000, VZ: 0.000000 
TIME: 13.541365, ROLL: 0.021936, PITCH: 0.020849, YAW: 0.726481, X: 0.000000, Y: 0.000000, ALTITUDE: -0.000000, VX: 0.000000, VY: 0.000000, VZ: 0.000000 
TIME: 13.594538, ROLL: 0.018758, PITCH: 0.019836, YAW: 0.737090, X: 0.000000, Y: 0.000000, ALTITUDE: -0.000000, VX: 0.000000, VY: 0.000000, VZ: 0.000000 
TIME: 13.647521, ROLL: 0.018758, PITCH: 0.019836, YAW: 0.737090, X: 0.000000, Y: 0.000000, ALTITUDE: -0.000000, VX: 0.000000, VY: 0.000000, VZ: 0.000000 
TIME: 13.700577, ROLL: 0.018758, PITCH: 0.019836, YAW: 0.737090, X: 0.000000, Y: 0.000000, ALTITUDE: -0.000000, VX: 0.000000, VY: 0.000000, VZ: 0.000000 
TIME: 13.752370, ROLL: 0.018758, PITCH: 0.019836, YAW: 0.737090, X: 0.000000, Y: 0.000000, ALTITUDE: -0.000000, VX: 0.000000, VY: 0.000000, VZ: 0.000000 
TIME: 13.763498, ROLL: -0.027446, PITCH: 0.048129, YAW: 0.746217, X: 0.000000, Y: 0.000000, ALTITUDE: -0.000000, VX: 0.000000, VY: 0.000000, VZ: 0.000000 
TIME: 13.780637, ROLL: -0.027446, PITCH: 0.048129, YAW: 0.746217, X: -0.001369, Y: -0.005842, ALTITUDE: -0.007544, VX: -0.008801, VY: -0.037564, VZ: -0.129102 
TIME: 13.789702, ROLL: -0.027446, PITCH: 0.048129, YAW: 0.746217, X: -0.001369, Y: -0.005842, ALTITUDE: -0.007544, VX: -0.008801, VY: -0.037564, VZ: -0.129102 
TIME: 13.804699, ROLL: -0.027446, PITCH: 0.048129, YAW: 0.746217, X: -0.001369, Y: -0.005842, ALTITUDE: -0.007544, VX: -0.008801, VY: -0.037564, VZ: -0.129102 
TIME: 13.816880, ROLL: -0.027446, PITCH: 0.048129, YAW: 0.746217, X: -0.001369, Y: -0.005842, ALTITUDE: -0.007544, VX: -0.008801, VY: -0.037564, VZ: -0.129102 
TIME: 13.868624, ROLL: 0.004845, PITCH: -0.020826, YAW: 0.749853, X: -0.000596, Y: -0.006407, ALTITUDE: -0.055808, VX: 0.012277, VY: -0.008989, VZ: -0.313728 
TIME: 13.922040, ROLL: 0.004845, PITCH: -0.020826, YAW: 0.749853, X: -0.000596, Y: -0.006407, ALTITUDE: -0.055808, VX: 0.012277, VY: -0.008989, VZ: -0.313728 
TIME: 13.975257, ROLL: 0.004845, PITCH: -0.020826, YAW: 0.749853, X: -0.000596, Y: -0.006407, ALTITUDE: -0.055808, VX: 0.012277, VY: -0.008989, VZ: -0.313728 
TIME: 14.028203, ROLL: 0.004845, PITCH: -0.020826, YAW: 0.749853, X: -0.000596, Y: -0.006407, ALTITUDE: -0.055808, VX: 0.012277, VY: -0.008989, VZ: -0.313728 
TIME: 14.081113, ROLL: 0.053056, PITCH: -0.011280, YAW: 0.749481, X: -0.022765, Y: 0.016348, ALTITUDE: -0.055808, VX: -0.093156, VY: 0.095622, VZ: -0.653688 
TIME: 14.133745, ROLL: 0.053056, PITCH: -0.011280, YAW: 0.749481, X: -0.022765, Y: 0.016348, ALTITUDE: -0.150520, VX: -0.093156, VY: 0.095622, VZ: -0.653688 
TIME: 14.186525, ROLL: 0.053056, PITCH: -0.011280, YAW: 0.749481, X: -0.022765, Y: 0.016348, ALTITUDE: -0.150520, VX: -0.093156, VY: 0.095622, VZ: -0.653688 
TIME: 14.239276, ROLL: 0.053056, PITCH: -0.011280, YAW: 0.749481, X: -0.022765, Y: 0.016348, ALTITUDE: -0.150520, VX: -0.093156, VY: 0.095622, VZ: -0.653688 
TIME: 14.291989, ROLL: -0.032743, PITCH: 0.008721, YAW: 0.742497, X: -0.037623, Y: 0.017238, ALTITUDE: -0.301757, VX: -0.077970, VY: 0.004667, VZ: -0.833198 
TIME: 14.344655, ROLL: -0.032743, PITCH: 0.008721, YAW: 0.742497, X: -0.037623, Y: 0.017238, ALTITUDE: -0.301757, VX: -0.077970, VY: 0.004667, VZ: -0.833198 
TIME: 14.397431, ROLL: -0.032743, PITCH: 0.008721, YAW: 0.742497, X: -0.037623, Y: 0.017238, ALTITUDE: -0.301757, VX: -0.077970, VY: 0.004667, VZ: -0.833198 
TIME: 14.450207, ROLL: -0.032743, PITCH: 0.008721, YAW: 0.742497, X: -0.037623, Y: 0.017238, ALTITUDE: -0.301757, VX: -0.077970, VY: 0.004667, VZ: -0.833198 
TIME: 14.503146, ROLL: -0.033254, PITCH: -0.013663, YAW: 0.739005, X: -0.021752, Y: 0.009604, ALTITUDE: -0.488038, VX: 0.075515, VY: -0.036320, VZ: -0.933093 
TIME: 14.555756, ROLL: -0.033254, PITCH: -0.013663, YAW: 0.739005, X: -0.021752, Y: 0.009604, ALTITUDE: -0.488038, VX: 0.075515, VY: -0.036320, VZ: -0.933093 
TIME: 14.608611, ROLL: -0.033254, PITCH: -0.013663, YAW: 0.739005, X: -0.021752, Y: 0.009604, ALTITUDE: -0.488038, VX: 0.075515, VY: -0.036320, VZ: -0.933093 
TIME: 14.661366, ROLL: -0.033254, PITCH: -0.013663, YAW: 0.739005, X: -0.021752, Y: 0.009604, ALTITUDE: -0.488038, VX: 0.075515, VY: -0.036320, VZ: -0.933093 
TIME: 14.714358, ROLL: -0.009756, PITCH: -0.012662, YAW: 0.738301, X: 0.030283, Y: 0.012075, ALTITUDE: -0.692225, VX: 0.245230, VY: 0.011645, VZ: -0.768113 
TIME: 14.767220, ROLL: -0.009756, PITCH: -0.012662, YAW: 0.738301, X: 0.030283, Y: 0.012075, ALTITUDE: -0.692225, VX: 0.245230, VY: 0.011645, VZ: -0.768113 
TIME: 14.819919, ROLL: -0.009756, PITCH: -0.012662, YAW: 0.738301, X: 0.030283, Y: 0.012075, ALTITUDE: -0.692225, VX: 0.245230, VY: 0.011645, VZ: -0.768113 
TIME: 14.872665, ROLL: -0.009756, PITCH: -0.012662, YAW: 0.738301, X: 0.030283, Y: 0.012075, ALTITUDE: -0.692225, VX: 0.245230, VY: 0.011645, VZ: -0.768113 
TIME: 14.925610, ROLL: 0.020308, PITCH: 0.026889, YAW: 0.741656, X: 0.092412, Y: 0.016581, ALTITUDE: -0.852046, VX: 0.294983, VY: 0.021393, VZ: -0.494247 
TIME: 14.978320, ROLL: 0.020308, PITCH: 0.026889, YAW: 0.741656, X: 0.092412, Y: 0.016581, ALTITUDE: -0.852046, VX: 0.294983, VY: 0.021393, VZ: -0.494247 
TIME: 15.031141, ROLL: 0.020308, PITCH: 0.026889, YAW: 0.741656, X: 0.092412, Y: 0.016581, ALTITUDE: -0.852046, VX: 0.294983, VY: 0.021393, VZ: -0.494247 
TIME: 15.083828, ROLL: 0.020308, PITCH: 0.026889, YAW: 0.741656, X: 0.092412, Y: 0.016581, ALTITUDE: -0.852046, VX: 0.294983, VY: 0.021393, VZ: -0.494247 
TIME: 15.136854, ROLL: 0.039918, PITCH: 0.043779, YAW: 0.743268, X: 0.148670, Y: 0.024278, ALTITUDE: -0.852046, VX: 0.241177, VY: 0.032998, VZ: -0.274501 
TIME: 15.189680, ROLL: 0.039918, PITCH: 0.043779, YAW: 0.743268, X: 0.148670, Y: 0.024278, ALTITUDE: -0.954820, VX: 0.241177, VY: 0.032998, VZ: -0.274501 
TIME: 15.242602, ROLL: 0.039918, PITCH: 0.043779, YAW: 0.743268, X: 0.148670, Y: 0.024278, ALTITUDE: -0.954820, VX: 0.241177, VY: 0.032998, VZ: -0.274501 
TIME: 15.295213, ROLL: 0.039918, PITCH: 0.043779, YAW: 0.743268, X: 0.148670, Y: 0.024278, ALTITUDE: -0.954820, VX: 0.241177, VY: 0.032998, VZ: -0.274501 
TIME: 15.348271, ROLL: 0.036937, PITCH: 0.055606, YAW: 0.740255, X: 0.175542, Y: 0.026409, ALTITUDE: -1.008643, VX: 0.142132, VY: 0.011273, VZ: -0.127268 
TIME: 15.400952, ROLL: 0.036937, PITCH: 0.055606, YAW: 0.740255, X: 0.175542, Y: 0.026409, ALTITUDE: -1.008643, VX: 0.142132, VY: 0.011273, VZ: -0.127268 
TIME: 15.453870, ROLL: 0.036937, PITCH: 0.055606, YAW: 0.740255, X: 0.175542, Y: 0.026409, ALTITUDE: -1.008643, VX: 0.142132, VY: 0.011273, VZ: -0.127268 
TIME: 15.506603, ROLL: 0.036937, PITCH: 0.055606, YAW: 0.740255, X: 0.175542, Y: 0.026409, ALTITUDE: -1.008643, VX: 0.142132, VY: 0.011273, VZ: -0.127268 
TIME: 15.559314, ROLL: 0.031925, PITCH: 0.050313, YAW: 0.730270, X: 0.187552, Y: 0.024985, ALTITUDE: -1.040313, VX: 0.055188, VY: -0.006545, VZ: -0.042990 
TIME: 15.611811, ROLL: 0.031925, PITCH: 0.050313, YAW: 0.730270, X: 0.187552, Y: 0.024985, ALTITUDE: -1.040313, VX: 0.055188, VY: -0.006545, VZ: -0.042990 
TIME: 15.665004, ROLL: 0.031925, PITCH: 0.050313, YAW: 0.730270, X: 0.187552, Y: 0.024985, ALTITUDE: -1.040313, VX: 0.055188, VY: -0.006545, VZ: -0.042990 
TIME: 15.717347, ROLL: 0.031925, PITCH: 0.050313, YAW: 0.730270, X: 0.187552, Y: 0.024985, ALTITUDE: -1.040313, VX: 0.055188, VY: -0.006545, VZ: -0.042990 
TIME: 15.770370, ROLL: 0.037903, PITCH: 0.043964, YAW: 0.716341, X: 0.183542, Y: 0.023372, ALTITUDE: -1.039379, VX: -0.019369, VY: -0.007790, VZ: 0.019230 
TIME: 15.822256, ROLL: 0.037903, PITCH: 0.043964, YAW: 0.716341, X: 0.183542, Y: 0.023372, ALTITUDE: -1.039379, VX: -0.019369, VY: -0.007790, VZ: 0.019230 
TIME: 15.875098, ROLL: 0.037903, PITCH: 0.043964, YAW: 0.716341, X: 0.183542, Y: 0.023372, ALTITUDE: -1.039379, VX: -0.019369, VY: -0.007790, VZ: 0.019230 
TIME: 15.928170, ROLL: 0.037903, PITCH: 0.043964, YAW: 0.716341, X: 0.183542, Y: 0.023372, ALTITUDE: -1.039379, VX: -0.019369, VY: -0.007790, VZ: 0.019230 
TIME: 15.980781, ROLL: 0.028418, PITCH: 0.041099, YAW: 0.705560, X: 0.164885, Y: 0.024135, ALTITUDE: -1.031539, VX: -0.089236, VY: 0.003650, VZ: 0.034158 
TIME: 16.033278, ROLL: 0.028418, PITCH: 0.041099, YAW: 0.705560, X: 0.164885, Y: 0.024135, ALTITUDE: -1.031539, VX: -0.089236, VY: 0.003650, VZ: 0.034158 
TIME: 16.085835, ROLL: 0.028418, PITCH: 0.041099, YAW: 0.705560, X: 0.164885, Y: 0.024135, ALTITUDE: -1.031539, VX: -0.089236, VY: 0.003650, VZ: 0.034158 
TIME: 16.138884, ROLL: 0.028418, PITCH: 0.041099, YAW: 0.705560, X: 0.164885, Y: 0.024135, ALTITUDE: -1.031539, VX: -0.089236, VY: 0.003650, VZ: 0.034158 
TIME: 16.191460, ROLL: 0.012366, PITCH: 0.033921, YAW: 0.697796, X: 0.135321, Y: 0.023349, ALTITUDE: -1.031539, VX: -0.127555, VY: -0.003391, VZ: 0.014608 
TIME: 16.244099, ROLL: 0.012366, PITCH: 0.033921, YAW: 0.697796, X: 0.135321, Y: 0.023349, ALTITUDE: -1.023017, VX: -0.127555, VY: -0.003391, VZ: 0.014608 
TIME: 16.296436, ROLL: 0.012366, PITCH: 0.033921, YAW: 0.697796, X: 0.135321, Y: 0.023349, ALTITUDE: -1.023017, VX: -0.127555, VY: -0.003391, VZ: 0.014608 
TIME: 16.349167, ROLL: 0.012366, PITCH: 0.033921, YAW: 0.697796, X: 0.135321, Y: 0.023349, ALTITUDE: -1.023017, VX: -0.127555, VY: -0.003391, VZ: 0.014608 
TIME: 16.401957, ROLL: -0.008029, PITCH: 0.033965, YAW: 0.699800, X: 0.108631, Y: 0.017085, ALTITUDE: -1.019828, VX: -0.141606, VY: -0.033234, VZ: 0.010505 
TIME: 16.429327, ROLL: -0.008029, PITCH: 0.033965, YAW: 0.699800, X: 0.108631, Y: 0.017085, ALTITUDE: -1.019828, VX: -0.141606, VY: -0.033234, VZ: 0.010505 
TIME: 16.455544, ROLL: -0.008029, PITCH: 0.033965, YAW: 0.699800, X: 0.108631, Y: 0.017085, ALTITUDE: -1.019828, VX: -0.141606, VY: -0.033234, VZ: 0.010505 
TIME: 16.508186, ROLL: -0.008029, PITCH: 0.033965, YAW: 0.699800, X: 0.108631, Y: 0.017085, ALTITUDE: -1.019828, VX: -0.141606, VY: -0.033234, VZ: 0.010505 
TIME: 16.560816, ROLL: 0.015855, PITCH: 0.010724, YAW: 0.707756, X: 0.085922, Y: 0.010250, ALTITUDE: -1.007651, VX: -0.142329, VY: -0.042843, VZ: 0.031844 
TIME: 16.613529, ROLL: 0.015855, PITCH: 0.010724, YAW: 0.707756, X: 0.085922, Y: 0.010250, ALTITUDE: -1.007651, VX: -0.142329, VY: -0.042843, VZ: 0.031844 
TIME: 16.637827, ROLL: 0.015855, PITCH: 0.010724, YAW: 0.707756, X: 0.085922, Y: 0.010250, ALTITUDE: -1.007651, VX: -0.142329, VY: -0.042843, VZ: 0.031844 
TIME: 16.651651, ROLL: 0.015855, PITCH: 0.010724, YAW: 0.707756, X: 0.085922, Y: 0.010250, ALTITUDE: -1.007651, VX: -0.142329, VY: -0.042843, VZ: 0.031844 
TIME: 16.659657, ROLL: 0.045576, PITCH: -0.002303, YAW: 0.712922, X: 0.067490, Y: 0.011403, ALTITUDE: -1.000477, VX: -0.152108, VY: 0.009516, VZ: 0.015417 
TIME: 16.670883, ROLL: 0.045576, PITCH: -0.002303, YAW: 0.712922, X: 0.067490, Y: 0.011403, ALTITUDE: -1.000477, VX: -0.152108, VY: 0.009516, VZ: 0.015417 
TIME: 16.679401, ROLL: 0.045576, PITCH: -0.002303, YAW: 0.712922, X: 0.067490, Y: 0.011403, ALTITUDE: -1.000477, VX: -0.152108, VY: 0.009516, VZ: 0.015417 
TIME: 16.691271, ROLL: 0.045576, PITCH: -0.002303, YAW: 0.712922, X: 0.067490, Y: 0.011403, ALTITUDE: -1.000477, VX: -0.152108, VY: 0.009516, VZ: 0.015417 
TIME: 16.719851, ROLL: 0.032257, PITCH: -0.004565, YAW: 0.718630, X: 0.059603, Y: 0.013846, ALTITUDE: -1.000477, VX: -0.167222, VY: 0.051791, VZ: 0.005808 
TIME: 16.772606, ROLL: 0.032257, PITCH: -0.004565, YAW: 0.718630, X: 0.059603, Y: 0.013846, ALTITUDE: -0.995055, VX: -0.167222, VY: 0.051791, VZ: 0.005808 
TIME: 16.825693, ROLL: 0.032257, PITCH: -0.004565, YAW: 0.718630, X: 0.059603, Y: 0.013846, ALTITUDE: -0.995055, VX: -0.167222, VY: 0.051791, VZ: 0.005808 
TIME: 16.878281, ROLL: 0.032257, PITCH: -0.004565, YAW: 0.718630, X: 0.059603, Y: 0.013846, ALTITUDE: -0.995055, VX: -0.167222, VY: 0.051791, VZ: 0.005808 
TIME: 16.931431, ROLL: 0.018336, PITCH: -0.018641, YAW: 0.730893, X: 0.032674, Y: 0.032105, ALTITUDE: -0.995055, VX: -0.118733, VY: 0.080507, VZ: 0.017096 
TIME: 16.984266, ROLL: 0.018336, PITCH: -0.018641, YAW: 0.730893, X: 0.032674, Y: 0.032105, ALTITUDE: -0.984939, VX: -0.118733, VY: 0.080507, VZ: 0.017096 
TIME: 17.037035, ROLL: 0.018336, PITCH: -0.018641, YAW: 0.730893, X: 0.032674, Y: 0.032105, ALTITUDE: -0.984939, VX: -0.118733, VY: 0.080507, VZ: 0.017096 
TIME: 17.089731, ROLL: 0.018336, PITCH: -0.018641, YAW: 0.730893, X: 0.032674, Y: 0.032105, ALTITUDE: -0.984939, VX: -0.118733, VY: 0.080507, VZ: 0.017096 
TIME: 17.142469, ROLL: -0.016437, PITCH: -0.011295, YAW: 0.733571, X: 0.022862, Y: 0.050387, ALTITUDE: -0.990763, VX: -0.052969, VY: 0.098698, VZ: -0.001031 
TIME: 17.195122, ROLL: -0.016437, PITCH: -0.011295, YAW: 0.733571, X: 0.022862, Y: 0.050387, ALTITUDE: -0.990763, VX: -0.052969, VY: 0.098698, VZ: -0.001031 
TIME: 17.248816, ROLL: -0.016437, PITCH: -0.011295, YAW: 0.733571, X: 0.022862, Y: 0.050387, ALTITUDE: -0.990763, VX: -0.052969, VY: 0.098698, VZ: -0.001031 
TIME: 17.301817, ROLL: -0.016437, PITCH: -0.011295, YAW: 0.733571, X: 0.022862, Y: 0.050387, ALTITUDE: -0.990763, VX: -0.052969, VY: 0.098698, VZ: -0.001031 
TIME: 17.354712, ROLL: -0.032505, PITCH: -0.008096, YAW: 0.724261, X: 0.031321, Y: 0.060834, ALTITUDE: -0.984846, VX: 0.040097, VY: 0.049520, VZ: 0.007737 
TIME: 17.407501, ROLL: -0.032505, PITCH: -0.008096, YAW: 0.724261, X: 0.031321, Y: 0.060834, ALTITUDE: -0.984846, VX: 0.040097, VY: 0.049520, VZ: 0.007737 
TIME: 17.460415, ROLL: -0.032505, PITCH: -0.008096, YAW: 0.724261, X: 0.031321, Y: 0.060834, ALTITUDE: -0.984846, VX: 0.040097, VY: 0.049520, VZ: 0.007737 
TIME: 17.513641, ROLL: -0.032505, PITCH: -0.008096, YAW: 0.724261, X: 0.031321, Y: 0.060834, ALTITUDE: -0.984846, VX: 0.040097, VY: 0.049520, VZ: 0.007737 
TIME: 17.566954, ROLL: -0.007912, PITCH: 0.019006, YAW: 0.709139, X: 0.052126, Y: 0.069674, ALTITUDE: -0.983590, VX: 0.097207, VY: 0.041306, VZ: -0.000519 
TIME: 17.620449, ROLL: -0.007912, PITCH: 0.019006, YAW: 0.709139, X: 0.052126, Y: 0.069674, ALTITUDE: -0.983590, VX: 0.097207, VY: 0.041306, VZ: -0.000519 
TIME: 17.673569, ROLL: -0.007912, PITCH: 0.019006, YAW: 0.709139, X: 0.052126, Y: 0.069674, ALTITUDE: -0.983590, VX: 0.097207, VY: 0.041306, VZ: -0.000519 
TIME: 17.726839, ROLL: -0.007912, PITCH: 0.019006, YAW: 0.709139, X: 0.052126, Y: 0.069674, ALTITUDE: -0.983590, VX: 0.097207, VY: 0.041306, VZ: -0.000519 
TIME: 17.780392, ROLL: 0.002889, PITCH: 0.034983, YAW: 0.694786, X: 0.067262, Y: 0.085108, ALTITUDE: -0.981907, VX: 0.071111, VY: 0.072507, VZ: 0.000941 
TIME: 17.833395, ROLL: 0.002889, PITCH: 0.034983, YAW: 0.694786, X: 0.067262, Y: 0.085108, ALTITUDE: -0.981907, VX: 0.071111, VY: 0.072507, VZ: 0.000941 
TIME: 17.886703, ROLL: 0.002889, PITCH: 0.034983, YAW: 0.694786, X: 0.067262, Y: 0.085108, ALTITUDE: -0.981907, VX: 0.071111, VY: 0.072507, VZ: 0.000941 
TIME: 17.939915, ROLL: 0.002889, PITCH: 0.034983, YAW: 0.694786, X: 0.067262, Y: 0.085108, ALTITUDE: -0.981907, VX: 0.071111, VY: 0.072507, VZ: 0.000941 
TIME: 17.992971, ROLL: -0.025281, PITCH: 0.057402, YAW: 0.686113, X: 0.078174, Y: 0.095380, ALTITUDE: -0.981907, VX: 0.045664, VY: 0.042987, VZ: -0.018845 
TIME: 18.045897, ROLL: -0.025281, PITCH: 0.057402, YAW: 0.686113, X: 0.078174, Y: 0.095380, ALTITUDE: -0.984018, VX: 0.045664, VY: 0.042987, VZ: -0.018845 
TIME: 18.098612, ROLL: -0.025281, PITCH: 0.057402, YAW: 0.686113, X: 0.078174, Y: 0.095380, ALTITUDE: -0.984018, VX: 0.045664, VY: 0.042987, VZ: -0.018845 
TIME: 18.151056, ROLL: -0.025281, PITCH: 0.057402, YAW: 0.686113, X: 0.078174, Y: 0.095380, ALTITUDE: -0.984018, VX: 0.045664, VY: 0.042987, VZ: -0.018845 
TIME: 18.203857, ROLL: -0.014515, PITCH: 0.051144, YAW: 0.695877, X: 0.084789, Y: 0.097777, ALTITUDE: -0.986101, VX: 0.035935, VY: 0.013019, VZ: -0.029387 
TIME: 18.257433, ROLL: -0.014515, PITCH: 0.051144, YAW: 0.695877, X: 0.084789, Y: 0.097777, ALTITUDE: -0.986101, VX: 0.035935, VY: 0.013019, VZ: -0.029387 
TIME: 18.310583, ROLL: -0.014515, PITCH: 0.051144, YAW: 0.695877, X: 0.084789, Y: 0.097777, ALTITUDE: -0.986101, VX: 0.035935, VY: 0.013019, VZ: -0.029387 
TIME: 18.363100, ROLL: -0.014515, PITCH: 0.051144, YAW: 0.695877, X: 0.084789, Y: 0.097777, ALTITUDE: -0.986101, VX: 0.035935, VY: 0.013019, VZ: -0.029387 
TIME: 18.415916, ROLL: -0.031110, PITCH: 0.040548, YAW: 0.708354, X: 0.086495, Y: 0.090665, ALTITUDE: -0.996851, VX: 0.008008, VY: -0.033379, VZ: -0.020632 
TIME: 18.468582, ROLL: -0.031110, PITCH: 0.040548, YAW: 0.708354, X: 0.086495, Y: 0.090665, ALTITUDE: -0.996851, VX: 0.008008, VY: -0.033379, VZ: -0.020632 
TIME: 18.521690, ROLL: -0.031110, PITCH: 0.040548, YAW: 0.708354, X: 0.086495, Y: 0.090665, ALTITUDE: -0.996851, VX: 0.008008, VY: -0.033379, VZ: -0.020632 
TIME: 18.574078, ROLL: -0.031110, PITCH: 0.040548, YAW: 0.708354, X: 0.086495, Y: 0.090665, ALTITUDE: -0.996851, VX: 0.008008, VY: -0.033379, VZ: -0.020632 
TIME: 18.627037, ROLL: 0.001558, PITCH: 0.024281, YAW: 0.727149, X: 0.090355, Y: 0.080502, ALTITUDE: -1.006553, VX: 0.018230, VY: -0.048001, VZ: -0.003664 
TIME: 18.679480, ROLL: 0.001558, PITCH: 0.024281, YAW: 0.727149, X: 0.090355, Y: 0.080502, ALTITUDE: -1.006553, VX: 0.018230, VY: -0.048001, VZ: -0.003664 
TIME: 18.732647, ROLL: 0.001558, PITCH: 0.024281, YAW: 0.727149, X: 0.090355, Y: 0.080502, ALTITUDE: -1.006553, VX: 0.018230, VY: -0.048001, VZ: -0.003664 
TIME: 18.785116, ROLL: 0.001558, PITCH: 0.024281, YAW: 0.727149, X: 0.090355, Y: 0.080502, ALTITUDE: -1.006553, VX: 0.018230, VY: -0.048001, VZ: -0.003664 
TIME: 18.838339, ROLL: -0.054098, PITCH: 0.027503, YAW: 0.731253, X: 0.098117, Y: 0.066391, ALTITUDE: -1.006553, VX: 0.036643, VY: -0.066609, VZ: 0.026834 
TIME: 18.890711, ROLL: -0.054098, PITCH: 0.027503, YAW: 0.731253, X: 0.098117, Y: 0.066391, ALTITUDE: -0.999636, VX: 0.036643, VY: -0.066609, VZ: 0.026834 
TIME: 18.943514, ROLL: -0.054098, PITCH: 0.027503, YAW: 0.731253, X: 0.098117, Y: 0.066391, ALTITUDE: -0.999636, VX: 0.036643, VY: -0.066609, VZ: 0.026834 
TIME: 18.996113, ROLL: -0.054098, PITCH: 0.027503, YAW: 0.731253, X: 0.098117, Y: 0.066391, ALTITUDE: -0.999636, VX: 0.036643, VY: -0.066609, VZ: 0.026834 
TIME: 19.048998, ROLL: -0.016496, PITCH: 0.026161, YAW: 0.720794, X: 0.119313, Y: 0.030027, ALTITUDE: -0.999636, VX: 0.092496, VY: -0.158686, VZ: 0.039253 
TIME: 19.090414, ROLL: -0.016496, PITCH: 0.026161, YAW: 0.720794, X: 0.119313, Y: 0.030027, ALTITUDE: -0.997631, VX: 0.092496, VY: -0.158686, VZ: 0.039253 
TIME: 19.100590, ROLL: -0.016496, PITCH: 0.026161, YAW: 0.720794, X: 0.119313, Y: 0.030027, ALTITUDE: -0.997631, VX: 0.092496, VY: -0.158686, VZ: 0.039253 
TIME: 19.138622, ROLL: -0.016496, PITCH: 0.026161, YAW: 0.720794, X: 0.119313, Y: 0.030027, ALTITUDE: -0.997631, VX: 0.092496, VY: -0.158686, VZ: 0.039253 
TIME: 19.191504, ROLL: 0.017868, PITCH: 0.006856, YAW: 0.699048, X: 0.129269, Y: 0.021246, ALTITUDE: -1.008292, VX: 0.082179, VY: -0.072481, VZ: 0.010141 
TIME: 19.244240, ROLL: 0.017868, PITCH: 0.006856, YAW: 0.699048, X: 0.129269, Y: 0.021246, ALTITUDE: -1.008292, VX: 0.082179, VY: -0.072481, VZ: 0.010141 
TIME: 19.296707, ROLL: 0.017868, PITCH: 0.006856, YAW: 0.699048, X: 0.129269, Y: 0.021246, ALTITUDE: -1.008292, VX: 0.082179, VY: -0.072481, VZ: 0.010141 
TIME: 19.349436, ROLL: 0.017868, PITCH: 0.006856, YAW: 0.699048, X: 0.129269, Y: 0.021246, ALTITUDE: -1.008292, VX: 0.082179, VY: -0.072481, VZ: 0.010141 
