TIME: 0.000089, ROLL: 0.000000, PITCH: 0.000000, YAW: 0.000000, X: 0.000000, Y: 0.000000, ALTITUDE: 0.000000, VX: 0.000000, VY: 0.000000, VZ: 0.000000 
TIME: 0.054179, ROLL: 0.010050, PITCH: 0.013578, YAW: -0.000224, X: 0.000000, Y: 0.000000, ALTITUDE: 0.000000, VX: 0.000000, VY: 0.000000, VZ: 0.000000 
TIME: 0.107184, ROLL: 0.010050, PITCH: 0.013578, YAW: -0.000224, X: 0.000000, Y: 0.000000, ALTITUDE: 0.000000, VX: 0.000000, VY: 0.000000, VZ: 0.000000 
TIME: 0.160387, ROLL: 0.010050, PITCH: 0.013578, YAW: -0.000224, X: 0.000000, Y: 0.000000, ALTITUDE: 0.000000, VX: 0.000000, VY: 0.000000, VZ: 0.000000 
TIME: 0.213380, ROLL: 0.010211, PITCH: 0.013604, YAW: -0.000212, X: 0.000000, Y: 0.000000, ALTITUDE: 0.000000, VX: 0.000000, VY: 0.000000, VZ: 0.000000 
TIME: 0.266385, ROLL: 0.010211, PITCH: 0.013604, YAW: -0.000212, X: 0.000000, Y: 0.000000, ALTITUDE: 0.000000, VX: 0.000000, VY: 0.000000, VZ: 0.000000 
TIME: 0.319121, ROLL: 0.010211, PITCH: 0.013604, YAW: -0.000212, X: 0.000000, Y: 0.000000, ALTITUDE: 0.000000, VX: 0.000000, VY: 0.000000, VZ: 0.000000 
TIME: 0.373270, ROLL: 0.010211, PITCH: 0.013604, YAW: -0.000212, X: 0.000000, Y: 0.000000, ALTITUDE: 0.000000, VX: 0.000000, VY: 0.000000, VZ: 0.000000 
TIME: 0.427374, ROLL: 0.010012, PITCH: 0.013449, YAW: -0.000180, X: 0.000000, Y: 0.000000, ALTITUDE: 0.000000, VX: 0.000000, VY: 0.000000, VZ: 0.000000 
TIME: 0.480571, ROLL: 0.010012, PITCH: 0.013449, YAW: -0.000180, X: 0.000000, Y: 0.000000, ALTITUDE: 0.000000, VX: 0.000000, VY: 0.000000, VZ: 0.000000 
TIME: 0.534392, ROLL: 0.010012, PITCH: 0.013449, YAW: -0.000180, X: 0.000000, Y: 0.000000, ALTITUDE: 0.000000, VX: 0.000000, VY: 0.000000, VZ: 0.000000 
TIME: 0.587077, ROLL: 0.010012, PITCH: 0.013449, YAW: -0.000180, X: 0.000000, Y: 0.000000, ALTITUDE: 0.000000, VX: 0.000000, VY: 0.000000, VZ: 0.000000 
TIME: 0.640645, ROLL: 0.010012, PITCH: 0.013449, YAW: -0.000180, X: 0.000000, Y: 0.000000, ALTITUDE: 0.000000, VX: 0.000000, VY: 0.000000, VZ: 0.000000 
TIME: 0.693776, ROLL: 0.009817, PITCH: 0.013374, YAW: -0.000205, X: 0.000000, Y: 0.000000, ALTITUDE: 0.000000, VX: 0.000000, VY: 0.000000, VZ: 0.000000 
TIME: 0.746423, ROLL: 0.009817, PITCH: 0.013374, YAW: -0.000205, X: 0.000000, Y: 0.000000, ALTITUDE: 0.000000, VX: 0.000000, VY: 0.000000, VZ: 0.000000 
TIME: 0.799000, ROLL: 0.009817, PITCH: 0.013374, YAW: -0.000205, X: 0.000000, Y: 0.000000, ALTITUDE: 0.000000, VX: 0.000000, VY: 0.000000, VZ: 0.000000 
TIME: 0.851906, ROLL: 0.009847, PITCH: 0.013452, YAW: -0.000196, X: 0.000000, Y: 0.000000, ALTITUDE: 0.000000, VX: 0.000000, VY: 0.000000, VZ: 0.000000 
TIME: 0.906911, ROLL: 0.009847, PITCH: 0.013452, YAW: -0.000196, X: 0.000000, Y: 0.000000, ALTITUDE: 0.000000, VX: 0.000000, VY: 0.000000, VZ: 0.000000 
TIME: 0.960806, ROLL: 0.009847, PITCH: 0.013452, YAW: -0.000196, X: 0.000000, Y: 0.000000, ALTITUDE: 0.000000, VX: 0.000000, VY: 0.000000, VZ: 0.000000 
TIME: 1.014247, ROLL: 0.009847, PITCH: 0.013452, YAW: -0.000196, X: 0.000000, Y: 0.000000, ALTITUDE: 0.000000, VX: 0.000000, VY: 0.000000, VZ: 0.000000 
TIME: 1.067115, ROLL: 0.009847, PITCH: 0.013452, YAW: -0.000196, X: 0.000000, Y: 0.000000, ALTITUDE: 0.000000, VX: 0.000000, VY: 0.000000, VZ: 0.000000 
TIME: 1.119597, ROLL: 0.009790, PITCH: 0.013521, YAW: -0.000188, X: 0.000000, Y: 0.000000, ALTITUDE: 0.000000, VX: 0.000000, VY: 0.000000, VZ: 0.000000 
TIME: 1.171966, ROLL: 0.009790, PITCH: 0.013521, YAW: -0.000188, X: 0.000000, Y: 0.000000, ALTITUDE: 0.000000, VX: 0.000000, VY: 0.000000, VZ: 0.000000 
TIME: 1.224713, ROLL: 0.009790, PITCH: 0.013521, YAW: -0.000188, X: 0.000000, Y: 0.000000, ALTITUDE: 0.000000, VX: 0.000000, VY: 0.000000, VZ: 0.000000 
TIME: 1.278981, ROLL: 0.009664, PITCH: 0.013424, YAW: -0.000219, X: 0.000000, Y: 0.000000, ALTITUDE: 0.000000, VX: 0.000000, VY: 0.000000, VZ: 0.000000 
TIME: 1.332995, ROLL: 0.009664, PITCH: 0.013424, YAW: -0.000219, X: 0.000000, Y: 0.000000, ALTITUDE: 0.000000, VX: 0.000000, VY: 0.000000, VZ: 0.000000 
TIME: 1.385549, ROLL: 0.009664, PITCH: 0.013424, YAW: -0.000219, X: 0.000000, Y: 0.000000, ALTITUDE: 0.000000, VX: 0.000000, VY: 0.000000, VZ: 0.000000 
TIME: 1.438866, ROLL: 0.009664, PITCH: 0.013424, YAW: -0.000219, X: 0.000000, Y: 0.000000, ALTITUDE: 0.000000, VX: 0.000000, VY: 0.000000, VZ: 0.000000 
TIME: 1.472288, ROLL: 0.009664, PITCH: 0.013424, YAW: -0.000219, X: 0.000000, Y: 0.000000, ALTITUDE: 0.000000, VX: 0.000000, VY: 0.000000, VZ: 0.000000 
TIME: 1.500540, ROLL: 0.009745, PITCH: 0.013486, YAW: -0.000242, X: 0.000000, Y: 0.000000, ALTITUDE: 0.000000, VX: 0.000000, VY: 0.000000, VZ: 0.000000 
TIME: 1.536371, ROLL: 0.009745, PITCH: 0.013486, YAW: -0.000242, X: 0.000000, Y: 0.000000, ALTITUDE: 0.000000, VX: 0.000000, VY: 0.000000, VZ: 0.000000 
TIME: 1.579425, ROLL: 0.009745, PITCH: 0.013486, YAW: -0.000242, X: 0.000000, Y: 0.000000, ALTITUDE: 0.000000, VX: 0.000000, VY: 0.000000, VZ: 0.000000 
TIME: 1.616299, ROLL: 0.009871, PITCH: 0.013471, YAW: -0.000231, X: 0.000000, Y: 0.000000, ALTITUDE: 0.000000, VX: 0.000000, VY: 0.000000, VZ: 0.000000 
TIME: 1.664407, ROLL: 0.009871, PITCH: 0.013471, YAW: -0.000231, X: 0.000000, Y: 0.000000, ALTITUDE: 0.000000, VX: 0.000000, VY: 0.000000, VZ: 0.000000 
TIME: 1.708451, ROLL: 0.009871, PITCH: 0.013471, YAW: -0.000231, X: 0.000000, Y: 0.000000, ALTITUDE: 0.000000, VX: 0.000000, VY: 0.000000, VZ: 0.000000 
TIME: 1.761115, ROLL: 0.009871, PITCH: 0.013471, YAW: -0.000231, X: 0.000000, Y: 0.000000, ALTITUDE: 0.000000, VX: 0.000000, VY: 0.000000, VZ: 0.000000 
TIME: 1.813957, ROLL: 0.009864, PITCH: 0.013510, YAW: -0.000273, X: 0.000000, Y: 0.000000, ALTITUDE: 0.000000, VX: 0.000000, VY: 0.000000, VZ: 0.000000 
TIME: 1.866967, ROLL: 0.009864, PITCH: 0.013510, YAW: -0.000273, X: 0.000000, Y: 0.000000, ALTITUDE: 0.000000, VX: 0.000000, VY: 0.000000, VZ: 0.000000 
TIME: 1.920140, ROLL: 0.009864, PITCH: 0.013510, YAW: -0.000273, X: 0.000000, Y: 0.000000, ALTITUDE: 0.000000, VX: 0.000000, VY: 0.000000, VZ: 0.000000 
TIME: 1.973308, ROLL: 0.009864, PITCH: 0.013510, YAW: -0.000273, X: 0.000000, Y: 0.000000, ALTITUDE: 0.000000, VX: 0.000000, VY: 0.000000, VZ: 0.000000 
TIME: 2.026404, ROLL: 0.009864, PITCH: 0.013510, YAW: -0.000273, X: 0.000000, Y: 0.000000, ALTITUDE: 0.000000, VX: 0.000000, VY: 0.000000, VZ: 0.000000 
TIME: 2.079024, ROLL: 0.009792, PITCH: 0.013718, YAW: -0.000263, X: 0.000000, Y: 0.000000, ALTITUDE: 0.000000, VX: 0.000000, VY: 0.000000, VZ: 0.000000 
TIME: 2.131887, ROLL: 0.009792, PITCH: 0.013718, YAW: -0.000263, X: 0.000000, Y: 0.000000, ALTITUDE: 0.000000, VX: 0.000000, VY: 0.000000, VZ: 0.000000 
TIME: 2.184564, ROLL: 0.009792, PITCH: 0.013718, YAW: -0.000263, X: 0.000000, Y: 0.000000, ALTITUDE: 0.000000, VX: 0.000000, VY: 0.000000, VZ: 0.000000 
TIME: 2.237310, ROLL: 0.009848, PITCH: 0.013848, YAW: -0.000228, X: 0.000000, Y: 0.000000, ALTITUDE: 0.000000, VX: 0.000000, VY: 0.000000, VZ: 0.000000 
TIME: 2.290145, ROLL: 0.009848, PITCH: 0.013848, YAW: -0.000228, X: 0.000000, Y: 0.000000, ALTITUDE: 0.000000, VX: 0.000000, VY: 0.000000, VZ: 0.000000 
TIME: 2.343518, ROLL: 0.009848, PITCH: 0.013848, YAW: -0.000228, X: 0.000000, Y: 0.000000, ALTITUDE: 0.000000, VX: 0.000000, VY: 0.000000, VZ: 0.000000 
TIME: 2.396501, ROLL: 0.009848, PITCH: 0.013848, YAW: -0.000228, X: 0.000000, Y: 0.000000, ALTITUDE: 0.000000, VX: 0.000000, VY: 0.000000, VZ: 0.000000 
TIME: 2.449800, ROLL: 0.009848, PITCH: 0.013848, YAW: -0.000228, X: 0.000000, Y: 0.000000, ALTITUDE: 0.000000, VX: 0.000000, VY: 0.000000, VZ: 0.000000 
TIME: 2.502542, ROLL: 0.009735, PITCH: 0.013896, YAW: -0.000189, X: 0.000000, Y: 0.000000, ALTITUDE: 0.000000, VX: 0.000000, VY: 0.000000, VZ: 0.000000 
TIME: 2.555889, ROLL: 0.009735, PITCH: 0.013896, YAW: -0.000189, X: 0.000000, Y: 0.000000, ALTITUDE: 0.000000, VX: 0.000000, VY: 0.000000, VZ: 0.000000 
TIME: 2.608326, ROLL: 0.009735, PITCH: 0.013896, YAW: -0.000189, X: 0.000000, Y: 0.000000, ALTITUDE: 0.000000, VX: 0.000000, VY: 0.000000, VZ: 0.000000 
TIME: 2.661543, ROLL: 0.009735, PITCH: 0.013896, YAW: -0.000189, X: 0.000000, Y: 0.000000, ALTITUDE: 0.000000, VX: 0.000000, VY: 0.000000, VZ: 0.000000 
TIME: 2.714283, ROLL: 0.009808, PITCH: 0.013630, YAW: -0.000243, X: 0.000000, Y: 0.000000, ALTITUDE: 0.000000, VX: 0.000000, VY: 0.000000, VZ: 0.000000 
TIME: 2.767103, ROLL: 0.009808, PITCH: 0.013630, YAW: -0.000243, X: 0.000000, Y: 0.000000, ALTITUDE: 0.000000, VX: 0.000000, VY: 0.000000, VZ: 0.000000 
TIME: 2.819892, ROLL: 0.009808, PITCH: 0.013630, YAW: -0.000243, X: 0.000000, Y: 0.000000, ALTITUDE: 0.000000, VX: 0.000000, VY: 0.000000, VZ: 0.000000 
TIME: 2.872762, ROLL: 0.009808, PITCH: 0.013630, YAW: -0.000243, X: 0.000000, Y: 0.000000, ALTITUDE: 0.000000, VX: 0.000000, VY: 0.000000, VZ: 0.000000 
TIME: 2.925955, ROLL: 0.009681, PITCH: 0.013553, YAW: -0.000253, X: 0.000000, Y: 0.000000, ALTITUDE: 0.000000, VX: 0.000000, VY: 0.000000, VZ: 0.000000 
TIME: 2.978677, ROLL: 0.009681, PITCH: 0.013553, YAW: -0.000253, X: 0.000000, Y: 0.000000, ALTITUDE: 0.000000, VX: 0.000000, VY: 0.000000, VZ: 0.000000 
TIME: 3.031503, ROLL: 0.009681, PITCH: 0.013553, YAW: -0.000253, X: 0.000000, Y: 0.000000, ALTITUDE: 0.000000, VX: 0.000000, VY: 0.000000, VZ: 0.000000 
TIME: 3.084222, ROLL: 0.009681, PITCH: 0.013553, YAW: -0.000253, X: 0.000000, Y: 0.000000, ALTITUDE: 0.000000, VX: 0.000000, VY: 0.000000, VZ: 0.000000 
TIME: 3.138022, ROLL: 0.009756, PITCH: 0.013573, YAW: -0.000286, X: 0.000000, Y: 0.000000, ALTITUDE: 0.000000, VX: 0.000000, VY: 0.000000, VZ: 0.000000 
TIME: 3.191797, ROLL: 0.009756, PITCH: 0.013573, YAW: -0.000286, X: 0.000000, Y: 0.000000, ALTITUDE: 0.000000, VX: 0.000000, VY: 0.000000, VZ: 0.000000 
TIME: 3.208575, ROLL: 0.009756, PITCH: 0.013573, YAW: -0.000286, X: 0.000000, Y: 0.000000, ALTITUDE: 0.000000, VX: 0.000000, VY: 0.000000, VZ: 0.000000 
TIME: 3.219309, ROLL: 0.009756, PITCH: 0.013573, YAW: -0.000286, X: 0.000000, Y: 0.000000, ALTITUDE: 0.000000, VX: 0.000000, VY: 0.000000, VZ: 0.000000 
TIME: 3.227341, ROLL: 0.009760, PITCH: 0.013577, YAW: -0.000259, X: 0.000000, Y: 0.000000, ALTITUDE: 0.000000, VX: 0.000000, VY: 0.000000, VZ: 0.000000 
TIME: 3.238161, ROLL: 0.009760, PITCH: 0.013577, YAW: -0.000259, X: 0.000000, Y: 0.000000, ALTITUDE: 0.000000, VX: 0.000000, VY: 0.000000, VZ: 0.000000 
TIME: 3.274904, ROLL: 0.009760, PITCH: 0.013577, YAW: -0.000259, X: 0.000000, Y: 0.000000, ALTITUDE: 0.000000, VX: 0.000000, VY: 0.000000, VZ: 0.000000 
TIME: 3.328051, ROLL: 0.009760, PITCH: 0.013577, YAW: -0.000259, X: 0.000000, Y: 0.000000, ALTITUDE: 0.000000, VX: 0.000000, VY: 0.000000, VZ: 0.000000 
TIME: 3.381240, ROLL: 0.009859, PITCH: 0.013584, YAW: -0.000279, X: 0.000000, Y: 0.000000, ALTITUDE: 0.000000, VX: 0.000000, VY: 0.000000, VZ: 0.000000 
TIME: 3.433969, ROLL: 0.009859, PITCH: 0.013584, YAW: -0.000279, X: 0.000000, Y: 0.000000, ALTITUDE: 0.000000, VX: 0.000000, VY: 0.000000, VZ: 0.000000 
TIME: 3.485435, ROLL: 0.009859, PITCH: 0.013584, YAW: -0.000279, X: 0.000000, Y: 0.000000, ALTITUDE: 0.000000, VX: 0.000000, VY: 0.000000, VZ: 0.000000 
TIME: 3.538591, ROLL: 0.009859, PITCH: 0.013584, YAW: -0.000279, X: 0.000000, Y: 0.000000, ALTITUDE: 0.000000, VX: 0.000000, VY: 0.000000, VZ: 0.000000 
TIME: 3.591610, ROLL: 0.009925, PITCH: 0.013333, YAW: -0.000246, X: 0.000000, Y: 0.000000, ALTITUDE: 0.000000, VX: 0.000000, VY: 0.000000, VZ: 0.000000 
TIME: 3.644286, ROLL: 0.009925, PITCH: 0.013333, YAW: -0.000246, X: 0.000000, Y: 0.000000, ALTITUDE: 0.000000, VX: 0.000000, VY: 0.000000, VZ: 0.000000 
TIME: 3.697622, ROLL: 0.009925, PITCH: 0.013333, YAW: -0.000246, X: 0.000000, Y: 0.000000, ALTITUDE: 0.000000, VX: 0.000000, VY: 0.000000, VZ: 0.000000 
TIME: 3.749982, ROLL: 0.009925, PITCH: 0.013333, YAW: -0.000246, X: 0.000000, Y: 0.000000, ALTITUDE: 0.000000, VX: 0.000000, VY: 0.000000, VZ: 0.000000 
TIME: 3.802777, ROLL: 0.009818, PITCH: 0.013420, YAW: -0.000273, X: 0.000000, Y: 0.000000, ALTITUDE: 0.000000, VX: 0.000000, VY: 0.000000, VZ: 0.000000 
TIME: 3.855466, ROLL: 0.009818, PITCH: 0.013420, YAW: -0.000273, X: 0.000000, Y: 0.000000, ALTITUDE: 0.000000, VX: 0.000000, VY: 0.000000, VZ: 0.000000 
TIME: 3.908500, ROLL: 0.009818, PITCH: 0.013420, YAW: -0.000273, X: 0.000000, Y: 0.000000, ALTITUDE: 0.000000, VX: 0.000000, VY: 0.000000, VZ: 0.000000 
TIME: 3.961157, ROLL: 0.009818, PITCH: 0.013420, YAW: -0.000273, X: 0.000000, Y: 0.000000, ALTITUDE: 0.000000, VX: 0.000000, VY: 0.000000, VZ: 0.000000 
TIME: 4.013936, ROLL: 0.009905, PITCH: 0.013378, YAW: -0.000336, X: 0.000000, Y: 0.000000, ALTITUDE: 0.000000, VX: 0.000000, VY: 0.000000, VZ: 0.000000 
TIME: 4.066547, ROLL: 0.009905, PITCH: 0.013378, YAW: -0.000336, X: 0.000000, Y: 0.000000, ALTITUDE: 0.000000, VX: 0.000000, VY: 0.000000, VZ: 0.000000 
TIME: 4.119427, ROLL: 0.009905, PITCH: 0.013378, YAW: -0.000336, X: 0.000000, Y: 0.000000, ALTITUDE: 0.000000, VX: 0.000000, VY: 0.000000, VZ: 0.000000 
TIME: 4.172067, ROLL: 0.009905, PITCH: 0.013378, YAW: -0.000336, X: 0.000000, Y: 0.000000, ALTITUDE: 0.000000, VX: 0.000000, VY: 0.000000, VZ: 0.000000 
TIME: 4.224749, ROLL: 0.009866, PITCH: 0.013708, YAW: -0.000368, X: 0.000000, Y: 0.000000, ALTITUDE: 0.000000, VX: 0.000000, VY: 0.000000, VZ: 0.000000 
TIME: 4.277154, ROLL: 0.009866, PITCH: 0.013708, YAW: -0.000368, X: 0.000000, Y: 0.000000, ALTITUDE: 0.000000, VX: 0.000000, VY: 0.000000, VZ: 0.000000 
TIME: 4.329941, ROLL: 0.009866, PITCH: 0.013708, YAW: -0.000368, X: 0.000000, Y: 0.000000, ALTITUDE: 0.000000, VX: 0.000000, VY: 0.000000, VZ: 0.000000 
TIME: 4.382628, ROLL: 0.009866, PITCH: 0.013708, YAW: -0.000368, X: 0.000000, Y: 0.000000, ALTITUDE: 0.000000, VX: 0.000000, VY: 0.000000, VZ: 0.000000 
TIME: 4.435502, ROLL: 0.009983, PITCH: 0.013792, YAW: -0.000396, X: 0.000000, Y: 0.000000, ALTITUDE: 0.000000, VX: 0.000000, VY: 0.000000, VZ: 0.000000 
TIME: 4.488091, ROLL: 0.009983, PITCH: 0.013792, YAW: -0.000396, X: 0.000000, Y: 0.000000, ALTITUDE: 0.000000, VX: 0.000000, VY: 0.000000, VZ: 0.000000 
TIME: 4.540709, ROLL: 0.009983, PITCH: 0.013792, YAW: -0.000396, X: 0.000000, Y: 0.000000, ALTITUDE: 0.000000, VX: 0.000000, VY: 0.000000, VZ: 0.000000 
TIME: 4.593221, ROLL: 0.009983, PITCH: 0.013792, YAW: -0.000396, X: 0.000000, Y: 0.000000, ALTITUDE: 0.000000, VX: 0.000000, VY: 0.000000, VZ: 0.000000 
TIME: 4.645990, ROLL: 0.010015, PITCH: 0.013865, YAW: -0.000368, X: 0.000000, Y: 0.000000, ALTITUDE: 0.000000, VX: 0.000000, VY: 0.000000, VZ: 0.000000 
TIME: 4.698793, ROLL: 0.010015, PITCH: 0.013865, YAW: -0.000368, X: 0.000000, Y: 0.000000, ALTITUDE: 0.000000, VX: 0.000000, VY: 0.000000, VZ: 0.000000 
TIME: 4.751389, ROLL: 0.010015, PITCH: 0.013865, YAW: -0.000368, X: 0.000000, Y: 0.000000, ALTITUDE: 0.000000, VX: 0.000000, VY: 0.000000, VZ: 0.000000 
TIME: 4.804213, ROLL: 0.010015, PITCH: 0.013865, YAW: -0.000368, X: 0.000000, Y: 0.000000, ALTITUDE: 0.000000, VX: 0.000000, VY: 0.000000, VZ: 0.000000 
TIME: 4.856949, ROLL: 0.010395, PITCH: 0.013784, YAW: -0.000403, X: 0.000000, Y: 0.000000, ALTITUDE: 0.000000, VX: 0.000000, VY: 0.000000, VZ: 0.000000 
TIME: 4.909638, ROLL: 0.010395, PITCH: 0.013784, YAW: -0.000403, X: 0.000000, Y: 0.000000, ALTITUDE: 0.000000, VX: 0.000000, VY: 0.000000, VZ: 0.000000 
TIME: 4.961983, ROLL: 0.010395, PITCH: 0.013784, YAW: -0.000403, X: 0.000000, Y: 0.000000, ALTITUDE: 0.000000, VX: 0.000000, VY: 0.000000, VZ: 0.000000 
TIME: 5.014586, ROLL: 0.010395, PITCH: 0.013784, YAW: -0.000403, X: 0.000000, Y: 0.000000, ALTITUDE: 0.000000, VX: 0.000000, VY: 0.000000, VZ: 0.000000 
TIME: 5.067231, ROLL: 0.010496, PITCH: 0.012961, YAW: 0.002175, X: 0.000000, Y: 0.000000, ALTITUDE: 0.000000, VX: 0.000000, VY: 0.000000, VZ: 0.000000 
TIME: 5.120057, ROLL: 0.010496, PITCH: 0.012961, YAW: 0.002175, X: 0.000000, Y: 0.000000, ALTITUDE: 0.000000, VX: 0.000000, VY: 0.000000, VZ: 0.000000 
TIME: 5.172749, ROLL: 0.010496, PITCH: 0.012961, YAW: 0.002175, X: 0.000000, Y: 0.000000, ALTITUDE: 0.000000, VX: 0.000000, VY: 0.000000, VZ: 0.000000 
TIME: 5.225530, ROLL: 0.010496, PITCH: 0.012961, YAW: 0.002175, X: 0.000000, Y: 0.000000, ALTITUDE: 0.000000, VX: 0.000000, VY: 0.000000, VZ: 0.000000 
TIME: 5.278376, ROLL: 0.010309, PITCH: 0.014299, YAW: -0.000293, X: 0.000000, Y: 0.000000, ALTITUDE: 0.000000, VX: 0.000000, VY: 0.000000, VZ: 0.000000 
TIME: 5.331102, ROLL: 0.010309, PITCH: 0.014299, YAW: -0.000293, X: 0.000000, Y: 0.000000, ALTITUDE: 0.000000, VX: 0.000000, VY: 0.000000, VZ: 0.000000 
TIME: 5.383661, ROLL: 0.010309, PITCH: 0.014299, YAW: -0.000293, X: 0.000000, Y: 0.000000, ALTITUDE: 0.000000, VX: 0.000000, VY: 0.000000, VZ: 0.000000 
TIME: 5.436402, ROLL: 0.010309, PITCH: 0.014299, YAW: -0.000293, X: 0.000000, Y: 0.000000, ALTITUDE: 0.000000, VX: 0.000000, VY: 0.000000, VZ: 0.000000 
TIME: 5.489036, ROLL: 0.009052, PITCH: 0.014311, YAW: -0.000246, X: 0.000000, Y: 0.000000, ALTITUDE: 0.000000, VX: 0.000000, VY: 0.000000, VZ: 0.000000 
TIME: 5.541632, ROLL: 0.009052, PITCH: 0.014311, YAW: -0.000246, X: 0.000000, Y: 0.000000, ALTITUDE: 0.000000, VX: 0.000000, VY: 0.000000, VZ: 0.000000 
TIME: 5.594259, ROLL: 0.009052, PITCH: 0.014311, YAW: -0.000246, X: 0.000000, Y: 0.000000, ALTITUDE: 0.000000, VX: 0.000000, VY: 0.000000, VZ: 0.000000 
TIME: 5.646926, ROLL: 0.009052, PITCH: 0.014311, YAW: -0.000246, X: 0.000000, Y: 0.000000, ALTITUDE: 0.000000, VX: 0.000000, VY: 0.000000, VZ: 0.000000 
TIME: 5.699571, ROLL: 0.009524, PITCH: 0.013834, YAW: 0.000303, X: 0.000000, Y: 0.000000, ALTITUDE: 0.000000, VX: 0.000000, VY: 0.000000, VZ: 0.000000 
TIME: 5.752203, ROLL: 0.009524, PITCH: 0.013834, YAW: 0.000303, X: 0.000000, Y: 0.000000, ALTITUDE: 0.000000, VX: 0.000000, VY: 0.000000, VZ: 0.000000 
TIME: 5.804936, ROLL: 0.009524, PITCH: 0.013834, YAW: 0.000303, X: 0.000000, Y: 0.000000, ALTITUDE: 0.000000, VX: 0.000000, VY: 0.000000, VZ: 0.000000 
TIME: 5.857594, ROLL: 0.009524, PITCH: 0.013834, YAW: 0.000303, X: 0.000000, Y: 0.000000, ALTITUDE: 0.000000, VX: 0.000000, VY: 0.000000, VZ: 0.000000 
TIME: 5.910288, ROLL: 0.009524, PITCH: 0.013834, YAW: 0.000303, X: 0.000000, Y: 0.000000, ALTITUDE: 0.000000, VX: 0.000000, VY: 0.000000, VZ: 0.000000 
TIME: 5.963052, ROLL: 0.009439, PITCH: 0.014065, YAW: -0.000253, X: 0.000000, Y: 0.000000, ALTITUDE: 0.000000, VX: 0.000000, VY: 0.000000, VZ: 0.000000 
TIME: 6.015513, ROLL: 0.009439, PITCH: 0.014065, YAW: -0.000253, X: 0.000000, Y: 0.000000, ALTITUDE: 0.000000, VX: 0.000000, VY: 0.000000, VZ: 0.000000 
TIME: 6.068107, ROLL: 0.009439, PITCH: 0.014065, YAW: -0.000253, X: 0.000000, Y: 0.000000, ALTITUDE: 0.000000, VX: 0.000000, VY: 0.000000, VZ: 0.000000 
TIME: 6.120566, ROLL: 0.009439, PITCH: 0.014065, YAW: -0.000253, X: 0.000000, Y: 0.000000, ALTITUDE: 0.000000, VX: 0.000000, VY: 0.000000, VZ: 0.000000 
TIME: 6.173420, ROLL: 0.008509, PITCH: 0.012596, YAW: 0.001026, X: 0.000000, Y: 0.000000, ALTITUDE: 0.000000, VX: 0.000000, VY: 0.000000, VZ: 0.000000 
TIME: 6.226169, ROLL: 0.008509, PITCH: 0.012596, YAW: 0.001026, X: 0.000000, Y: 0.000000, ALTITUDE: 0.000000, VX: 0.000000, VY: 0.000000, VZ: 0.000000 
TIME: 6.279024, ROLL: 0.008509, PITCH: 0.012596, YAW: 0.001026, X: 0.000000, Y: 0.000000, ALTITUDE: 0.000000, VX: 0.000000, VY: 0.000000, VZ: 0.000000 
TIME: 6.331463, ROLL: 0.008509, PITCH: 0.012596, YAW: 0.001026, X: 0.000000, Y: 0.000000, ALTITUDE: 0.000000, VX: 0.000000, VY: 0.000000, VZ: 0.000000 
TIME: 6.384280, ROLL: 0.006490, PITCH: 0.014816, YAW: 0.019229, X: 0.000000, Y: 0.000000, ALTITUDE: 0.000000, VX: 0.000000, VY: 0.000000, VZ: 0.000000 
TIME: 6.436850, ROLL: 0.006490, PITCH: 0.014816, YAW: 0.019229, X: 0.000000, Y: 0.000000, ALTITUDE: 0.000000, VX: 0.000000, VY: 0.000000, VZ: 0.000000 
TIME: 6.489245, ROLL: 0.006490, PITCH: 0.014816, YAW: 0.019229, X: 0.000000, Y: 0.000000, ALTITUDE: 0.000000, VX: 0.000000, VY: 0.000000, VZ: 0.000000 
TIME: 6.541832, ROLL: 0.006490, PITCH: 0.014816, YAW: 0.019229, X: 0.000000, Y: 0.000000, ALTITUDE: 0.000000, VX: 0.000000, VY: 0.000000, VZ: 0.000000 
TIME: 6.594786, ROLL: -0.033293, PITCH: 0.010944, YAW: 0.041930, X: 0.001578, Y: 0.000393, ALTITUDE: 0.004446, VX: 0.007337, VY: 0.001829, VZ: -0.110622 
TIME: 6.647208, ROLL: -0.033293, PITCH: 0.010944, YAW: 0.041930, X: 0.001578, Y: 0.000393, ALTITUDE: 0.004446, VX: 0.007337, VY: 0.001829, VZ: -0.110622 
TIME: 6.700001, ROLL: -0.033293, PITCH: 0.010944, YAW: 0.041930, X: 0.001578, Y: 0.000393, ALTITUDE: 0.004446, VX: 0.007337, VY: 0.001829, VZ: -0.110622 
TIME: 6.752567, ROLL: -0.033293, PITCH: 0.010944, YAW: 0.041930, X: 0.001578, Y: 0.000393, ALTITUDE: 0.004446, VX: 0.007337, VY: 0.001829, VZ: -0.110622 
TIME: 6.805582, ROLL: -0.032975, PITCH: 0.002298, YAW: 0.057008, X: 0.001578, Y: 0.000393, ALTITUDE: 0.004446, VX: 0.007337, VY: 0.001829, VZ: -0.110622 
TIME: 6.858558, ROLL: -0.032975, PITCH: 0.002298, YAW: 0.057008, X: 0.010309, Y: -0.005317, ALTITUDE: 0.052180, VX: 0.039589, VY: -0.025892, VZ: -0.338598 
TIME: 6.911400, ROLL: -0.032975, PITCH: 0.002298, YAW: 0.057008, X: 0.010309, Y: -0.005317, ALTITUDE: 0.052180, VX: 0.039589, VY: -0.025892, VZ: -0.338598 
TIME: 6.963882, ROLL: -0.032975, PITCH: 0.002298, YAW: 0.057008, X: 0.010309, Y: -0.005317, ALTITUDE: 0.052180, VX: 0.039589, VY: -0.025892, VZ: -0.338598 
TIME: 7.016537, ROLL: -0.032975, PITCH: 0.002298, YAW: 0.057008, X: 0.010309, Y: -0.005317, ALTITUDE: 0.052180, VX: 0.039589, VY: -0.025892, VZ: -0.338598 
TIME: 7.069394, ROLL: 0.032440, PITCH: 0.028619, YAW: 0.045141, X: 0.057045, Y: -0.050558, ALTITUDE: 0.148936, VX: 0.218555, VY: -0.211563, VZ: -0.616212 
TIME: 7.122033, ROLL: 0.032440, PITCH: 0.028619, YAW: 0.045141, X: 0.057045, Y: -0.050558, ALTITUDE: 0.148936, VX: 0.218555, VY: -0.211563, VZ: -0.616212 
TIME: 7.174301, ROLL: 0.032440, PITCH: 0.028619, YAW: 0.045141, X: 0.057045, Y: -0.050558, ALTITUDE: 0.148936, VX: 0.218555, VY: -0.211563, VZ: -0.616212 
TIME: 7.227005, ROLL: 0.032440, PITCH: 0.028619, YAW: 0.045141, X: 0.057045, Y: -0.050558, ALTITUDE: 0.148936, VX: 0.218555, VY: -0.211563, VZ: -0.616212 
TIME: 7.279797, ROLL: 0.040149, PITCH: 0.033551, YAW: 0.008518, X: 0.061782, Y: -0.040666, ALTITUDE: 0.302745, VX: 0.021860, VY: 0.045645, VZ: -0.820232 
TIME: 7.332752, ROLL: 0.040149, PITCH: 0.033551, YAW: 0.008518, X: 0.061782, Y: -0.040666, ALTITUDE: 0.302745, VX: 0.021860, VY: 0.045645, VZ: -0.820232 
TIME: 7.385260, ROLL: 0.040149, PITCH: 0.033551, YAW: 0.008518, X: 0.061782, Y: -0.040666, ALTITUDE: 0.302745, VX: 0.021860, VY: 0.045645, VZ: -0.820232 
TIME: 7.437757, ROLL: 0.040149, PITCH: 0.033551, YAW: 0.008518, X: 0.061782, Y: -0.040666, ALTITUDE: 0.302745, VX: 0.021860, VY: 0.045645, VZ: -0.820232 
TIME: 7.490504, ROLL: -0.029853, PITCH: 0.045250, YAW: -0.044515, X: 0.047198, Y: -0.012579, ALTITUDE: 0.488995, VX: -0.069221, VY: 0.133308, VZ: -0.901050 
TIME: 7.543159, ROLL: -0.029853, PITCH: 0.045250, YAW: -0.044515, X: 0.047198, Y: -0.012579, ALTITUDE: 0.488995, VX: -0.069221, VY: 0.133308, VZ: -0.901050 
TIME: 7.595888, ROLL: -0.008287, PITCH: -0.010356, YAW: -0.077643, X: 0.047198, Y: -0.012579, ALTITUDE: 0.488995, VX: -0.069221, VY: 0.133308, VZ: -0.901050 
TIME: 7.648376, ROLL: -0.008287, PITCH: -0.010356, YAW: -0.077643, X: 0.047198, Y: -0.012579, ALTITUDE: 0.488995, VX: -0.069221, VY: 0.133308, VZ: -0.901050 
TIME: 7.701040, ROLL: -0.008287, PITCH: -0.010356, YAW: -0.077643, X: 0.001335, Y: 0.051068, ALTITUDE: 0.696845, VX: -0.208493, VY: 0.289344, VZ: -0.788584 
TIME: 7.753822, ROLL: -0.008287, PITCH: -0.010356, YAW: -0.077643, X: 0.001335, Y: 0.051068, ALTITUDE: 0.696845, VX: -0.208493, VY: 0.289344, VZ: -0.788584 
TIME: 7.806549, ROLL: 0.020296, PITCH: -0.049783, YAW: -0.083405, X: 0.001335, Y: 0.051068, ALTITUDE: 0.696845, VX: -0.208493, VY: 0.289344, VZ: -0.788584 
TIME: 7.859192, ROLL: 0.020296, PITCH: -0.049783, YAW: -0.083405, X: 0.001335, Y: 0.051068, ALTITUDE: 0.696845, VX: -0.208493, VY: 0.289344, VZ: -0.788584 
TIME: 7.911878, ROLL: 0.020296, PITCH: -0.049783, YAW: -0.083405, X: -0.068517, Y: 0.176861, ALTITUDE: 0.854772, VX: -0.331477, VY: 0.596940, VZ: -0.513759 
TIME: 7.964666, ROLL: 0.020296, PITCH: -0.049783, YAW: -0.083405, X: -0.068517, Y: 0.176861, ALTITUDE: 0.854772, VX: -0.331477, VY: 0.596940, VZ: -0.513759 
TIME: 8.017436, ROLL: -0.059230, PITCH: -0.075849, YAW: -0.070567, X: -0.068517, Y: 0.176861, ALTITUDE: 0.854772, VX: -0.331477, VY: 0.596940, VZ: -0.513759 
TIME: 8.070229, ROLL: -0.059230, PITCH: -0.075849, YAW: -0.070567, X: -0.068517, Y: 0.176861, ALTITUDE: 0.854772, VX: -0.331477, VY: 0.596940, VZ: -0.513759 
TIME: 8.122829, ROLL: -0.059230, PITCH: -0.075849, YAW: -0.070567, X: -0.090517, Y: 0.326764, ALTITUDE: 0.944675, VX: -0.102064, VY: 0.695430, VZ: -0.278768 
TIME: 8.175588, ROLL: -0.059230, PITCH: -0.075849, YAW: -0.070567, X: -0.090517, Y: 0.326764, ALTITUDE: 0.944675, VX: -0.102064, VY: 0.695430, VZ: -0.278768 
TIME: 8.228375, ROLL: -0.059230, PITCH: -0.075849, YAW: -0.070567, X: -0.090517, Y: 0.326764, ALTITUDE: 0.944675, VX: -0.102064, VY: 0.695430, VZ: -0.278768 
TIME: 8.281025, ROLL: -0.059230, PITCH: -0.075849, YAW: -0.070567, X: -0.090517, Y: 0.326764, ALTITUDE: 0.944675, VX: -0.102064, VY: 0.695430, VZ: -0.278768 
TIME: 8.333889, ROLL: -0.116244, PITCH: -0.057730, YAW: -0.053800, X: -0.071266, Y: 0.441830, ALTITUDE: 0.981831, VX: 0.089514, VY: 0.535037, VZ: -0.103469 
TIME: 8.386763, ROLL: -0.116244, PITCH: -0.057730, YAW: -0.053800, X: -0.071266, Y: 0.441830, ALTITUDE: 0.981831, VX: 0.089514, VY: 0.535037, VZ: -0.103469 
TIME: 8.439598, ROLL: -0.109585, PITCH: -0.025799, YAW: -0.048412, X: -0.071266, Y: 0.441830, ALTITUDE: 0.981831, VX: 0.089514, VY: 0.535037, VZ: -0.103469 
TIME: 8.492379, ROLL: -0.109585, PITCH: -0.025799, YAW: -0.048412, X: -0.071266, Y: 0.441830, ALTITUDE: 0.981831, VX: 0.089514, VY: 0.535037, VZ: -0.103469 
TIME: 8.545002, ROLL: -0.109585, PITCH: -0.025799, YAW: -0.048412, X: -0.029925, Y: 0.519108, ALTITUDE: 1.003185, VX: 0.191140, VY: 0.357294, VZ: -0.025258 
TIME: 8.597790, ROLL: -0.109585, PITCH: -0.025799, YAW: -0.048412, X: -0.029925, Y: 0.519108, ALTITUDE: 1.003185, VX: 0.191140, VY: 0.357294, VZ: -0.025258 
TIME: 8.650405, ROLL: -0.159808, PITCH: -0.005430, YAW: -0.049104, X: -0.029925, Y: 0.519108, ALTITUDE: 1.003185, VX: 0.191140, VY: 0.357294, VZ: -0.025258 
TIME: 8.703173, ROLL: -0.159808, PITCH: -0.005430, YAW: -0.049104, X: -0.029925, Y: 0.519108, ALTITUDE: 1.003185, VX: 0.191140, VY: 0.357294, VZ: -0.025258 
TIME: 8.755949, ROLL: -0.159808, PITCH: -0.005430, YAW: -0.049104, X: 0.019470, Y: 0.543753, ALTITUDE: 1.007105, VX: 0.229172, VY: 0.114339, VZ: 0.003604 
TIME: 8.808739, ROLL: -0.159808, PITCH: -0.005430, YAW: -0.049104, X: 0.019470, Y: 0.543753, ALTITUDE: 1.007105, VX: 0.229172, VY: 0.114339, VZ: 0.003604 
TIME: 8.861502, ROLL: -0.190170, PITCH: 0.028911, YAW: -0.047017, X: 0.041448, Y: 0.529064, ALTITUDE: 1.007105, VX: 0.195377, VY: -0.130577, VZ: -0.004939 
TIME: 8.914078, ROLL: -0.190170, PITCH: 0.028911, YAW: -0.047017, X: 0.041448, Y: 0.529064, ALTITUDE: 1.007105, VX: 0.195377, VY: -0.130577, VZ: -0.004939 
TIME: 8.966743, ROLL: -0.190170, PITCH: 0.028911, YAW: -0.047017, X: 0.041448, Y: 0.529064, ALTITUDE: 1.003091, VX: 0.195377, VY: -0.130577, VZ: -0.004939 
TIME: 9.019486, ROLL: -0.190170, PITCH: 0.028911, YAW: -0.047017, X: 0.041448, Y: 0.529064, ALTITUDE: 1.003091, VX: 0.195377, VY: -0.130577, VZ: -0.004939 
TIME: 9.072180, ROLL: -0.178598, PITCH: 0.048623, YAW: -0.050541, X: 0.065742, Y: 0.454760, ALTITUDE: 1.003091, VX: 0.112872, VY: -0.345229, VZ: 0.018440 
TIME: 9.125066, ROLL: -0.178598, PITCH: 0.048623, YAW: -0.050541, X: 0.065742, Y: 0.454760, ALTITUDE: 1.003672, VX: 0.112872, VY: -0.345229, VZ: 0.018440 
TIME: 9.177632, ROLL: -0.178598, PITCH: 0.048623, YAW: -0.050541, X: 0.065742, Y: 0.454760, ALTITUDE: 1.003672, VX: 0.112872, VY: -0.345229, VZ: 0.018440 
TIME: 9.230384, ROLL: -0.178598, PITCH: 0.048623, YAW: -0.050541, X: 0.065742, Y: 0.454760, ALTITUDE: 1.003672, VX: 0.112872, VY: -0.345229, VZ: 0.018440 
TIME: 9.283168, ROLL: -0.115170, PITCH: 0.024912, YAW: -0.065365, X: 0.065742, Y: 0.454760, ALTITUDE: 1.003672, VX: 0.112872, VY: -0.345229, VZ: 0.018440 
TIME: 9.335874, ROLL: -0.115170, PITCH: 0.024912, YAW: -0.065365, X: 0.065742, Y: 0.454760, ALTITUDE: 1.003672, VX: 0.112872, VY: -0.345229, VZ: 0.018440 
TIME: 9.388554, ROLL: -0.115170, PITCH: 0.024912, YAW: -0.065365, X: 0.065742, Y: 0.454760, ALTITUDE: 1.003672, VX: 0.112872, VY: -0.345229, VZ: 0.018440 
TIME: 9.441430, ROLL: -0.115170, PITCH: 0.024912, YAW: -0.065365, X: 0.076061, Y: 0.294247, ALTITUDE: 0.999770, VX: 0.032189, VY: -0.500671, VZ: -0.002903 
TIME: 9.494155, ROLL: -0.084308, PITCH: 0.022669, YAW: -0.078415, X: 0.074275, Y: 0.234256, ALTITUDE: 0.999770, VX: -0.018475, VY: -0.620358, VZ: 0.002844 
TIME: 9.546881, ROLL: -0.084308, PITCH: 0.022669, YAW: -0.078415, X: 0.074275, Y: 0.234256, ALTITUDE: 0.999770, VX: -0.018475, VY: -0.620358, VZ: 0.002844 
TIME: 9.599391, ROLL: -0.084308, PITCH: 0.022669, YAW: -0.078415, X: 0.074275, Y: 0.234256, ALTITUDE: 0.999770, VX: -0.018475, VY: -0.620358, VZ: 0.002844 
TIME: 9.652211, ROLL: -0.084308, PITCH: 0.022669, YAW: -0.078415, X: 0.074275, Y: 0.234256, ALTITUDE: 0.997394, VX: -0.018475, VY: -0.620358, VZ: 0.002844 
TIME: 9.704699, ROLL: -0.011290, PITCH: 0.028600, YAW: -0.060693, X: 0.067942, Y: 0.090666, ALTITUDE: 0.997394, VX: -0.030056, VY: -0.681457, VZ: 0.022981 
TIME: 9.757390, ROLL: -0.011290, PITCH: 0.028600, YAW: -0.060693, X: 0.067942, Y: 0.090666, ALTITUDE: 0.997394, VX: -0.030056, VY: -0.681457, VZ: 0.022981 
TIME: 9.809973, ROLL: -0.011290, PITCH: 0.028600, YAW: -0.060693, X: 0.067942, Y: 0.090666, ALTITUDE: 0.989133, VX: -0.030056, VY: -0.681457, VZ: 0.022981 
TIME: 9.862707, ROLL: -0.011290, PITCH: 0.028600, YAW: -0.060693, X: 0.067942, Y: 0.090666, ALTITUDE: 0.989133, VX: -0.030056, VY: -0.681457, VZ: 0.022981 
TIME: 9.915336, ROLL: 0.055323, PITCH: 0.023216, YAW: -0.032810, X: 0.062111, Y: -0.026460, ALTITUDE: 0.989133, VX: -0.027776, VY: -0.557962, VZ: 0.010215 
TIME: 9.968149, ROLL: 0.055323, PITCH: 0.023216, YAW: -0.032810, X: 0.062111, Y: -0.026460, ALTITUDE: 0.988039, VX: -0.027776, VY: -0.557962, VZ: 0.010215 
TIME: 10.020825, ROLL: 0.055323, PITCH: 0.023216, YAW: -0.032810, X: 0.062111, Y: -0.026460, ALTITUDE: 0.988039, VX: -0.027776, VY: -0.557962, VZ: 0.010215 
TIME: 10.073150, ROLL: 0.055323, PITCH: 0.023216, YAW: -0.032810, X: 0.062111, Y: -0.026460, ALTITUDE: 0.988039, VX: -0.027776, VY: -0.557962, VZ: 0.010215 
TIME: 10.125446, ROLL: 0.062332, PITCH: 0.001829, YAW: -0.012303, X: 0.062077, Y: -0.091647, ALTITUDE: 0.988039, VX: -0.000160, VY: -0.309792, VZ: -0.000734 
TIME: 10.178124, ROLL: 0.062332, PITCH: 0.001829, YAW: -0.012303, X: 0.062077, Y: -0.091647, ALTITUDE: 0.974771, VX: -0.000160, VY: -0.309792, VZ: -0.000734 
TIME: 10.231232, ROLL: 0.062332, PITCH: 0.001829, YAW: -0.012303, X: 0.062077, Y: -0.091647, ALTITUDE: 0.974771, VX: -0.000160, VY: -0.309792, VZ: -0.000734 
TIME: 10.283924, ROLL: 0.062332, PITCH: 0.001829, YAW: -0.012303, X: 0.062077, Y: -0.091647, ALTITUDE: 0.974771, VX: -0.000160, VY: -0.309792, VZ: -0.000734 
TIME: 10.336721, ROLL: 0.026886, PITCH: -0.008308, YAW: -0.009756, X: 0.062077, Y: -0.091647, ALTITUDE: 0.974771, VX: -0.000160, VY: -0.309792, VZ: -0.000734 
TIME: 10.389465, ROLL: 0.026886, PITCH: -0.008308, YAW: -0.009756, X: 0.075173, Y: -0.133654, ALTITUDE: 0.971262, VX: 0.056827, VY: -0.182280, VZ: -0.021477 
TIME: 10.442243, ROLL: 0.026886, PITCH: -0.008308, YAW: -0.009756, X: 0.075173, Y: -0.133654, ALTITUDE: 0.971262, VX: 0.056827, VY: -0.182280, VZ: -0.021477 
TIME: 10.495015, ROLL: 0.026886, PITCH: -0.008308, YAW: -0.009756, X: 0.075173, Y: -0.133654, ALTITUDE: 0.971262, VX: 0.056827, VY: -0.182280, VZ: -0.021477 
TIME: 10.547794, ROLL: 0.084721, PITCH: 0.022511, YAW: -0.027512, X: 0.092773, Y: -0.142609, ALTITUDE: 0.971262, VX: 0.089327, VY: -0.045455, VZ: 0.011246 
TIME: 10.600651, ROLL: 0.084721, PITCH: 0.022511, YAW: -0.027512, X: 0.092773, Y: -0.142609, ALTITUDE: 0.962635, VX: 0.089327, VY: -0.045455, VZ: 0.011246 
TIME: 10.653420, ROLL: 0.084721, PITCH: 0.022511, YAW: -0.027512, X: 0.092773, Y: -0.142609, ALTITUDE: 0.962635, VX: 0.089327, VY: -0.045455, VZ: 0.011246 
TIME: 10.706194, ROLL: 0.084721, PITCH: 0.022511, YAW: -0.027512, X: 0.092773, Y: -0.142609, ALTITUDE: 0.962635, VX: 0.089327, VY: -0.045455, VZ: 0.011246 
TIME: 10.758442, ROLL: 0.086980, PITCH: 0.041603, YAW: -0.050935, X: 0.109564, Y: -0.122433, ALTITUDE: 0.962635, VX: 0.082117, VY: 0.098672, VZ: -0.007045 
TIME: 10.811140, ROLL: 0.086980, PITCH: 0.041603, YAW: -0.050935, X: 0.109564, Y: -0.122433, ALTITUDE: 0.972273, VX: 0.082117, VY: 0.098672, VZ: -0.007045 
TIME: 10.863757, ROLL: 0.086980, PITCH: 0.041603, YAW: -0.050935, X: 0.109564, Y: -0.122433, ALTITUDE: 0.972273, VX: 0.082117, VY: 0.098672, VZ: -0.007045 
TIME: 10.916505, ROLL: 0.086980, PITCH: 0.041603, YAW: -0.050935, X: 0.109564, Y: -0.122433, ALTITUDE: 0.972273, VX: 0.082117, VY: 0.098672, VZ: -0.007045 
TIME: 10.969372, ROLL: -0.004738, PITCH: 0.035610, YAW: -0.076397, X: 0.117566, Y: -0.098584, ALTITUDE: 0.972273, VX: 0.037342, VY: 0.111293, VZ: -0.028552 
TIME: 11.022430, ROLL: -0.004738, PITCH: 0.035610, YAW: -0.076397, X: 0.117566, Y: -0.098584, ALTITUDE: 0.969160, VX: 0.037342, VY: 0.111293, VZ: -0.028552 
TIME: 11.075107, ROLL: -0.004738, PITCH: 0.035610, YAW: -0.076397, X: 0.117566, Y: -0.098584, ALTITUDE: 0.969160, VX: 0.037342, VY: 0.111293, VZ: -0.028552 
TIME: 11.127819, ROLL: -0.004738, PITCH: 0.035610, YAW: -0.076397, X: 0.117566, Y: -0.098584, ALTITUDE: 0.969160, VX: 0.037342, VY: 0.111293, VZ: -0.028552 
TIME: 11.180681, ROLL: -0.008985, PITCH: 0.064670, YAW: -0.106275, X: 0.121511, Y: -0.088521, ALTITUDE: 0.969160, VX: 0.018723, VY: 0.047754, VZ: -0.062124 
TIME: 11.233384, ROLL: -0.008985, PITCH: 0.064670, YAW: -0.106275, X: 0.121511, Y: -0.088521, ALTITUDE: 0.985087, VX: 0.018723, VY: 0.047754, VZ: -0.062124 
TIME: 11.286059, ROLL: -0.008985, PITCH: 0.064670, YAW: -0.106275, X: 0.121511, Y: -0.088521, ALTITUDE: 0.985087, VX: 0.018723, VY: 0.047754, VZ: -0.062124 
TIME: 11.338941, ROLL: -0.008985, PITCH: 0.064670, YAW: -0.106275, X: 0.121511, Y: -0.088521, ALTITUDE: 0.985087, VX: 0.018723, VY: 0.047754, VZ: -0.062124 
TIME: 11.391705, ROLL: 0.017814, PITCH: 0.070476, YAW: -0.130354, X: 0.121511, Y: -0.088521, ALTITUDE: 0.985087, VX: 0.018723, VY: 0.047754, VZ: -0.062124 
TIME: 11.444632, ROLL: 0.017814, PITCH: 0.070476, YAW: -0.130354, X: 0.112131, Y: -0.061389, ALTITUDE: 0.995579, VX: -0.040185, VY: 0.116233, VZ: -0.048025 
TIME: 11.497568, ROLL: 0.017814, PITCH: 0.070476, YAW: -0.130354, X: 0.112131, Y: -0.061389, ALTITUDE: 0.995579, VX: -0.040185, VY: 0.116233, VZ: -0.048025 
TIME: 11.550384, ROLL: 0.017814, PITCH: 0.070476, YAW: -0.130354, X: 0.112131, Y: -0.061389, ALTITUDE: 0.995579, VX: -0.040185, VY: 0.116233, VZ: -0.048025 
TIME: 11.603200, ROLL: -0.014893, PITCH: 0.054400, YAW: -0.152806, X: 0.097791, Y: -0.041644, ALTITUDE: 0.995579, VX: -0.075719, VY: 0.104259, VZ: -0.037876 
TIME: 11.656563, ROLL: -0.014893, PITCH: 0.054400, YAW: -0.152806, X: 0.097791, Y: -0.041644, ALTITUDE: 1.005542, VX: -0.075719, VY: 0.104259, VZ: -0.037876 
TIME: 11.709262, ROLL: -0.014893, PITCH: 0.054400, YAW: -0.152806, X: 0.097791, Y: -0.041644, ALTITUDE: 1.005542, VX: -0.075719, VY: 0.104259, VZ: -0.037876 
TIME: 11.762148, ROLL: -0.014893, PITCH: 0.054400, YAW: -0.152806, X: 0.097791, Y: -0.041644, ALTITUDE: 1.005542, VX: -0.075719, VY: 0.104259, VZ: -0.037876 
TIME: 11.815019, ROLL: -0.003011, PITCH: 0.033980, YAW: -0.178345, X: 0.082788, Y: -0.023076, ALTITUDE: 1.005542, VX: -0.070403, VY: 0.087134, VZ: -0.032953 
TIME: 11.867924, ROLL: -0.003011, PITCH: 0.033980, YAW: -0.178345, X: 0.082788, Y: -0.023076, ALTITUDE: 1.013674, VX: -0.070403, VY: 0.087134, VZ: -0.032953 
TIME: 11.920696, ROLL: -0.003011, PITCH: 0.033980, YAW: -0.178345, X: 0.082788, Y: -0.023076, ALTITUDE: 1.013674, VX: -0.070403, VY: 0.087134, VZ: -0.032953 
TIME: 11.974814, ROLL: -0.003011, PITCH: 0.033980, YAW: -0.178345, X: 0.082788, Y: -0.023076, ALTITUDE: 1.013674, VX: -0.070403, VY: 0.087134, VZ: -0.032953 
TIME: 12.000717, ROLL: 0.032184, PITCH: 0.045067, YAW: -0.196042, X: 0.067835, Y: 0.004468, ALTITUDE: 1.013674, VX: -0.080223, VY: 0.147771, VZ: -0.035332 
TIME: 12.039832, ROLL: 0.032184, PITCH: 0.045067, YAW: -0.196042, X: 0.067835, Y: 0.004468, ALTITUDE: 1.021451, VX: -0.080223, VY: 0.147771, VZ: -0.035332 
TIME: 12.092483, ROLL: 0.032184, PITCH: 0.045067, YAW: -0.196042, X: 0.067835, Y: 0.004468, ALTITUDE: 1.021451, VX: -0.080223, VY: 0.147771, VZ: -0.035332 
TIME: 12.145202, ROLL: 0.032184, PITCH: 0.045067, YAW: -0.196042, X: 0.067835, Y: 0.004468, ALTITUDE: 1.021451, VX: -0.080223, VY: 0.147771, VZ: -0.035332 
TIME: 12.197977, ROLL: 0.040122, PITCH: 0.037109, YAW: -0.218632, X: 0.048548, Y: 0.053348, ALTITUDE: 1.021451, VX: -0.098641, VY: 0.249986, VZ: -0.044768 
TIME: 12.251186, ROLL: 0.040122, PITCH: 0.037109, YAW: -0.218632, X: 0.048548, Y: 0.053348, ALTITUDE: 1.036433, VX: -0.098641, VY: 0.249986, VZ: -0.044768 
TIME: 12.304058, ROLL: 0.040122, PITCH: 0.037109, YAW: -0.218632, X: 0.048548, Y: 0.053348, ALTITUDE: 1.036433, VX: -0.098641, VY: 0.249986, VZ: -0.044768 
TIME: 12.356834, ROLL: 0.040122, PITCH: 0.037109, YAW: -0.218632, X: 0.048548, Y: 0.053348, ALTITUDE: 1.036433, VX: -0.098641, VY: 0.249986, VZ: -0.044768 
TIME: 12.409674, ROLL: -0.022698, PITCH: 0.007976, YAW: -0.246893, X: 0.048548, Y: 0.053348, ALTITUDE: 1.036433, VX: -0.098641, VY: 0.249986, VZ: -0.044768 
TIME: 12.462920, ROLL: -0.022698, PITCH: 0.007976, YAW: -0.246893, X: 0.025523, Y: 0.130401, ALTITUDE: 1.045807, VX: -0.098061, VY: 0.328161, VZ: -0.019085 
TIME: 12.493284, ROLL: -0.022698, PITCH: 0.007976, YAW: -0.246893, X: 0.025523, Y: 0.130401, ALTITUDE: 1.045807, VX: -0.098061, VY: 0.328161, VZ: -0.019085 
TIME: 12.503505, ROLL: -0.022698, PITCH: 0.007976, YAW: -0.246893, X: 0.025523, Y: 0.130401, ALTITUDE: 1.045807, VX: -0.098061, VY: 0.328161, VZ: -0.019085 
TIME: 12.517960, ROLL: -0.078471, PITCH: -0.040112, YAW: -0.316151, X: 0.021430, Y: 0.148312, ALTITUDE: 1.045807, VX: -0.046525, VY: 0.203579, VZ: 0.009103 
TIME: 12.544869, ROLL: -0.078471, PITCH: -0.040112, YAW: -0.316151, X: 0.021430, Y: 0.148312, ALTITUDE: 1.045478, VX: -0.046525, VY: 0.203579, VZ: 0.009103 
TIME: 12.597570, ROLL: -0.078471, PITCH: -0.040112, YAW: -0.316151, X: 0.021430, Y: 0.148312, ALTITUDE: 1.045478, VX: -0.046525, VY: 0.203579, VZ: 0.009103 
TIME: 12.650441, ROLL: -0.078471, PITCH: -0.040112, YAW: -0.316151, X: 0.021430, Y: 0.148312, ALTITUDE: 1.045478, VX: -0.046525, VY: 0.203579, VZ: 0.009103 
TIME: 12.692862, ROLL: -0.010284, PITCH: -0.034960, YAW: -0.446528, X: 0.021430, Y: 0.148312, ALTITUDE: 1.045478, VX: -0.046525, VY: 0.203579, VZ: 0.009103 
TIME: 12.745532, ROLL: -0.010284, PITCH: -0.034960, YAW: -0.446528, X: 0.020617, Y: 0.174203, ALTITUDE: 1.040628, VX: -0.004594, VY: 0.146463, VZ: 0.037093 
TIME: 12.798296, ROLL: -0.010284, PITCH: -0.034960, YAW: -0.446528, X: 0.020617, Y: 0.174203, ALTITUDE: 1.040628, VX: -0.004594, VY: 0.146463, VZ: 0.037093 
TIME: 12.851035, ROLL: -0.010284, PITCH: -0.034960, YAW: -0.446528, X: 0.020617, Y: 0.174203, ALTITUDE: 1.040628, VX: -0.004594, VY: 0.146463, VZ: 0.037093 
TIME: 12.904667, ROLL: 0.011016, PITCH: 0.012158, YAW: -0.636220, X: 0.020617, Y: 0.174203, ALTITUDE: 1.040628, VX: -0.004594, VY: 0.146463, VZ: 0.037093 
TIME: 12.957569, ROLL: 0.011016, PITCH: 0.012158, YAW: -0.636220, X: 0.025987, Y: 0.228058, ALTITUDE: 1.028524, VX: 0.024780, VY: 0.248543, VZ: 0.057635 
TIME: 13.010119, ROLL: 0.011016, PITCH: 0.012158, YAW: -0.636220, X: 0.025987, Y: 0.228058, ALTITUDE: 1.028524, VX: 0.024780, VY: 0.248543, VZ: 0.057635 
TIME: 13.062910, ROLL: 0.011016, PITCH: 0.012158, YAW: -0.636220, X: 0.025987, Y: 0.228058, ALTITUDE: 1.028524, VX: 0.024780, VY: 0.248543, VZ: 0.057635 
TIME: 13.116063, ROLL: -0.152449, PITCH: -0.070353, YAW: -0.974165, X: 0.025987, Y: 0.228058, ALTITUDE: 1.028524, VX: 0.024780, VY: 0.248543, VZ: 0.057635 
TIME: 13.169042, ROLL: -0.152449, PITCH: -0.070353, YAW: -0.974165, X: 0.012665, Y: 0.249719, ALTITUDE: 1.014767, VX: -0.064843, VY: 0.105432, VZ: 0.123096 
TIME: 13.221968, ROLL: -0.152449, PITCH: -0.070353, YAW: -0.974165, X: 0.012665, Y: 0.249719, ALTITUDE: 1.014767, VX: -0.064843, VY: 0.105432, VZ: 0.123096 
TIME: 13.274530, ROLL: -0.152449, PITCH: -0.070353, YAW: -0.974165, X: 0.012665, Y: 0.249719, ALTITUDE: 1.014767, VX: -0.064843, VY: 0.105432, VZ: 0.123096 
TIME: 13.327087, ROLL: -0.152449, PITCH: -0.070353, YAW: -0.974165, X: 0.012665, Y: 0.249719, ALTITUDE: 1.014767, VX: -0.064843, VY: 0.105432, VZ: 0.123096 
TIME: 13.380379, ROLL: -0.043697, PITCH: -0.199797, YAW: -1.470857, X: -0.028752, Y: 0.210806, ALTITUDE: 1.022580, VX: -0.176033, VY: -0.165384, VZ: 0.009978 
TIME: 13.433008, ROLL: -0.043697, PITCH: -0.199797, YAW: -1.470857, X: -0.028752, Y: 0.210806, ALTITUDE: 1.022580, VX: -0.176033, VY: -0.165384, VZ: 0.009978 
TIME: 13.463867, ROLL: -0.043697, PITCH: -0.199797, YAW: -1.470857, X: -0.028752, Y: 0.210806, ALTITUDE: 1.022580, VX: -0.176033, VY: -0.165384, VZ: 0.009978 
TIME: 13.510712, ROLL: 0.031739, PITCH: -0.057269, YAW: -2.042581, X: -0.049358, Y: 0.196139, ALTITUDE: 1.022580, VX: -0.130022, VY: -0.092549, VZ: -0.015017 
TIME: 13.557027, ROLL: 0.031739, PITCH: -0.057269, YAW: -2.042581, X: -0.049358, Y: 0.196139, ALTITUDE: 0.993267, VX: -0.130022, VY: -0.092549, VZ: -0.015017 
TIME: 13.607959, ROLL: 0.031739, PITCH: -0.057269, YAW: -2.042581, X: -0.049358, Y: 0.196139, ALTITUDE: 0.993267, VX: -0.130022, VY: -0.092549, VZ: -0.015017 
TIME: 13.658593, ROLL: 0.031739, PITCH: -0.057269, YAW: -2.042581, X: -0.049358, Y: 0.196139, ALTITUDE: 0.993267, VX: -0.130022, VY: -0.092549, VZ: -0.015017 
TIME: 13.711203, ROLL: -0.003480, PITCH: -0.114615, YAW: -2.470049, X: -0.049358, Y: 0.196139, ALTITUDE: 0.993267, VX: -0.130022, VY: -0.092549, VZ: -0.015017 
TIME: 13.763805, ROLL: -0.003480, PITCH: -0.114615, YAW: -2.470049, X: -0.086209, Y: 0.199005, ALTITUDE: 1.002677, VX: -0.181746, VY: 0.014132, VZ: -0.083638 
TIME: 13.816109, ROLL: -0.003480, PITCH: -0.114615, YAW: -2.470049, X: -0.086209, Y: 0.199005, ALTITUDE: 1.002677, VX: -0.181746, VY: 0.014132, VZ: -0.083638 
TIME: 13.868814, ROLL: -0.003480, PITCH: -0.114615, YAW: -2.470049, X: -0.086209, Y: 0.199005, ALTITUDE: 1.002677, VX: -0.181746, VY: 0.014132, VZ: -0.083638 
TIME: 13.921208, ROLL: 0.105073, PITCH: -0.044481, YAW: -2.641946, X: -0.086209, Y: 0.199005, ALTITUDE: 1.002677, VX: -0.181746, VY: 0.014132, VZ: -0.083638 
TIME: 13.973717, ROLL: 0.105073, PITCH: -0.044481, YAW: -2.641946, X: -0.128088, Y: 0.183875, ALTITUDE: 1.017597, VX: -0.199137, VY: -0.071941, VZ: -0.080338 
TIME: 14.026137, ROLL: 0.105073, PITCH: -0.044481, YAW: -2.641946, X: -0.128088, Y: 0.183875, ALTITUDE: 1.017597, VX: -0.199137, VY: -0.071941, VZ: -0.080338 
TIME: 14.078615, ROLL: 0.105073, PITCH: -0.044481, YAW: -2.641946, X: -0.128088, Y: 0.183875, ALTITUDE: 1.017597, VX: -0.199137, VY: -0.071941, VZ: -0.080338 
TIME: 14.130927, ROLL: 0.132312, PITCH: 0.102849, YAW: -2.554074, X: -0.154919, Y: 0.132824, ALTITUDE: 1.017597, VX: -0.130379, VY: -0.248068, VZ: -0.061595 
TIME: 14.183639, ROLL: 0.132312, PITCH: 0.102849, YAW: -2.554074, X: -0.154919, Y: 0.132824, ALTITUDE: 1.042474, VX: -0.130379, VY: -0.248068, VZ: -0.061595 
TIME: 14.236151, ROLL: 0.132312, PITCH: 0.102849, YAW: -2.554074, X: -0.154919, Y: 0.132824, ALTITUDE: 1.042474, VX: -0.130379, VY: -0.248068, VZ: -0.061595 
TIME: 14.288603, ROLL: 0.132312, PITCH: 0.102849, YAW: -2.554074, X: -0.154919, Y: 0.132824, ALTITUDE: 1.042474, VX: -0.130379, VY: -0.248068, VZ: -0.061595 
TIME: 14.341393, ROLL: -0.015335, PITCH: 0.085008, YAW: -2.302189, X: -0.154919, Y: 0.132824, ALTITUDE: 1.042474, VX: -0.130379, VY: -0.248068, VZ: -0.061595 
TIME: 14.393975, ROLL: -0.015335, PITCH: 0.085008, YAW: -2.302189, X: -0.160477, Y: 0.117330, ALTITUDE: 1.031996, VX: -0.023926, VY: -0.066699, VZ: 0.031656 
TIME: 14.446380, ROLL: -0.015335, PITCH: 0.085008, YAW: -2.302189, X: -0.160477, Y: 0.117330, ALTITUDE: 1.031996, VX: -0.023926, VY: -0.066699, VZ: 0.031656 
TIME: 14.498994, ROLL: -0.015335, PITCH: 0.085008, YAW: -2.302189, X: -0.160477, Y: 0.117330, ALTITUDE: 1.031996, VX: -0.023926, VY: -0.066699, VZ: 0.031656 
TIME: 14.551605, ROLL: -0.054395, PITCH: 0.017789, YAW: -1.920646, X: -0.180330, Y: 0.143028, ALTITUDE: 1.031996, VX: -0.105007, VY: 0.135924, VZ: 0.057920 
TIME: 14.604481, ROLL: -0.054395, PITCH: 0.017789, YAW: -1.920646, X: -0.180330, Y: 0.143028, ALTITUDE: 1.014298, VX: -0.105007, VY: 0.135924, VZ: 0.057920 
TIME: 14.657124, ROLL: -0.054395, PITCH: 0.017789, YAW: -1.920646, X: -0.180330, Y: 0.143028, ALTITUDE: 1.014298, VX: -0.105007, VY: 0.135924, VZ: 0.057920 
TIME: 14.709858, ROLL: -0.054395, PITCH: 0.017789, YAW: -1.920646, X: -0.180330, Y: 0.143028, ALTITUDE: 1.014298, VX: -0.105007, VY: 0.135924, VZ: 0.057920 
TIME: 14.757674, ROLL: -0.006552, PITCH: 0.009729, YAW: -1.477663, X: -0.180330, Y: 0.143028, ALTITUDE: 1.014298, VX: -0.105007, VY: 0.135924, VZ: 0.057920 
TIME: 14.777830, ROLL: -0.006552, PITCH: 0.009729, YAW: -1.477663, X: -0.212520, Y: 0.171452, ALTITUDE: 1.005941, VX: -0.150573, VY: 0.132958, VZ: 0.011444 
TIME: 14.787143, ROLL: -0.006552, PITCH: 0.009729, YAW: -1.477663, X: -0.212520, Y: 0.171452, ALTITUDE: 1.005941, VX: -0.150573, VY: 0.132958, VZ: 0.011444 
TIME: 14.835960, ROLL: -0.006552, PITCH: 0.009729, YAW: -1.477663, X: -0.212520, Y: 0.171452, ALTITUDE: 1.005941, VX: -0.150573, VY: 0.132958, VZ: 0.011444 
TIME: 14.888747, ROLL: -0.052600, PITCH: 0.011562, YAW: -0.957896, X: -0.220153, Y: 0.179826, ALTITUDE: 1.005941, VX: -0.062470, VY: 0.068538, VZ: -0.005881 
TIME: 14.941703, ROLL: -0.052600, PITCH: 0.011562, YAW: -0.957896, X: -0.220153, Y: 0.179826, ALTITUDE: 1.003158, VX: -0.062470, VY: 0.068538, VZ: -0.005881 
TIME: 14.996300, ROLL: -0.052600, PITCH: 0.011562, YAW: -0.957896, X: -0.220153, Y: 0.179826, ALTITUDE: 1.003158, VX: -0.062470, VY: 0.068538, VZ: -0.005881 
TIME: 15.051787, ROLL: -0.052600, PITCH: 0.011562, YAW: -0.957896, X: -0.220153, Y: 0.179826, ALTITUDE: 1.003158, VX: -0.062470, VY: 0.068538, VZ: -0.005881 
TIME: 15.104615, ROLL: -0.099342, PITCH: -0.018983, YAW: -0.376177, X: -0.239885, Y: 0.186213, ALTITUDE: 1.003158, VX: -0.090482, VY: 0.029289, VZ: 0.011587 
TIME: 15.157345, ROLL: -0.099342, PITCH: -0.018983, YAW: -0.376177, X: -0.239885, Y: 0.186213, ALTITUDE: 0.989882, VX: -0.090482, VY: 0.029289, VZ: 0.011587 
TIME: 15.210027, ROLL: -0.099342, PITCH: -0.018983, YAW: -0.376177, X: -0.239885, Y: 0.186213, ALTITUDE: 0.989882, VX: -0.090482, VY: 0.029289, VZ: 0.011587 
TIME: 15.262473, ROLL: -0.099342, PITCH: -0.018983, YAW: -0.376177, X: -0.239885, Y: 0.186213, ALTITUDE: 0.989882, VX: -0.090482, VY: 0.029289, VZ: 0.011587 
TIME: 15.315193, ROLL: -0.099342, PITCH: -0.018983, YAW: -0.376177, X: -0.239885, Y: 0.186213, ALTITUDE: 0.989882, VX: -0.090482, VY: 0.029289, VZ: 0.011587 
TIME: 15.368060, ROLL: -0.068486, PITCH: -0.035365, YAW: 0.055793, X: -0.240252, Y: 0.192357, ALTITUDE: 0.971143, VX: -0.001562, VY: 0.026115, VZ: 0.150758 
TIME: 15.420604, ROLL: -0.068486, PITCH: -0.035365, YAW: 0.055793, X: -0.240252, Y: 0.192357, ALTITUDE: 0.971143, VX: -0.001562, VY: 0.026115, VZ: 0.150758 
TIME: 15.457561, ROLL: -0.068486, PITCH: -0.035365, YAW: 0.055793, X: -0.240252, Y: 0.192357, ALTITUDE: 0.971143, VX: -0.001562, VY: 0.026115, VZ: 0.150758 
TIME: 15.466422, ROLL: -0.081238, PITCH: -0.014587, YAW: 0.211049, X: -0.240252, Y: 0.192357, ALTITUDE: 0.971143, VX: -0.001562, VY: 0.026115, VZ: 0.150758 
TIME: 15.473755, ROLL: -0.081238, PITCH: -0.014587, YAW: 0.211049, X: -0.231871, Y: 0.194407, ALTITUDE: 0.954599, VX: 0.065812, VY: 0.016094, VZ: 0.078012 
TIME: 15.483335, ROLL: -0.081238, PITCH: -0.014587, YAW: 0.211049, X: -0.231871, Y: 0.194407, ALTITUDE: 0.954599, VX: 0.065812, VY: 0.016094, VZ: 0.078012 
TIME: 15.489883, ROLL: -0.081238, PITCH: -0.014587, YAW: 0.211049, X: -0.231871, Y: 0.194407, ALTITUDE: 0.954599, VX: 0.065812, VY: 0.016094, VZ: 0.078012 
TIME: 15.499293, ROLL: -0.100661, PITCH: 0.011272, YAW: 0.218672, X: -0.231871, Y: 0.194407, ALTITUDE: 0.954599, VX: 0.065812, VY: 0.016094, VZ: 0.078012 
TIME: 15.506429, ROLL: -0.100661, PITCH: 0.011272, YAW: 0.218672, X: -0.229516, Y: 0.194171, ALTITUDE: 0.940816, VX: 0.071794, VY: -0.007201, VZ: 0.015161 
TIME: 15.515507, ROLL: -0.100661, PITCH: 0.011272, YAW: 0.218672, X: -0.229516, Y: 0.194171, ALTITUDE: 0.940816, VX: 0.071794, VY: -0.007201, VZ: 0.015161 
TIME: 15.522327, ROLL: -0.100661, PITCH: 0.011272, YAW: 0.218672, X: -0.229516, Y: 0.194171, ALTITUDE: 0.940816, VX: 0.071794, VY: -0.007201, VZ: 0.015161 
TIME: 15.531601, ROLL: -0.076871, PITCH: 0.053724, YAW: 0.196249, X: -0.228409, Y: 0.192734, ALTITUDE: 0.940816, VX: 0.034951, VY: -0.045364, VZ: -0.000828 
TIME: 15.538157, ROLL: -0.076871, PITCH: 0.053724, YAW: 0.196249, X: -0.228409, Y: 0.192734, ALTITUDE: 0.936050, VX: 0.034951, VY: -0.045364, VZ: -0.000828 
TIME: 15.547463, ROLL: -0.076871, PITCH: 0.053724, YAW: 0.196249, X: -0.228409, Y: 0.192734, ALTITUDE: 0.936050, VX: 0.034951, VY: -0.045364, VZ: -0.000828 
TIME: 15.554418, ROLL: -0.076871, PITCH: 0.053724, YAW: 0.196249, X: -0.228409, Y: 0.192734, ALTITUDE: 0.936050, VX: 0.034951, VY: -0.045364, VZ: -0.000828 
TIME: 15.564029, ROLL: -0.086293, PITCH: 0.033228, YAW: 0.187850, X: -0.229582, Y: 0.190787, ALTITUDE: 0.936050, VX: -0.036187, VY: -0.060052, VZ: -0.019715 
TIME: 15.571529, ROLL: -0.086293, PITCH: 0.033228, YAW: 0.187850, X: -0.229582, Y: 0.190787, ALTITUDE: 0.930782, VX: -0.036187, VY: -0.060052, VZ: -0.019715 
TIME: 15.592034, ROLL: -0.086293, PITCH: 0.033228, YAW: 0.187850, X: -0.229582, Y: 0.190787, ALTITUDE: 0.930782, VX: -0.036187, VY: -0.060052, VZ: -0.019715 
TIME: 15.598071, ROLL: -0.086293, PITCH: 0.033228, YAW: 0.187850, X: -0.229582, Y: 0.190787, ALTITUDE: 0.930782, VX: -0.036187, VY: -0.060052, VZ: -0.019715 
TIME: 15.607700, ROLL: -0.086293, PITCH: 0.033228, YAW: 0.187850, X: -0.229582, Y: 0.190787, ALTITUDE: 0.930782, VX: -0.036187, VY: -0.060052, VZ: -0.019715 
TIME: 15.640438, ROLL: -0.073628, PITCH: 0.035494, YAW: 0.188613, X: -0.230724, Y: 0.186627, ALTITUDE: 0.937323, VX: -0.024306, VY: -0.088538, VZ: -0.037199 
TIME: 15.693527, ROLL: -0.073628, PITCH: 0.035494, YAW: 0.188613, X: -0.230724, Y: 0.186627, ALTITUDE: 0.937323, VX: -0.024306, VY: -0.088538, VZ: -0.037199 
TIME: 15.746389, ROLL: -0.073628, PITCH: 0.035494, YAW: 0.188613, X: -0.230724, Y: 0.186627, ALTITUDE: 0.937323, VX: -0.024306, VY: -0.088538, VZ: -0.037199 
TIME: 15.799373, ROLL: -0.076138, PITCH: 0.044136, YAW: 0.169362, X: -0.230724, Y: 0.186627, ALTITUDE: 0.937323, VX: -0.024306, VY: -0.088538, VZ: -0.037199 
TIME: 15.852368, ROLL: -0.076138, PITCH: 0.044136, YAW: 0.169362, X: -0.233981, Y: 0.171115, ALTITUDE: 0.944126, VX: -0.017030, VY: -0.081117, VZ: -0.038560 
TIME: 15.904962, ROLL: -0.076138, PITCH: 0.044136, YAW: 0.169362, X: -0.233981, Y: 0.171115, ALTITUDE: 0.944126, VX: -0.017030, VY: -0.081117, VZ: -0.038560 
TIME: 15.957725, ROLL: -0.076138, PITCH: 0.044136, YAW: 0.169362, X: -0.233981, Y: 0.171115, ALTITUDE: 0.944126, VX: -0.017030, VY: -0.081117, VZ: -0.038560 
TIME: 16.010487, ROLL: -0.055845, PITCH: 0.059102, YAW: 0.136309, X: -0.233981, Y: 0.171115, ALTITUDE: 0.944126, VX: -0.017030, VY: -0.081117, VZ: -0.038560 
TIME: 16.063374, ROLL: -0.055845, PITCH: 0.059102, YAW: 0.136309, X: -0.248210, Y: 0.148347, ALTITUDE: 0.958415, VX: -0.068146, VY: -0.109039, VZ: -0.026941 
TIME: 16.116245, ROLL: -0.055845, PITCH: 0.059102, YAW: 0.136309, X: -0.248210, Y: 0.148347, ALTITUDE: 0.958415, VX: -0.068146, VY: -0.109039, VZ: -0.026941 
TIME: 16.169912, ROLL: -0.055845, PITCH: 0.059102, YAW: 0.136309, X: -0.248210, Y: 0.148347, ALTITUDE: 0.958415, VX: -0.068146, VY: -0.109039, VZ: -0.026941 
TIME: 16.222689, ROLL: -0.042656, PITCH: 0.051274, YAW: 0.118652, X: -0.248210, Y: 0.148347, ALTITUDE: 0.958415, VX: -0.068146, VY: -0.109039, VZ: -0.026941 
TIME: 16.275393, ROLL: -0.042656, PITCH: 0.051274, YAW: 0.118652, X: -0.264625, Y: 0.132222, ALTITUDE: 0.964436, VX: -0.076346, VY: -0.074998, VZ: -0.028420 
TIME: 16.328117, ROLL: -0.042656, PITCH: 0.051274, YAW: 0.118652, X: -0.264625, Y: 0.132222, ALTITUDE: 0.964436, VX: -0.076346, VY: -0.074998, VZ: -0.028420 
TIME: 16.380783, ROLL: -0.042656, PITCH: 0.051274, YAW: 0.118652, X: -0.264625, Y: 0.132222, ALTITUDE: 0.964436, VX: -0.076346, VY: -0.074998, VZ: -0.028420 
TIME: 16.434603, ROLL: -0.056740, PITCH: 0.006136, YAW: 0.106972, X: -0.264625, Y: 0.132222, ALTITUDE: 0.964436, VX: -0.076346, VY: -0.074998, VZ: -0.028420 
TIME: 16.488302, ROLL: -0.056740, PITCH: 0.006136, YAW: 0.106972, X: -0.285898, Y: 0.120191, ALTITUDE: 0.964587, VX: -0.098720, VY: -0.055829, VZ: -0.014683 
TIME: 16.541210, ROLL: -0.056740, PITCH: 0.006136, YAW: 0.106972, X: -0.285898, Y: 0.120191, ALTITUDE: 0.964587, VX: -0.098720, VY: -0.055829, VZ: -0.014683 
TIME: 16.594269, ROLL: -0.056740, PITCH: 0.006136, YAW: 0.106972, X: -0.285898, Y: 0.120191, ALTITUDE: 0.964587, VX: -0.098720, VY: -0.055829, VZ: -0.014683 
TIME: 16.647156, ROLL: -0.056740, PITCH: 0.006136, YAW: 0.106972, X: -0.285898, Y: 0.120191, ALTITUDE: 0.964587, VX: -0.098720, VY: -0.055829, VZ: -0.014683 
TIME: 16.700512, ROLL: -0.050569, PITCH: 0.011977, YAW: 0.087496, X: -0.292647, Y: 0.114275, ALTITUDE: 0.969373, VX: -0.029225, VY: -0.025619, VZ: -0.018572 
TIME: 16.753567, ROLL: -0.050569, PITCH: 0.011977, YAW: 0.087496, X: -0.292647, Y: 0.114275, ALTITUDE: 0.969373, VX: -0.029225, VY: -0.025619, VZ: -0.018572 
TIME: 16.806555, ROLL: -0.050569, PITCH: 0.011977, YAW: 0.087496, X: -0.292647, Y: 0.114275, ALTITUDE: 0.969373, VX: -0.029225, VY: -0.025619, VZ: -0.018572 
TIME: 16.859524, ROLL: -0.060654, PITCH: 0.008804, YAW: 0.070208, X: -0.292647, Y: 0.114275, ALTITUDE: 0.969373, VX: -0.029225, VY: -0.025619, VZ: -0.018572 
TIME: 16.912712, ROLL: -0.060654, PITCH: 0.008804, YAW: 0.070208, X: -0.296885, Y: 0.111492, ALTITUDE: 0.986604, VX: -0.021877, VY: -0.014368, VZ: -0.031926 
TIME: 16.965586, ROLL: -0.060654, PITCH: 0.008804, YAW: 0.070208, X: -0.296885, Y: 0.111492, ALTITUDE: 0.986604, VX: -0.021877, VY: -0.014368, VZ: -0.031926 
TIME: 17.018475, ROLL: -0.060654, PITCH: 0.008804, YAW: 0.070208, X: -0.296885, Y: 0.111492, ALTITUDE: 0.986604, VX: -0.021877, VY: -0.014368, VZ: -0.031926 
TIME: 17.071272, ROLL: -0.023454, PITCH: 0.038904, YAW: 0.055546, X: -0.296885, Y: 0.111492, ALTITUDE: 0.986604, VX: -0.021877, VY: -0.014368, VZ: -0.031926 
TIME: 17.124107, ROLL: -0.023454, PITCH: 0.038904, YAW: 0.055546, X: -0.304110, Y: 0.116272, ALTITUDE: 0.982158, VX: -0.034831, VY: 0.023044, VZ: 0.008877 
TIME: 17.176792, ROLL: -0.023454, PITCH: 0.038904, YAW: 0.055546, X: -0.304110, Y: 0.116272, ALTITUDE: 0.982158, VX: -0.034831, VY: 0.023044, VZ: 0.008877 
TIME: 17.229811, ROLL: -0.023454, PITCH: 0.038904, YAW: 0.055546, X: -0.304110, Y: 0.116272, ALTITUDE: 0.982158, VX: -0.034831, VY: 0.023044, VZ: 0.008877 
TIME: 17.282602, ROLL: -0.096036, PITCH: 0.008354, YAW: 0.067735, X: -0.304110, Y: 0.116272, ALTITUDE: 0.982158, VX: -0.034831, VY: 0.023044, VZ: 0.008877 
TIME: 17.335546, ROLL: -0.096036, PITCH: 0.008354, YAW: 0.067735, X: -0.318870, Y: 0.108584, ALTITUDE: 0.984803, VX: -0.069258, VY: -0.036076, VZ: -0.016626 
TIME: 17.388269, ROLL: -0.096036, PITCH: 0.008354, YAW: 0.067735, X: -0.318870, Y: 0.108584, ALTITUDE: 0.984803, VX: -0.069258, VY: -0.036076, VZ: -0.016626 
TIME: 17.441589, ROLL: -0.096036, PITCH: 0.008354, YAW: 0.067735, X: -0.318870, Y: 0.108584, ALTITUDE: 0.984803, VX: -0.069258, VY: -0.036076, VZ: -0.016626 
TIME: 17.491884, ROLL: -0.031015, PITCH: 0.008838, YAW: 0.091427, X: -0.318870, Y: 0.108584, ALTITUDE: 0.984803, VX: -0.069258, VY: -0.036076, VZ: -0.016626 
TIME: 17.498684, ROLL: -0.031015, PITCH: 0.008838, YAW: 0.091427, X: -0.325129, Y: 0.093947, ALTITUDE: 1.003951, VX: -0.030357, VY: -0.070991, VZ: -0.041883 
TIME: 17.543776, ROLL: -0.031015, PITCH: 0.008838, YAW: 0.091427, X: -0.325129, Y: 0.093947, ALTITUDE: 1.003951, VX: -0.030357, VY: -0.070991, VZ: -0.041883 
TIME: 17.596600, ROLL: -0.031015, PITCH: 0.008838, YAW: 0.091427, X: -0.325129, Y: 0.093947, ALTITUDE: 1.003951, VX: -0.030357, VY: -0.070991, VZ: -0.041883 
TIME: 17.649385, ROLL: -0.031015, PITCH: 0.008838, YAW: 0.091427, X: -0.325129, Y: 0.093947, ALTITUDE: 1.003951, VX: -0.030357, VY: -0.070991, VZ: -0.041883 
TIME: 17.691811, ROLL: -0.026181, PITCH: 0.008037, YAW: 0.113759, X: -0.340688, Y: 0.103500, ALTITUDE: 1.003951, VX: -0.080740, VY: 0.049576, VZ: -0.010478 
TIME: 17.737558, ROLL: -0.026181, PITCH: 0.008037, YAW: 0.113759, X: -0.340688, Y: 0.103500, ALTITUDE: 1.016033, VX: -0.080740, VY: 0.049576, VZ: -0.010478 
TIME: 17.790491, ROLL: -0.026181, PITCH: 0.008037, YAW: 0.113759, X: -0.340688, Y: 0.103500, ALTITUDE: 1.016033, VX: -0.080740, VY: 0.049576, VZ: -0.010478 
TIME: 17.843481, ROLL: -0.071989, PITCH: -0.019808, YAW: 0.120227, X: -0.340688, Y: 0.103500, ALTITUDE: 1.016033, VX: -0.080740, VY: 0.049576, VZ: -0.010478 
TIME: 17.896551, ROLL: -0.071989, PITCH: -0.019808, YAW: 0.120227, X: -0.347798, Y: 0.109402, ALTITUDE: 1.018422, VX: -0.042839, VY: 0.035559, VZ: -0.039605 
TIME: 17.949627, ROLL: -0.071989, PITCH: -0.019808, YAW: 0.120227, X: -0.347798, Y: 0.109402, ALTITUDE: 1.018422, VX: -0.042839, VY: 0.035559, VZ: -0.039605 
TIME: 18.002508, ROLL: -0.071989, PITCH: -0.019808, YAW: 0.120227, X: -0.347798, Y: 0.109402, ALTITUDE: 1.018422, VX: -0.042839, VY: 0.035559, VZ: -0.039605 
TIME: 18.055759, ROLL: -0.058630, PITCH: -0.013849, YAW: 0.106519, X: -0.347798, Y: 0.109402, ALTITUDE: 1.018422, VX: -0.042839, VY: 0.035559, VZ: -0.039605 
TIME: 18.108807, ROLL: -0.058630, PITCH: -0.013849, YAW: 0.106519, X: -0.348747, Y: 0.118640, ALTITUDE: 1.031336, VX: -0.004577, VY: 0.044536, VZ: -0.033591 
TIME: 18.161526, ROLL: -0.058630, PITCH: -0.013849, YAW: 0.106519, X: -0.348747, Y: 0.118640, ALTITUDE: 1.031336, VX: -0.004577, VY: 0.044536, VZ: -0.033591 
TIME: 18.213900, ROLL: -0.058630, PITCH: -0.013849, YAW: 0.106519, X: -0.348747, Y: 0.118640, ALTITUDE: 1.031336, VX: -0.004577, VY: 0.044536, VZ: -0.033591 
TIME: 18.266634, ROLL: -0.054793, PITCH: 0.007554, YAW: 0.097325, X: -0.348747, Y: 0.118640, ALTITUDE: 1.031336, VX: -0.004577, VY: 0.044536, VZ: -0.033591 
TIME: 18.319679, ROLL: -0.054793, PITCH: 0.007554, YAW: 0.097325, X: -0.352696, Y: 0.131306, ALTITUDE: 1.032852, VX: -0.018709, VY: 0.060004, VZ: 0.013512 
TIME: 18.372307, ROLL: -0.054793, PITCH: 0.007554, YAW: 0.097325, X: -0.352696, Y: 0.131306, ALTITUDE: 1.032852, VX: -0.018709, VY: 0.060004, VZ: 0.013512 
TIME: 18.424982, ROLL: -0.054793, PITCH: 0.007554, YAW: 0.097325, X: -0.352696, Y: 0.131306, ALTITUDE: 1.032852, VX: -0.018709, VY: 0.060004, VZ: 0.013512 
TIME: 18.477692, ROLL: -0.088878, PITCH: -0.021194, YAW: 0.091125, X: -0.352696, Y: 0.131306, ALTITUDE: 1.032852, VX: -0.018709, VY: 0.060004, VZ: 0.013512 
TIME: 18.531076, ROLL: -0.088878, PITCH: -0.021194, YAW: 0.091125, X: -0.355842, Y: 0.138070, ALTITUDE: 1.035987, VX: -0.014908, VY: 0.032054, VZ: 0.006972 
TIME: 18.584751, ROLL: -0.088878, PITCH: -0.021194, YAW: 0.091125, X: -0.355842, Y: 0.138070, ALTITUDE: 1.035987, VX: -0.014908, VY: 0.032054, VZ: 0.006972 
TIME: 18.637396, ROLL: -0.088878, PITCH: -0.021194, YAW: 0.091125, X: -0.355842, Y: 0.138070, ALTITUDE: 1.035987, VX: -0.014908, VY: 0.032054, VZ: 0.006972 
TIME: 18.690029, ROLL: -0.088878, PITCH: -0.021194, YAW: 0.091125, X: -0.355842, Y: 0.138070, ALTITUDE: 1.035987, VX: -0.014908, VY: 0.032054, VZ: 0.006972 
TIME: 18.743025, ROLL: -0.088117, PITCH: -0.014795, YAW: 0.081715, X: -0.352324, Y: 0.136370, ALTITUDE: 1.032929, VX: 0.015062, VY: -0.007280, VZ: 0.009253 
TIME: 18.796324, ROLL: -0.088117, PITCH: -0.014795, YAW: 0.081715, X: -0.352324, Y: 0.136370, ALTITUDE: 1.032929, VX: 0.015062, VY: -0.007280, VZ: 0.009253 
TIME: 18.849607, ROLL: -0.088117, PITCH: -0.014795, YAW: 0.081715, X: -0.352324, Y: 0.136370, ALTITUDE: 1.032929, VX: 0.015062, VY: -0.007280, VZ: 0.009253 
