TIME: 0.000200, ROLL: 0.000000, PITCH: 0.000000, YAW: 0.000000, X: 0.000000, Y: 0.000000, ALTITUDE: 0.000000, VX: 0.000000, VY: 0.000000, VZ: 0.000000 
TIME: 0.053996, ROLL: 0.007803, PITCH: 0.014262, YAW: 0.000403, X: 0.000000, Y: 0.000000, ALTITUDE: 0.000000, VX: 0.000000, VY: 0.000000, VZ: 0.000000 
TIME: 0.106990, ROLL: 0.007803, PITCH: 0.014262, YAW: 0.000403, X: 0.000000, Y: 0.000000, ALTITUDE: -0.000000, VX: 0.000000, VY: 0.000000, VZ: 0.000000 
TIME: 0.160150, ROLL: 0.007803, PITCH: 0.014262, YAW: 0.000403, X: 0.000000, Y: 0.000000, ALTITUDE: -0.000000, VX: 0.000000, VY: 0.000000, VZ: 0.000000 
TIME: 0.212998, ROLL: 0.007807, PITCH: 0.014299, YAW: 0.000372, X: 0.000000, Y: 0.000000, ALTITUDE: -0.000000, VX: 0.000000, VY: 0.000000, VZ: 0.000000 
TIME: 0.265984, ROLL: 0.007807, PITCH: 0.014299, YAW: 0.000372, X: 0.000000, Y: 0.000000, ALTITUDE: -0.000000, VX: 0.000000, VY: 0.000000, VZ: 0.000000 
TIME: 0.318578, ROLL: 0.007807, PITCH: 0.014299, YAW: 0.000372, X: 0.000000, Y: 0.000000, ALTITUDE: -0.000000, VX: 0.000000, VY: 0.000000, VZ: 0.000000 
TIME: 0.371111, ROLL: 0.007807, PITCH: 0.014299, YAW: 0.000372, X: 0.000000, Y: 0.000000, ALTITUDE: -0.000000, VX: 0.000000, VY: 0.000000, VZ: 0.000000 
TIME: 0.423921, ROLL: 0.007798, PITCH: 0.014351, YAW: 0.000308, X: 0.000000, Y: 0.000000, ALTITUDE: -0.000000, VX: 0.000000, VY: 0.000000, VZ: 0.000000 
TIME: 0.476618, ROLL: 0.007798, PITCH: 0.014351, YAW: 0.000308, X: 0.000000, Y: 0.000000, ALTITUDE: -0.000000, VX: 0.000000, VY: 0.000000, VZ: 0.000000 
TIME: 0.529225, ROLL: 0.007798, PITCH: 0.014351, YAW: 0.000308, X: 0.000000, Y: 0.000000, ALTITUDE: -0.000000, VX: 0.000000, VY: 0.000000, VZ: 0.000000 
TIME: 0.582184, ROLL: 0.007798, PITCH: 0.014351, YAW: 0.000308, X: 0.000000, Y: 0.000000, ALTITUDE: -0.000000, VX: 0.000000, VY: 0.000000, VZ: 0.000000 
TIME: 0.635835, ROLL: 0.007921, PITCH: 0.014148, YAW: 0.000300, X: 0.000000, Y: 0.000000, ALTITUDE: -0.000000, VX: 0.000000, VY: 0.000000, VZ: 0.000000 
TIME: 0.688622, ROLL: 0.007921, PITCH: 0.014148, YAW: 0.000300, X: 0.000000, Y: 0.000000, ALTITUDE: -0.000000, VX: 0.000000, VY: 0.000000, VZ: 0.000000 
TIME: 0.741419, ROLL: 0.007921, PITCH: 0.014148, YAW: 0.000300, X: 0.000000, Y: 0.000000, ALTITUDE: -0.000000, VX: 0.000000, VY: 0.000000, VZ: 0.000000 
TIME: 0.794238, ROLL: 0.007921, PITCH: 0.014148, YAW: 0.000300, X: 0.000000, Y: 0.000000, ALTITUDE: -0.000000, VX: 0.000000, VY: 0.000000, VZ: 0.000000 
TIME: 0.847497, ROLL: 0.007809, PITCH: 0.014238, YAW: 0.000197, X: 0.000000, Y: 0.000000, ALTITUDE: -0.000000, VX: 0.000000, VY: 0.000000, VZ: 0.000000 
TIME: 0.900526, ROLL: 0.007809, PITCH: 0.014238, YAW: 0.000197, X: 0.000000, Y: 0.000000, ALTITUDE: -0.000000, VX: 0.000000, VY: 0.000000, VZ: 0.000000 
TIME: 0.953274, ROLL: 0.007809, PITCH: 0.014238, YAW: 0.000197, X: 0.000000, Y: 0.000000, ALTITUDE: -0.000000, VX: 0.000000, VY: 0.000000, VZ: 0.000000 
TIME: 1.006281, ROLL: 0.007809, PITCH: 0.014238, YAW: 0.000197, X: 0.000000, Y: 0.000000, ALTITUDE: -0.000000, VX: 0.000000, VY: 0.000000, VZ: 0.000000 
TIME: 1.059046, ROLL: 0.007809, PITCH: 0.014238, YAW: 0.000197, X: 0.000000, Y: 0.000000, ALTITUDE: -0.000000, VX: 0.000000, VY: 0.000000, VZ: 0.000000 
TIME: 1.112923, ROLL: 0.007950, PITCH: 0.014161, YAW: 0.000129, X: 0.000000, Y: 0.000000, ALTITUDE: -0.000000, VX: 0.000000, VY: 0.000000, VZ: 0.000000 
TIME: 1.165641, ROLL: 0.007950, PITCH: 0.014161, YAW: 0.000129, X: 0.000000, Y: 0.000000, ALTITUDE: -0.000000, VX: 0.000000, VY: 0.000000, VZ: 0.000000 
TIME: 1.218432, ROLL: 0.007950, PITCH: 0.014161, YAW: 0.000129, X: 0.000000, Y: 0.000000, ALTITUDE: -0.000000, VX: 0.000000, VY: 0.000000, VZ: 0.000000 
TIME: 1.271081, ROLL: 0.007890, PITCH: 0.014442, YAW: 0.000118, X: 0.000000, Y: 0.000000, ALTITUDE: -0.000000, VX: 0.000000, VY: 0.000000, VZ: 0.000000 
TIME: 1.324425, ROLL: 0.007890, PITCH: 0.014442, YAW: 0.000118, X: 0.000000, Y: 0.000000, ALTITUDE: -0.000000, VX: 0.000000, VY: 0.000000, VZ: 0.000000 
TIME: 1.377007, ROLL: 0.007890, PITCH: 0.014442, YAW: 0.000118, X: 0.000000, Y: 0.000000, ALTITUDE: -0.000000, VX: 0.000000, VY: 0.000000, VZ: 0.000000 
TIME: 1.429724, ROLL: 0.007890, PITCH: 0.014442, YAW: 0.000118, X: 0.000000, Y: 0.000000, ALTITUDE: -0.000000, VX: 0.000000, VY: 0.000000, VZ: 0.000000 
TIME: 1.482553, ROLL: 0.007956, PITCH: 0.014618, YAW: 0.000166, X: 0.000000, Y: 0.000000, ALTITUDE: -0.000000, VX: 0.000000, VY: 0.000000, VZ: 0.000000 
TIME: 1.535498, ROLL: 0.007956, PITCH: 0.014618, YAW: 0.000166, X: 0.000000, Y: 0.000000, ALTITUDE: -0.000000, VX: 0.000000, VY: 0.000000, VZ: 0.000000 
TIME: 1.590238, ROLL: 0.007956, PITCH: 0.014618, YAW: 0.000166, X: 0.000000, Y: 0.000000, ALTITUDE: -0.000000, VX: 0.000000, VY: 0.000000, VZ: 0.000000 
TIME: 1.644164, ROLL: 0.007956, PITCH: 0.014618, YAW: 0.000166, X: 0.000000, Y: 0.000000, ALTITUDE: -0.000000, VX: 0.000000, VY: 0.000000, VZ: 0.000000 
TIME: 1.696766, ROLL: 0.007936, PITCH: 0.014669, YAW: 0.000078, X: 0.000000, Y: 0.000000, ALTITUDE: -0.000000, VX: 0.000000, VY: 0.000000, VZ: 0.000000 
TIME: 1.743934, ROLL: 0.007936, PITCH: 0.014669, YAW: 0.000078, X: 0.000000, Y: 0.000000, ALTITUDE: -0.000000, VX: 0.000000, VY: 0.000000, VZ: 0.000000 
TIME: 1.762392, ROLL: 0.007936, PITCH: 0.014669, YAW: 0.000078, X: 0.000000, Y: 0.000000, ALTITUDE: -0.000000, VX: 0.000000, VY: 0.000000, VZ: 0.000000 
TIME: 1.815317, ROLL: 0.007936, PITCH: 0.014669, YAW: 0.000078, X: 0.000000, Y: 0.000000, ALTITUDE: -0.000000, VX: 0.000000, VY: 0.000000, VZ: 0.000000 
TIME: 1.868222, ROLL: 0.007819, PITCH: 0.014349, YAW: 0.000081, X: 0.000000, Y: 0.000000, ALTITUDE: -0.000000, VX: 0.000000, VY: 0.000000, VZ: 0.000000 
TIME: 1.921224, ROLL: 0.007819, PITCH: 0.014349, YAW: 0.000081, X: 0.000000, Y: 0.000000, ALTITUDE: -0.000000, VX: 0.000000, VY: 0.000000, VZ: 0.000000 
TIME: 1.974083, ROLL: 0.007819, PITCH: 0.014349, YAW: 0.000081, X: 0.000000, Y: 0.000000, ALTITUDE: -0.000000, VX: 0.000000, VY: 0.000000, VZ: 0.000000 
TIME: 2.026882, ROLL: 0.007819, PITCH: 0.014349, YAW: 0.000081, X: 0.000000, Y: 0.000000, ALTITUDE: -0.000000, VX: 0.000000, VY: 0.000000, VZ: 0.000000 
TIME: 2.079638, ROLL: 0.007819, PITCH: 0.014349, YAW: 0.000081, X: 0.000000, Y: 0.000000, ALTITUDE: -0.000000, VX: 0.000000, VY: 0.000000, VZ: 0.000000 
TIME: 2.132738, ROLL: 0.008005, PITCH: 0.014285, YAW: 0.000063, X: 0.000000, Y: 0.000000, ALTITUDE: -0.000000, VX: 0.000000, VY: 0.000000, VZ: 0.000000 
TIME: 2.186358, ROLL: 0.008005, PITCH: 0.014285, YAW: 0.000063, X: 0.000000, Y: 0.000000, ALTITUDE: -0.000000, VX: 0.000000, VY: 0.000000, VZ: 0.000000 
TIME: 2.224047, ROLL: 0.008005, PITCH: 0.014285, YAW: 0.000063, X: 0.000000, Y: 0.000000, ALTITUDE: -0.000000, VX: 0.000000, VY: 0.000000, VZ: 0.000000 
TIME: 2.238663, ROLL: 0.008026, PITCH: 0.014562, YAW: 0.000070, X: 0.000000, Y: 0.000000, ALTITUDE: -0.000000, VX: 0.000000, VY: 0.000000, VZ: 0.000000 
TIME: 2.276457, ROLL: 0.008026, PITCH: 0.014562, YAW: 0.000070, X: 0.000000, Y: 0.000000, ALTITUDE: -0.000000, VX: 0.000000, VY: 0.000000, VZ: 0.000000 
TIME: 2.329116, ROLL: 0.008026, PITCH: 0.014562, YAW: 0.000070, X: 0.000000, Y: 0.000000, ALTITUDE: -0.000000, VX: 0.000000, VY: 0.000000, VZ: 0.000000 
TIME: 2.381959, ROLL: 0.008026, PITCH: 0.014562, YAW: 0.000070, X: 0.000000, Y: 0.000000, ALTITUDE: -0.000000, VX: 0.000000, VY: 0.000000, VZ: 0.000000 
TIME: 2.435195, ROLL: 0.008083, PITCH: 0.014260, YAW: 0.000052, X: 0.000000, Y: 0.000000, ALTITUDE: -0.000000, VX: 0.000000, VY: 0.000000, VZ: 0.000000 
TIME: 2.488061, ROLL: 0.008083, PITCH: 0.014260, YAW: 0.000052, X: 0.000000, Y: 0.000000, ALTITUDE: -0.000000, VX: 0.000000, VY: 0.000000, VZ: 0.000000 
TIME: 2.540844, ROLL: 0.008083, PITCH: 0.014260, YAW: 0.000052, X: 0.000000, Y: 0.000000, ALTITUDE: -0.000000, VX: 0.000000, VY: 0.000000, VZ: 0.000000 
TIME: 2.593345, ROLL: 0.008083, PITCH: 0.014260, YAW: 0.000052, X: 0.000000, Y: 0.000000, ALTITUDE: -0.000000, VX: 0.000000, VY: 0.000000, VZ: 0.000000 
TIME: 2.646197, ROLL: 0.008002, PITCH: 0.014327, YAW: 0.000030, X: 0.000000, Y: 0.000000, ALTITUDE: -0.000000, VX: 0.000000, VY: 0.000000, VZ: 0.000000 
TIME: 2.700341, ROLL: 0.008002, PITCH: 0.014327, YAW: 0.000030, X: 0.000000, Y: 0.000000, ALTITUDE: -0.000000, VX: 0.000000, VY: 0.000000, VZ: 0.000000 
TIME: 2.753471, ROLL: 0.008002, PITCH: 0.014327, YAW: 0.000030, X: 0.000000, Y: 0.000000, ALTITUDE: -0.000000, VX: 0.000000, VY: 0.000000, VZ: 0.000000 
TIME: 2.806543, ROLL: 0.008002, PITCH: 0.014327, YAW: 0.000030, X: 0.000000, Y: 0.000000, ALTITUDE: -0.000000, VX: 0.000000, VY: 0.000000, VZ: 0.000000 
TIME: 2.859539, ROLL: 0.007935, PITCH: 0.014397, YAW: -0.000047, X: 0.000000, Y: 0.000000, ALTITUDE: -0.000000, VX: 0.000000, VY: 0.000000, VZ: 0.000000 
TIME: 2.912714, ROLL: 0.007935, PITCH: 0.014397, YAW: -0.000047, X: 0.000000, Y: 0.000000, ALTITUDE: -0.000000, VX: 0.000000, VY: 0.000000, VZ: 0.000000 
TIME: 2.965472, ROLL: 0.007935, PITCH: 0.014397, YAW: -0.000047, X: 0.000000, Y: 0.000000, ALTITUDE: -0.000000, VX: 0.000000, VY: 0.000000, VZ: 0.000000 
TIME: 3.018139, ROLL: 0.007935, PITCH: 0.014397, YAW: -0.000047, X: 0.000000, Y: 0.000000, ALTITUDE: -0.000000, VX: 0.000000, VY: 0.000000, VZ: 0.000000 
TIME: 3.070904, ROLL: 0.007935, PITCH: 0.014397, YAW: -0.000047, X: 0.000000, Y: 0.000000, ALTITUDE: -0.000000, VX: 0.000000, VY: 0.000000, VZ: 0.000000 
TIME: 3.123855, ROLL: 0.007890, PITCH: 0.014330, YAW: -0.000065, X: 0.000000, Y: 0.000000, ALTITUDE: -0.000000, VX: 0.000000, VY: 0.000000, VZ: 0.000000 
TIME: 3.163296, ROLL: 0.007890, PITCH: 0.014330, YAW: -0.000065, X: 0.000000, Y: 0.000000, ALTITUDE: -0.000000, VX: 0.000000, VY: 0.000000, VZ: 0.000000 
TIME: 3.176692, ROLL: 0.007890, PITCH: 0.014330, YAW: -0.000065, X: 0.000000, Y: 0.000000, ALTITUDE: -0.000000, VX: 0.000000, VY: 0.000000, VZ: 0.000000 
TIME: 3.187037, ROLL: 0.007748, PITCH: 0.014287, YAW: -0.000072, X: 0.000000, Y: 0.000000, ALTITUDE: -0.000000, VX: 0.000000, VY: 0.000000, VZ: 0.000000 
TIME: 3.202487, ROLL: 0.007748, PITCH: 0.014287, YAW: -0.000072, X: 0.000000, Y: 0.000000, ALTITUDE: -0.000000, VX: 0.000000, VY: 0.000000, VZ: 0.000000 
TIME: 3.234123, ROLL: 0.007748, PITCH: 0.014287, YAW: -0.000072, X: 0.000000, Y: 0.000000, ALTITUDE: -0.000000, VX: 0.000000, VY: 0.000000, VZ: 0.000000 
TIME: 3.287338, ROLL: 0.007748, PITCH: 0.014287, YAW: -0.000072, X: 0.000000, Y: 0.000000, ALTITUDE: -0.000000, VX: 0.000000, VY: 0.000000, VZ: 0.000000 
TIME: 3.309484, ROLL: 0.007751, PITCH: 0.014016, YAW: -0.000073, X: 0.000000, Y: 0.000000, ALTITUDE: -0.000000, VX: 0.000000, VY: 0.000000, VZ: 0.000000 
TIME: 3.323982, ROLL: 0.007751, PITCH: 0.014016, YAW: -0.000073, X: 0.000000, Y: 0.000000, ALTITUDE: -0.000000, VX: 0.000000, VY: 0.000000, VZ: 0.000000 
TIME: 3.334347, ROLL: 0.007751, PITCH: 0.014016, YAW: -0.000073, X: 0.000000, Y: 0.000000, ALTITUDE: -0.000000, VX: 0.000000, VY: 0.000000, VZ: 0.000000 
TIME: 3.348719, ROLL: 0.007751, PITCH: 0.014016, YAW: -0.000073, X: 0.000000, Y: 0.000000, ALTITUDE: -0.000000, VX: 0.000000, VY: 0.000000, VZ: 0.000000 
TIME: 3.355939, ROLL: 0.007909, PITCH: 0.014250, YAW: -0.000048, X: 0.000000, Y: 0.000000, ALTITUDE: -0.000000, VX: 0.000000, VY: 0.000000, VZ: 0.000000 
TIME: 3.376304, ROLL: 0.007909, PITCH: 0.014250, YAW: -0.000048, X: 0.000000, Y: 0.000000, ALTITUDE: -0.000000, VX: 0.000000, VY: 0.000000, VZ: 0.000000 
TIME: 3.388954, ROLL: 0.007909, PITCH: 0.014250, YAW: -0.000048, X: 0.000000, Y: 0.000000, ALTITUDE: -0.000000, VX: 0.000000, VY: 0.000000, VZ: 0.000000 
TIME: 3.437912, ROLL: 0.007909, PITCH: 0.014250, YAW: -0.000048, X: 0.000000, Y: 0.000000, ALTITUDE: -0.000000, VX: 0.000000, VY: 0.000000, VZ: 0.000000 
TIME: 3.490493, ROLL: 0.009170, PITCH: 0.013068, YAW: 0.002408, X: 0.000000, Y: 0.000000, ALTITUDE: -0.000000, VX: 0.000000, VY: 0.000000, VZ: 0.000000 
TIME: 3.543347, ROLL: 0.009170, PITCH: 0.013068, YAW: 0.002408, X: 0.000000, Y: 0.000000, ALTITUDE: -0.000000, VX: 0.000000, VY: 0.000000, VZ: 0.000000 
TIME: 3.596510, ROLL: 0.009170, PITCH: 0.013068, YAW: 0.002408, X: 0.000000, Y: 0.000000, ALTITUDE: -0.000000, VX: 0.000000, VY: 0.000000, VZ: 0.000000 
TIME: 3.649994, ROLL: 0.009170, PITCH: 0.013068, YAW: 0.002408, X: 0.000000, Y: 0.000000, ALTITUDE: -0.000000, VX: 0.000000, VY: 0.000000, VZ: 0.000000 
TIME: 3.670728, ROLL: 0.009170, PITCH: 0.013068, YAW: 0.002408, X: 0.000000, Y: 0.000000, ALTITUDE: -0.000000, VX: 0.000000, VY: 0.000000, VZ: 0.000000 
TIME: 3.704564, ROLL: 0.007707, PITCH: 0.013252, YAW: 0.001470, X: 0.000000, Y: 0.000000, ALTITUDE: -0.000000, VX: 0.000000, VY: 0.000000, VZ: 0.000000 
TIME: 3.738320, ROLL: 0.007707, PITCH: 0.013252, YAW: 0.001470, X: 0.000000, Y: 0.000000, ALTITUDE: -0.000000, VX: 0.000000, VY: 0.000000, VZ: 0.000000 
TIME: 3.790967, ROLL: 0.007707, PITCH: 0.013252, YAW: 0.001470, X: 0.000000, Y: 0.000000, ALTITUDE: -0.000000, VX: 0.000000, VY: 0.000000, VZ: 0.000000 
TIME: 3.843629, ROLL: 0.007803, PITCH: 0.012856, YAW: 0.000830, X: 0.000000, Y: 0.000000, ALTITUDE: -0.000000, VX: 0.000000, VY: 0.000000, VZ: 0.000000 
TIME: 3.896490, ROLL: 0.007803, PITCH: 0.012856, YAW: 0.000830, X: 0.000000, Y: 0.000000, ALTITUDE: -0.000000, VX: 0.000000, VY: 0.000000, VZ: 0.000000 
TIME: 3.949614, ROLL: 0.007803, PITCH: 0.012856, YAW: 0.000830, X: 0.000000, Y: 0.000000, ALTITUDE: -0.000000, VX: 0.000000, VY: 0.000000, VZ: 0.000000 
TIME: 4.002915, ROLL: 0.007803, PITCH: 0.012856, YAW: 0.000830, X: 0.000000, Y: 0.000000, ALTITUDE: -0.000000, VX: 0.000000, VY: 0.000000, VZ: 0.000000 
TIME: 4.055772, ROLL: 0.006921, PITCH: 0.013329, YAW: 0.000500, X: 0.000000, Y: 0.000000, ALTITUDE: -0.000000, VX: 0.000000, VY: 0.000000, VZ: 0.000000 
TIME: 4.108619, ROLL: 0.006921, PITCH: 0.013329, YAW: 0.000500, X: 0.000000, Y: 0.000000, ALTITUDE: -0.000000, VX: 0.000000, VY: 0.000000, VZ: 0.000000 
TIME: 4.161378, ROLL: 0.006921, PITCH: 0.013329, YAW: 0.000500, X: 0.000000, Y: 0.000000, ALTITUDE: -0.000000, VX: 0.000000, VY: 0.000000, VZ: 0.000000 
TIME: 4.189840, ROLL: 0.006921, PITCH: 0.013329, YAW: 0.000500, X: 0.000000, Y: 0.000000, ALTITUDE: -0.000000, VX: 0.000000, VY: 0.000000, VZ: 0.000000 
TIME: 4.213819, ROLL: 0.007077, PITCH: 0.013753, YAW: 0.000580, X: 0.000000, Y: 0.000000, ALTITUDE: -0.000000, VX: 0.000000, VY: 0.000000, VZ: 0.000000 
TIME: 4.266822, ROLL: 0.007077, PITCH: 0.013753, YAW: 0.000580, X: 0.000000, Y: 0.000000, ALTITUDE: -0.000000, VX: 0.000000, VY: 0.000000, VZ: 0.000000 
TIME: 4.320770, ROLL: 0.007077, PITCH: 0.013753, YAW: 0.000580, X: 0.000000, Y: 0.000000, ALTITUDE: -0.000000, VX: 0.000000, VY: 0.000000, VZ: 0.000000 
TIME: 4.373479, ROLL: 0.007077, PITCH: 0.013753, YAW: 0.000580, X: 0.000000, Y: 0.000000, ALTITUDE: -0.000000, VX: 0.000000, VY: 0.000000, VZ: 0.000000 
TIME: 4.426186, ROLL: 0.006607, PITCH: 0.012841, YAW: -0.005782, X: 0.000000, Y: 0.000000, ALTITUDE: -0.000000, VX: 0.000000, VY: 0.000000, VZ: 0.000000 
TIME: 4.478792, ROLL: 0.006607, PITCH: 0.012841, YAW: -0.005782, X: 0.000000, Y: 0.000000, ALTITUDE: -0.000000, VX: 0.000000, VY: 0.000000, VZ: 0.000000 
TIME: 4.515492, ROLL: 0.006607, PITCH: 0.012841, YAW: -0.005782, X: 0.000000, Y: 0.000000, ALTITUDE: -0.000000, VX: 0.000000, VY: 0.000000, VZ: 0.000000 
TIME: 4.532689, ROLL: 0.006607, PITCH: 0.012841, YAW: -0.005782, X: 0.000000, Y: 0.000000, ALTITUDE: -0.000000, VX: 0.000000, VY: 0.000000, VZ: 0.000000 
TIME: 4.543379, ROLL: 0.006607, PITCH: 0.012841, YAW: -0.005782, X: 0.000000, Y: 0.000000, ALTITUDE: -0.000000, VX: 0.000000, VY: 0.000000, VZ: 0.000000 
TIME: 4.554986, ROLL: 0.006974, PITCH: 0.010571, YAW: -0.004952, X: 0.000000, Y: 0.000000, ALTITUDE: -0.000000, VX: 0.000000, VY: 0.000000, VZ: 0.000000 
TIME: 4.567174, ROLL: 0.006974, PITCH: 0.010571, YAW: -0.004952, X: 0.000000, Y: 0.000000, ALTITUDE: -0.000000, VX: 0.000000, VY: 0.000000, VZ: 0.000000 
TIME: 4.582023, ROLL: 0.006974, PITCH: 0.010571, YAW: -0.004952, X: 0.000000, Y: 0.000000, ALTITUDE: -0.000000, VX: 0.000000, VY: 0.000000, VZ: 0.000000 
TIME: 4.590249, ROLL: 0.015980, PITCH: 0.027955, YAW: -0.009254, X: 0.000000, Y: 0.000000, ALTITUDE: -0.000000, VX: 0.000000, VY: 0.000000, VZ: 0.000000 
TIME: 4.605829, ROLL: 0.015980, PITCH: 0.027955, YAW: -0.009254, X: 0.000000, Y: 0.000000, ALTITUDE: -0.000000, VX: 0.000000, VY: 0.000000, VZ: 0.000000 
TIME: 4.616036, ROLL: 0.015980, PITCH: 0.027955, YAW: -0.009254, X: 0.000000, Y: 0.000000, ALTITUDE: -0.000000, VX: 0.000000, VY: 0.000000, VZ: 0.000000 
TIME: 4.663254, ROLL: 0.015980, PITCH: 0.027955, YAW: -0.009254, X: 0.000000, Y: 0.000000, ALTITUDE: -0.000000, VX: 0.000000, VY: 0.000000, VZ: 0.000000 
TIME: 4.687480, ROLL: 0.040251, PITCH: 0.059173, YAW: -0.013763, X: 0.000000, Y: 0.000000, ALTITUDE: -0.000000, VX: 0.000000, VY: 0.000000, VZ: 0.000000 
TIME: 4.701627, ROLL: 0.040251, PITCH: 0.059173, YAW: -0.013763, X: -0.007677, Y: 0.005227, ALTITUDE: -0.010240, VX: -0.079494, VY: 0.054117, VZ: -0.162759 
TIME: 4.711579, ROLL: 0.040251, PITCH: 0.059173, YAW: -0.013763, X: -0.007677, Y: 0.005227, ALTITUDE: -0.010240, VX: -0.079494, VY: 0.054117, VZ: -0.162759 
TIME: 4.732086, ROLL: 0.040251, PITCH: 0.059173, YAW: -0.013763, X: -0.007677, Y: 0.005227, ALTITUDE: -0.010240, VX: -0.079494, VY: 0.054117, VZ: -0.162759 
TIME: 4.785055, ROLL: -0.081130, PITCH: -0.046837, YAW: -0.011691, X: -0.007677, Y: 0.005227, ALTITUDE: -0.010240, VX: -0.079494, VY: 0.054117, VZ: -0.162759 
TIME: 4.836768, ROLL: -0.081130, PITCH: -0.046837, YAW: -0.011691, X: -0.001180, Y: -0.001330, ALTITUDE: -0.061933, VX: 0.060210, VY: -0.060760, VZ: -0.350319 
TIME: 4.846708, ROLL: -0.081130, PITCH: -0.046837, YAW: -0.011691, X: -0.001180, Y: -0.001330, ALTITUDE: -0.061933, VX: 0.060210, VY: -0.060760, VZ: -0.350319 
TIME: 4.895756, ROLL: -0.081130, PITCH: -0.046837, YAW: -0.011691, X: -0.001180, Y: -0.001330, ALTITUDE: -0.061933, VX: 0.060210, VY: -0.060760, VZ: -0.350319 
TIME: 4.948418, ROLL: -0.001770, PITCH: -0.002878, YAW: -0.024161, X: -0.001180, Y: -0.001330, ALTITUDE: -0.061933, VX: 0.060210, VY: -0.060760, VZ: -0.350319 
TIME: 5.001774, ROLL: -0.001770, PITCH: -0.002878, YAW: -0.024161, X: 0.017860, Y: -0.015411, ALTITUDE: -0.168174, VX: 0.115268, VY: -0.085245, VZ: -0.703267 
TIME: 5.054666, ROLL: -0.001770, PITCH: -0.002878, YAW: -0.024161, X: 0.017860, Y: -0.015411, ALTITUDE: -0.168174, VX: 0.115268, VY: -0.085245, VZ: -0.703267 
TIME: 5.107360, ROLL: -0.001770, PITCH: -0.002878, YAW: -0.024161, X: 0.017860, Y: -0.015411, ALTITUDE: -0.168174, VX: 0.115268, VY: -0.085245, VZ: -0.703267 
TIME: 5.160132, ROLL: -0.001770, PITCH: -0.002878, YAW: -0.024161, X: 0.017860, Y: -0.015411, ALTITUDE: -0.168174, VX: 0.115268, VY: -0.085245, VZ: -0.703267 
TIME: 5.212951, ROLL: 0.035746, PITCH: 0.015854, YAW: -0.032247, X: 0.027451, Y: 0.011446, ALTITUDE: -0.168174, VX: 0.042158, VY: 0.118059, VZ: -0.856568 
TIME: 5.265944, ROLL: 0.035746, PITCH: 0.015854, YAW: -0.032247, X: 0.027451, Y: 0.011446, ALTITUDE: -0.321074, VX: 0.042158, VY: 0.118059, VZ: -0.856568 
TIME: 5.318468, ROLL: 0.035746, PITCH: 0.015854, YAW: -0.032247, X: 0.027451, Y: 0.011446, ALTITUDE: -0.321074, VX: 0.042158, VY: 0.118059, VZ: -0.856568 
TIME: 5.371080, ROLL: -0.017458, PITCH: 0.008646, YAW: -0.034404, X: 0.027451, Y: 0.011446, ALTITUDE: -0.321074, VX: 0.042158, VY: 0.118059, VZ: -0.856568 
TIME: 5.423566, ROLL: -0.017458, PITCH: 0.008646, YAW: -0.034404, X: 0.032877, Y: 0.012144, ALTITUDE: -0.523593, VX: 0.028010, VY: 0.003603, VZ: -0.954095 
TIME: 5.477779, ROLL: -0.017458, PITCH: 0.008646, YAW: -0.034404, X: 0.032877, Y: 0.012144, ALTITUDE: -0.523593, VX: 0.028010, VY: 0.003603, VZ: -0.954095 
TIME: 5.527482, ROLL: -0.017458, PITCH: 0.008646, YAW: -0.034404, X: 0.032877, Y: 0.012144, ALTITUDE: -0.523593, VX: 0.028010, VY: 0.003603, VZ: -0.954095 
TIME: 5.569089, ROLL: 0.003265, PITCH: 0.001196, YAW: -0.029957, X: 0.032877, Y: 0.012144, ALTITUDE: -0.523593, VX: 0.028010, VY: 0.003603, VZ: -0.954095 
TIME: 5.612712, ROLL: 0.003265, PITCH: 0.001196, YAW: -0.029957, X: 0.036698, Y: 0.004494, ALTITUDE: -0.713984, VX: 0.019467, VY: -0.038971, VZ: -0.708951 
TIME: 5.665384, ROLL: 0.003265, PITCH: 0.001196, YAW: -0.029957, X: 0.036698, Y: 0.004494, ALTITUDE: -0.713984, VX: 0.019467, VY: -0.038971, VZ: -0.708951 
TIME: 5.717921, ROLL: 0.003265, PITCH: 0.001196, YAW: -0.029957, X: 0.036698, Y: 0.004494, ALTITUDE: -0.713984, VX: 0.019467, VY: -0.038971, VZ: -0.708951 
TIME: 5.771374, ROLL: 0.011589, PITCH: 0.013058, YAW: -0.019283, X: 0.036698, Y: 0.004494, ALTITUDE: -0.713984, VX: 0.019467, VY: -0.038971, VZ: -0.708951 
TIME: 5.824141, ROLL: 0.011589, PITCH: 0.013058, YAW: -0.019283, X: 0.039089, Y: -0.000363, ALTITUDE: -0.810764, VX: 0.011652, VY: -0.023677, VZ: -0.441307 
TIME: 5.876996, ROLL: 0.011589, PITCH: 0.013058, YAW: -0.019283, X: 0.039089, Y: -0.000363, ALTITUDE: -0.810764, VX: 0.011652, VY: -0.023677, VZ: -0.441307 
TIME: 5.929714, ROLL: 0.011589, PITCH: 0.013058, YAW: -0.019283, X: 0.039089, Y: -0.000363, ALTITUDE: -0.810764, VX: 0.011652, VY: -0.023677, VZ: -0.441307 
TIME: 5.982613, ROLL: 0.009865, PITCH: 0.013008, YAW: -0.001696, X: 0.039089, Y: -0.000363, ALTITUDE: -0.810764, VX: 0.011652, VY: -0.023677, VZ: -0.441307 
TIME: 6.035478, ROLL: 0.009865, PITCH: 0.013008, YAW: -0.001696, X: 0.040389, Y: -0.005787, ALTITUDE: -0.902354, VX: 0.006126, VY: -0.025558, VZ: -0.291207 
TIME: 6.088208, ROLL: 0.009865, PITCH: 0.013008, YAW: -0.001696, X: 0.040389, Y: -0.005787, ALTITUDE: -0.902354, VX: 0.006126, VY: -0.025558, VZ: -0.291207 
TIME: 6.140866, ROLL: 0.009865, PITCH: 0.013008, YAW: -0.001696, X: 0.040389, Y: -0.005787, ALTITUDE: -0.902354, VX: 0.006126, VY: -0.025558, VZ: -0.291207 
TIME: 6.193682, ROLL: 0.009865, PITCH: 0.013008, YAW: -0.001696, X: 0.040389, Y: -0.005787, ALTITUDE: -0.902354, VX: 0.006126, VY: -0.025558, VZ: -0.291207 
TIME: 6.246428, ROLL: 0.017314, PITCH: 0.012470, YAW: 0.010184, X: 0.044172, Y: -0.011703, ALTITUDE: -0.902354, VX: 0.016306, VY: -0.025498, VZ: -0.158330 
TIME: 6.299325, ROLL: 0.017314, PITCH: 0.012470, YAW: 0.010184, X: 0.044172, Y: -0.011703, ALTITUDE: -0.950824, VX: 0.016306, VY: -0.025498, VZ: -0.158330 
TIME: 6.351844, ROLL: 0.017314, PITCH: 0.012470, YAW: 0.010184, X: 0.044172, Y: -0.011703, ALTITUDE: -0.950824, VX: 0.016306, VY: -0.025498, VZ: -0.158330 
TIME: 6.404432, ROLL: 0.015471, PITCH: 0.020879, YAW: 0.007362, X: 0.044172, Y: -0.011703, ALTITUDE: -0.950824, VX: 0.016306, VY: -0.025498, VZ: -0.158330 
TIME: 6.457126, ROLL: 0.015471, PITCH: 0.020879, YAW: 0.007362, X: 0.047119, Y: -0.014795, ALTITUDE: -0.987275, VX: 0.015595, VY: -0.016355, VZ: -0.085086 
TIME: 6.509789, ROLL: 0.015471, PITCH: 0.020879, YAW: 0.007362, X: 0.047119, Y: -0.014795, ALTITUDE: -0.987275, VX: 0.015595, VY: -0.016355, VZ: -0.085086 
TIME: 6.562309, ROLL: 0.015471, PITCH: 0.020879, YAW: 0.007362, X: 0.047119, Y: -0.014795, ALTITUDE: -0.987275, VX: 0.015595, VY: -0.016355, VZ: -0.085086 
TIME: 6.615104, ROLL: 0.005891, PITCH: 0.018971, YAW: -0.007060, X: 0.047119, Y: -0.014795, ALTITUDE: -0.987275, VX: 0.015595, VY: -0.016355, VZ: -0.085086 
TIME: 6.667710, ROLL: 0.005891, PITCH: 0.018971, YAW: -0.007060, X: 0.047119, Y: -0.014795, ALTITUDE: -0.987275, VX: 0.015595, VY: -0.016355, VZ: -0.085086 
TIME: 6.720183, ROLL: 0.005891, PITCH: 0.018971, YAW: -0.007060, X: 0.051719, Y: -0.027078, ALTITUDE: -1.018777, VX: 0.018192, VY: -0.048586, VZ: -0.056004 
TIME: 6.772832, ROLL: 0.005891, PITCH: 0.018971, YAW: -0.007060, X: 0.051719, Y: -0.027078, ALTITUDE: -1.018777, VX: 0.018192, VY: -0.048586, VZ: -0.056004 
TIME: 6.825712, ROLL: 0.015317, PITCH: 0.020836, YAW: -0.025381, X: 0.051719, Y: -0.027078, ALTITUDE: -1.018777, VX: 0.018192, VY: -0.048586, VZ: -0.056004 
TIME: 6.878417, ROLL: 0.015317, PITCH: 0.020836, YAW: -0.025381, X: 0.051719, Y: -0.027078, ALTITUDE: -1.018777, VX: 0.018192, VY: -0.048586, VZ: -0.056004 
TIME: 6.931188, ROLL: 0.015317, PITCH: 0.020836, YAW: -0.025381, X: 0.051719, Y: -0.027078, ALTITUDE: -1.018777, VX: 0.018192, VY: -0.048586, VZ: -0.056004 
TIME: 6.984208, ROLL: 0.015317, PITCH: 0.020836, YAW: -0.025381, X: 0.055888, Y: -0.049391, ALTITUDE: -1.032280, VX: 0.015581, VY: -0.083383, VZ: -0.014431 
TIME: 7.036863, ROLL: 0.018755, PITCH: 0.025822, YAW: -0.040323, X: 0.055888, Y: -0.049391, ALTITUDE: -1.032280, VX: 0.015581, VY: -0.083383, VZ: -0.014431 
TIME: 7.089449, ROLL: 0.018755, PITCH: 0.025822, YAW: -0.040323, X: 0.057371, Y: -0.054381, ALTITUDE: -1.032280, VX: 0.013391, VY: -0.045071, VZ: 0.005646 
TIME: 7.142085, ROLL: 0.018755, PITCH: 0.025822, YAW: -0.040323, X: 0.057371, Y: -0.054381, ALTITUDE: -1.032280, VX: 0.013391, VY: -0.045071, VZ: 0.005646 
TIME: 7.194739, ROLL: 0.018755, PITCH: 0.025822, YAW: -0.040323, X: 0.057371, Y: -0.054381, ALTITUDE: -1.040119, VX: 0.013391, VY: -0.045071, VZ: 0.005646 
TIME: 7.247479, ROLL: 0.018755, PITCH: 0.025822, YAW: -0.040323, X: 0.057371, Y: -0.054381, ALTITUDE: -1.040119, VX: 0.013391, VY: -0.045071, VZ: 0.005646 
TIME: 7.299863, ROLL: 0.005171, PITCH: 0.020228, YAW: -0.047596, X: 0.057371, Y: -0.054381, ALTITUDE: -1.040119, VX: 0.013391, VY: -0.045071, VZ: 0.005646 
TIME: 7.352543, ROLL: 0.005171, PITCH: 0.020228, YAW: -0.047596, X: 0.061685, Y: -0.062396, ALTITUDE: -1.051733, VX: 0.014790, VY: -0.027474, VZ: 0.014245 
TIME: 7.405625, ROLL: 0.005171, PITCH: 0.020228, YAW: -0.047596, X: 0.061685, Y: -0.062396, ALTITUDE: -1.051733, VX: 0.014790, VY: -0.027474, VZ: 0.014245 
TIME: 7.458407, ROLL: 0.011790, PITCH: 0.019146, YAW: -0.047399, X: 0.061685, Y: -0.062396, ALTITUDE: -1.051733, VX: 0.014790, VY: -0.027474, VZ: 0.014245 
TIME: 7.511161, ROLL: 0.011790, PITCH: 0.019146, YAW: -0.047399, X: 0.064944, Y: -0.066073, ALTITUDE: -1.051733, VX: 0.025706, VY: -0.029005, VZ: 0.024790 
TIME: 7.563786, ROLL: 0.011790, PITCH: 0.019146, YAW: -0.047399, X: 0.064944, Y: -0.066073, ALTITUDE: -1.051733, VX: 0.025706, VY: -0.029005, VZ: 0.024790 
TIME: 7.616571, ROLL: 0.011790, PITCH: 0.019146, YAW: -0.047399, X: 0.064944, Y: -0.066073, ALTITUDE: -1.046160, VX: 0.025706, VY: -0.029005, VZ: 0.024790 
TIME: 7.669326, ROLL: 0.018979, PITCH: 0.025917, YAW: -0.042635, X: 0.064944, Y: -0.066073, ALTITUDE: -1.046160, VX: 0.025706, VY: -0.029005, VZ: 0.024790 
TIME: 7.722129, ROLL: 0.018979, PITCH: 0.025917, YAW: -0.042635, X: 0.070637, Y: -0.067761, ALTITUDE: -1.046160, VX: 0.026244, VY: -0.007781, VZ: 0.028292 
TIME: 7.774934, ROLL: 0.018979, PITCH: 0.025917, YAW: -0.042635, X: 0.070637, Y: -0.067761, ALTITUDE: -1.046160, VX: 0.026244, VY: -0.007781, VZ: 0.028292 
TIME: 7.827610, ROLL: 0.018979, PITCH: 0.025917, YAW: -0.042635, X: 0.070637, Y: -0.067761, ALTITUDE: -1.032563, VX: 0.026244, VY: -0.007781, VZ: 0.028292 
TIME: 7.880174, ROLL: 0.016453, PITCH: 0.024591, YAW: -0.033627, X: 0.070637, Y: -0.067761, ALTITUDE: -1.032563, VX: 0.026244, VY: -0.007781, VZ: 0.028292 
TIME: 7.932614, ROLL: 0.016453, PITCH: 0.024591, YAW: -0.033627, X: 0.075006, Y: -0.065555, ALTITUDE: -1.032563, VX: 0.021333, VY: 0.010774, VZ: 0.032847 
TIME: 7.985168, ROLL: 0.016453, PITCH: 0.024591, YAW: -0.033627, X: 0.075006, Y: -0.065555, ALTITUDE: -1.032563, VX: 0.021333, VY: 0.010774, VZ: 0.032847 
TIME: 8.037886, ROLL: 0.016453, PITCH: 0.024591, YAW: -0.033627, X: 0.075006, Y: -0.065555, ALTITUDE: -1.018055, VX: 0.021333, VY: 0.010774, VZ: 0.032847 
TIME: 8.090649, ROLL: 0.024761, PITCH: 0.023756, YAW: -0.025003, X: 0.075006, Y: -0.065555, ALTITUDE: -1.018055, VX: 0.021333, VY: 0.010774, VZ: 0.032847 
TIME: 8.143557, ROLL: 0.024761, PITCH: 0.023756, YAW: -0.025003, X: 0.080393, Y: -0.061908, ALTITUDE: -1.009587, VX: 0.025203, VY: 0.017059, VZ: 0.024374 
TIME: 8.196328, ROLL: 0.024761, PITCH: 0.023756, YAW: -0.025003, X: 0.080393, Y: -0.061908, ALTITUDE: -1.009587, VX: 0.025203, VY: 0.017059, VZ: 0.024374 
TIME: 8.248626, ROLL: 0.024761, PITCH: 0.023756, YAW: -0.025003, X: 0.080393, Y: -0.061908, ALTITUDE: -1.009587, VX: 0.025203, VY: 0.017059, VZ: 0.024374 
TIME: 8.301234, ROLL: 0.024761, PITCH: 0.023756, YAW: -0.025003, X: 0.080393, Y: -0.061908, ALTITUDE: -1.009587, VX: 0.025203, VY: 0.017059, VZ: 0.024374 
TIME: 8.354098, ROLL: 0.019515, PITCH: 0.024745, YAW: -0.021600, X: 0.085406, Y: -0.051690, ALTITUDE: -1.009587, VX: 0.021744, VY: 0.044319, VZ: 0.013660 
TIME: 8.406840, ROLL: 0.019515, PITCH: 0.024745, YAW: -0.021600, X: 0.085406, Y: -0.051690, ALTITUDE: -1.009587, VX: 0.021744, VY: 0.044319, VZ: 0.013660 
TIME: 8.459532, ROLL: 0.019515, PITCH: 0.024745, YAW: -0.021600, X: 0.085406, Y: -0.051690, ALTITUDE: -1.003171, VX: 0.021744, VY: 0.044319, VZ: 0.013660 
TIME: 8.551604, ROLL: 0.008085, PITCH: 0.029656, YAW: -0.025036, X: 0.085406, Y: -0.051690, ALTITUDE: -1.003171, VX: 0.021744, VY: 0.044319, VZ: 0.013660 
TIME: 8.654324, ROLL: 0.008085, PITCH: 0.029656, YAW: -0.025036, X: 0.087586, Y: -0.039731, ALTITUDE: -1.003979, VX: 0.008713, VY: 0.047802, VZ: 0.004038 
TIME: 8.757159, ROLL: 0.008085, PITCH: 0.029656, YAW: -0.025036, X: 0.087586, Y: -0.039731, ALTITUDE: -1.003979, VX: 0.008713, VY: 0.047802, VZ: 0.004038 
TIME: 8.859744, ROLL: 0.008085, PITCH: 0.029656, YAW: -0.025036, X: 0.087586, Y: -0.039731, ALTITUDE: -1.003979, VX: 0.008713, VY: 0.047802, VZ: 0.004038 
TIME: 8.962514, ROLL: -0.000404, PITCH: 0.023471, YAW: -0.033365, X: 0.087586, Y: -0.039731, ALTITUDE: -1.003979, VX: 0.008713, VY: 0.047802, VZ: 0.004038 
TIME: 9.065270, ROLL: -0.000404, PITCH: 0.023471, YAW: -0.033365, X: 0.090139, Y: -0.022647, ALTITUDE: -0.980297, VX: 0.006377, VY: 0.042683, VZ: 0.003177 
TIME: 9.167873, ROLL: -0.000404, PITCH: 0.023471, YAW: -0.033365, X: 0.090139, Y: -0.022647, ALTITUDE: -0.980297, VX: 0.006377, VY: 0.042683, VZ: 0.003177 
TIME: 9.270377, ROLL: -0.000404, PITCH: 0.023471, YAW: -0.033365, X: 0.090139, Y: -0.022647, ALTITUDE: -0.980297, VX: 0.006377, VY: 0.042683, VZ: 0.003177 
TIME: 9.373007, ROLL: 0.000820, PITCH: 0.017528, YAW: -0.043429, X: 0.090139, Y: -0.022647, ALTITUDE: -0.980297, VX: 0.006377, VY: 0.042683, VZ: 0.003177 
TIME: 9.475697, ROLL: 0.000820, PITCH: 0.017528, YAW: -0.043429, X: 0.096005, Y: -0.019335, ALTITUDE: -0.985704, VX: 0.014278, VY: 0.008060, VZ: -0.143855 
TIME: 9.578232, ROLL: 0.000820, PITCH: 0.017528, YAW: -0.043429, X: 0.096005, Y: -0.019335, ALTITUDE: -0.985704, VX: 0.014278, VY: 0.008060, VZ: -0.143855 
TIME: 9.680903, ROLL: 0.000820, PITCH: 0.017528, YAW: -0.043429, X: 0.096005, Y: -0.019335, ALTITUDE: -0.985704, VX: 0.014278, VY: 0.008060, VZ: -0.143855 
TIME: 9.783663, ROLL: 0.002890, PITCH: 0.019497, YAW: -0.048426, X: 0.096005, Y: -0.019335, ALTITUDE: -0.985704, VX: 0.014278, VY: 0.008060, VZ: -0.143855 
TIME: 9.886368, ROLL: 0.002890, PITCH: 0.019497, YAW: -0.048426, X: 0.127022, Y: -0.027442, ALTITUDE: -1.033465, VX: 0.075534, VY: -0.019741, VZ: -0.425283 
TIME: 9.988920, ROLL: 0.002890, PITCH: 0.019497, YAW: -0.048426, X: 0.127022, Y: -0.027442, ALTITUDE: -1.033465, VX: 0.075534, VY: -0.019741, VZ: -0.425283 
TIME: 10.091531, ROLL: 0.002890, PITCH: 0.019497, YAW: -0.048426, X: 0.127022, Y: -0.027442, ALTITUDE: -1.033465, VX: 0.075534, VY: -0.019741, VZ: -0.425283 
TIME: 10.194251, ROLL: 0.002890, PITCH: 0.019497, YAW: -0.048426, X: 0.127022, Y: -0.027442, ALTITUDE: -1.033465, VX: 0.075534, VY: -0.019741, VZ: -0.425283 
TIME: 10.296886, ROLL: 0.000495, PITCH: 0.015176, YAW: -0.043828, X: 0.183530, Y: -0.058094, ALTITUDE: -1.033465, VX: 0.125428, VY: -0.068038, VZ: -0.767202 
TIME: 10.399511, ROLL: 0.000495, PITCH: 0.015176, YAW: -0.043828, X: 0.183530, Y: -0.058094, ALTITUDE: -1.145416, VX: 0.125428, VY: -0.068038, VZ: -0.767202 
TIME: 10.502511, ROLL: 0.000495, PITCH: 0.015176, YAW: -0.043828, X: 0.183530, Y: -0.058094, ALTITUDE: -1.145416, VX: 0.125428, VY: -0.068038, VZ: -0.767202 
TIME: 10.604875, ROLL: 0.010210, PITCH: 0.022183, YAW: -0.030376, X: 0.183530, Y: -0.058094, ALTITUDE: -1.145416, VX: 0.125428, VY: -0.068038, VZ: -0.767202 
TIME: 10.707564, ROLL: 0.010210, PITCH: 0.022183, YAW: -0.030376, X: 0.235260, Y: -0.086840, ALTITUDE: -1.273544, VX: 0.138076, VY: -0.076727, VZ: -0.498896 
TIME: 10.810261, ROLL: 0.010210, PITCH: 0.022183, YAW: -0.030376, X: 0.235260, Y: -0.086840, ALTITUDE: -1.273544, VX: 0.138076, VY: -0.076727, VZ: -0.498896 
TIME: 10.912905, ROLL: 0.010210, PITCH: 0.022183, YAW: -0.030376, X: 0.235260, Y: -0.086840, ALTITUDE: -1.273544, VX: 0.138076, VY: -0.076727, VZ: -0.498896 
TIME: 11.015303, ROLL: 0.026368, PITCH: 0.036049, YAW: -0.010438, X: 0.235260, Y: -0.086840, ALTITUDE: -1.273544, VX: 0.138076, VY: -0.076727, VZ: -0.498896 
TIME: 11.118002, ROLL: 0.026368, PITCH: 0.036049, YAW: -0.010438, X: 0.262138, Y: -0.083495, ALTITUDE: -1.319510, VX: 0.064489, VY: 0.008025, VZ: -0.010777 
TIME: 11.220484, ROLL: 0.026368, PITCH: 0.036049, YAW: -0.010438, X: 0.262138, Y: -0.083495, ALTITUDE: -1.319510, VX: 0.064489, VY: 0.008025, VZ: -0.010777 
TIME: 11.323097, ROLL: 0.026368, PITCH: 0.036049, YAW: -0.010438, X: 0.262138, Y: -0.083495, ALTITUDE: -1.319510, VX: 0.064489, VY: 0.008025, VZ: -0.010777 
TIME: 11.426041, ROLL: 0.022097, PITCH: 0.046570, YAW: 0.004838, X: 0.262138, Y: -0.083495, ALTITUDE: -1.319510, VX: 0.064489, VY: 0.008025, VZ: -0.010777 
TIME: 11.528748, ROLL: 0.022097, PITCH: 0.046570, YAW: 0.004838, X: 0.263238, Y: -0.038643, ALTITUDE: -1.287595, VX: 0.002688, VY: 0.109583, VZ: 0.396274 
TIME: 11.631205, ROLL: 0.022097, PITCH: 0.046570, YAW: 0.004838, X: 0.263238, Y: -0.038643, ALTITUDE: -1.287595, VX: 0.002688, VY: 0.109583, VZ: 0.396274 
TIME: 11.733820, ROLL: 0.022097, PITCH: 0.046570, YAW: 0.004838, X: 0.263238, Y: -0.038643, ALTITUDE: -1.287595, VX: 0.002688, VY: 0.109583, VZ: 0.396274 
TIME: 11.836377, ROLL: 0.005945, PITCH: 0.047198, YAW: 0.008459, X: 0.263238, Y: -0.038643, ALTITUDE: -1.287595, VX: 0.002688, VY: 0.109583, VZ: 0.396274 
TIME: 11.939071, ROLL: 0.005945, PITCH: 0.047198, YAW: 0.008459, X: 0.243594, Y: 0.014519, ALTITUDE: -1.228251, VX: -0.047694, VY: 0.129075, VZ: 0.276992 
TIME: 12.036783, ROLL: 0.005945, PITCH: 0.047198, YAW: 0.008459, X: 0.243594, Y: 0.014519, ALTITUDE: -1.228251, VX: -0.047694, VY: 0.129075, VZ: 0.276992 
TIME: 12.139387, ROLL: 0.005945, PITCH: 0.047198, YAW: 0.008459, X: 0.243594, Y: 0.014519, ALTITUDE: -1.228251, VX: -0.047694, VY: 0.129075, VZ: 0.276992 
TIME: 12.242076, ROLL: 0.005945, PITCH: 0.047198, YAW: 0.008459, X: 0.243594, Y: 0.014519, ALTITUDE: -1.228251, VX: -0.047694, VY: 0.129075, VZ: 0.276992 
TIME: 12.344910, ROLL: 0.008521, PITCH: 0.038979, YAW: 0.006688, X: 0.214212, Y: 0.069058, ALTITUDE: -1.228251, VX: -0.064488, VY: 0.119698, VZ: 0.104127 
TIME: 12.447533, ROLL: 0.008521, PITCH: 0.038979, YAW: 0.006688, X: 0.214212, Y: 0.069058, ALTITUDE: -1.204039, VX: -0.064488, VY: 0.119698, VZ: 0.104127 
TIME: 12.550086, ROLL: 0.008521, PITCH: 0.038979, YAW: 0.006688, X: 0.214212, Y: 0.069058, ALTITUDE: -1.204039, VX: -0.064488, VY: 0.119698, VZ: 0.104127 
TIME: 12.652780, ROLL: 0.008521, PITCH: 0.038979, YAW: 0.006688, X: 0.214212, Y: 0.069058, ALTITUDE: -1.204039, VX: -0.064488, VY: 0.119698, VZ: 0.104127 
TIME: 12.755540, ROLL: -0.005628, PITCH: 0.038308, YAW: 0.006277, X: 0.186167, Y: 0.109740, ALTITUDE: -1.188904, VX: -0.076099, VY: 0.110390, VZ: 0.103768 
TIME: 12.858108, ROLL: -0.005628, PITCH: 0.038308, YAW: 0.006277, X: 0.186167, Y: 0.109740, ALTITUDE: -1.188904, VX: -0.076099, VY: 0.110390, VZ: 0.103768 
TIME: 12.960734, ROLL: -0.005628, PITCH: 0.038308, YAW: 0.006277, X: 0.186167, Y: 0.109740, ALTITUDE: -1.188904, VX: -0.076099, VY: 0.110390, VZ: 0.103768 
TIME: 13.063447, ROLL: -0.005628, PITCH: 0.038308, YAW: 0.006277, X: 0.186167, Y: 0.109740, ALTITUDE: -1.188904, VX: -0.076099, VY: 0.110390, VZ: 0.103768 
TIME: 13.166178, ROLL: -0.010216, PITCH: 0.037280, YAW: 0.006828, X: 0.149827, Y: 0.142919, ALTITUDE: -1.170148, VX: -0.088549, VY: 0.080846, VZ: 0.106140 
TIME: 13.275413, ROLL: -0.010216, PITCH: 0.037280, YAW: 0.006828, X: 0.149827, Y: 0.142919, ALTITUDE: -1.170148, VX: -0.088549, VY: 0.080846, VZ: 0.106140 
TIME: 13.377608, ROLL: -0.010216, PITCH: 0.037280, YAW: 0.006828, X: 0.149827, Y: 0.142919, ALTITUDE: -1.170148, VX: -0.088549, VY: 0.080846, VZ: 0.106140 
TIME: 13.480069, ROLL: -0.021691, PITCH: 0.034855, YAW: 0.010132, X: 0.149827, Y: 0.142919, ALTITUDE: -1.170148, VX: -0.088549, VY: 0.080846, VZ: 0.106140 
TIME: 13.582671, ROLL: -0.021691, PITCH: 0.034855, YAW: 0.010132, X: 0.103618, Y: 0.166816, ALTITUDE: -1.147131, VX: -0.113677, VY: 0.058790, VZ: -0.016997 
TIME: 13.685204, ROLL: -0.021691, PITCH: 0.034855, YAW: 0.010132, X: 0.103618, Y: 0.166816, ALTITUDE: -1.147131, VX: -0.113677, VY: 0.058790, VZ: -0.016997 
TIME: 13.787522, ROLL: -0.021691, PITCH: 0.034855, YAW: 0.010132, X: 0.103618, Y: 0.166816, ALTITUDE: -1.147131, VX: -0.113677, VY: 0.058790, VZ: -0.016997 
TIME: 13.890032, ROLL: -0.019384, PITCH: 0.026744, YAW: 0.015120, X: 0.103618, Y: 0.166816, ALTITUDE: -1.147131, VX: -0.113677, VY: 0.058790, VZ: -0.016997 
TIME: 13.992589, ROLL: -0.019384, PITCH: 0.026744, YAW: 0.015120, X: 0.058699, Y: 0.186122, ALTITUDE: -1.164402, VX: -0.109667, VY: 0.047134, VZ: -0.093400 
TIME: 14.095366, ROLL: -0.019384, PITCH: 0.026744, YAW: 0.015120, X: 0.058699, Y: 0.186122, ALTITUDE: -1.164402, VX: -0.109667, VY: 0.047134, VZ: -0.093400 
TIME: 14.197712, ROLL: -0.019384, PITCH: 0.026744, YAW: 0.015120, X: 0.058699, Y: 0.186122, ALTITUDE: -1.164402, VX: -0.109667, VY: 0.047134, VZ: -0.093400 
TIME: 14.300290, ROLL: -0.019384, PITCH: 0.026744, YAW: 0.015120, X: 0.058699, Y: 0.186122, ALTITUDE: -1.164402, VX: -0.109667, VY: 0.047134, VZ: -0.093400 
TIME: 14.402945, ROLL: -0.022066, PITCH: 0.021744, YAW: 0.022215, X: 0.019920, Y: 0.197107, ALTITUDE: -1.164402, VX: -0.085236, VY: 0.024144, VZ: 0.176655 
TIME: 14.505528, ROLL: -0.022066, PITCH: 0.021744, YAW: 0.022215, X: 0.019920, Y: 0.197107, ALTITUDE: -1.145618, VX: -0.085236, VY: 0.024144, VZ: 0.176655 
TIME: 14.607914, ROLL: -0.022066, PITCH: 0.021744, YAW: 0.022215, X: 0.019920, Y: 0.197107, ALTITUDE: -1.145618, VX: -0.085236, VY: 0.024144, VZ: 0.176655 
TIME: 14.710466, ROLL: -0.023155, PITCH: 0.025826, YAW: 0.028967, X: 0.019920, Y: 0.197107, ALTITUDE: -1.145618, VX: -0.085236, VY: 0.024144, VZ: 0.176655 
TIME: 14.813003, ROLL: -0.023155, PITCH: 0.025826, YAW: 0.028967, X: 0.000857, Y: 0.193385, ALTITUDE: -1.119284, VX: -0.051247, VY: -0.010007, VZ: 0.054041 
TIME: 14.915421, ROLL: -0.023155, PITCH: 0.025826, YAW: 0.028967, X: 0.000857, Y: 0.193385, ALTITUDE: -1.119284, VX: -0.051247, VY: -0.010007, VZ: 0.054041 
TIME: 15.017886, ROLL: -0.023155, PITCH: 0.025826, YAW: 0.028967, X: 0.000857, Y: 0.193385, ALTITUDE: -1.119284, VX: -0.051247, VY: -0.010007, VZ: 0.054041 
TIME: 15.120536, ROLL: -0.023155, PITCH: 0.025826, YAW: 0.028967, X: 0.000857, Y: 0.193385, ALTITUDE: -1.119284, VX: -0.051247, VY: -0.010007, VZ: 0.054041 
TIME: 15.222361, ROLL: -0.026682, PITCH: 0.024078, YAW: 0.036961, X: -0.021847, Y: 0.187811, ALTITUDE: -1.115489, VX: -0.056120, VY: -0.013778, VZ: -0.007439 
TIME: 15.324942, ROLL: -0.026682, PITCH: 0.024078, YAW: 0.036961, X: -0.021847, Y: 0.187811, ALTITUDE: -1.115489, VX: -0.056120, VY: -0.013778, VZ: -0.007439 
TIME: 15.427457, ROLL: -0.026682, PITCH: 0.024078, YAW: 0.036961, X: -0.021847, Y: 0.187811, ALTITUDE: -1.115489, VX: -0.056120, VY: -0.013778, VZ: -0.007439 
TIME: 15.529904, ROLL: -0.031241, PITCH: 0.020892, YAW: 0.042158, X: -0.021847, Y: 0.187811, ALTITUDE: -1.115489, VX: -0.056120, VY: -0.013778, VZ: -0.007439 
TIME: 15.632447, ROLL: -0.031241, PITCH: 0.020892, YAW: 0.042158, X: -0.042565, Y: 0.171536, ALTITUDE: -1.092124, VX: -0.050557, VY: -0.039716, VZ: 0.237873 
TIME: 15.734957, ROLL: -0.031241, PITCH: 0.020892, YAW: 0.042158, X: -0.042565, Y: 0.171536, ALTITUDE: -1.092124, VX: -0.050557, VY: -0.039716, VZ: 0.237873 
TIME: 15.837502, ROLL: -0.031241, PITCH: 0.020892, YAW: 0.042158, X: -0.042565, Y: 0.171536, ALTITUDE: -1.092124, VX: -0.050557, VY: -0.039716, VZ: 0.237873 
TIME: 15.940011, ROLL: -0.023308, PITCH: 0.016278, YAW: 0.042198, X: -0.042565, Y: 0.171536, ALTITUDE: -1.092124, VX: -0.050557, VY: -0.039716, VZ: 0.237873 
TIME: 16.042591, ROLL: -0.023308, PITCH: 0.016278, YAW: 0.042198, X: -0.064366, Y: 0.137795, ALTITUDE: -1.058330, VX: -0.053251, VY: -0.082415, VZ: 0.086202 
TIME: 16.143469, ROLL: -0.023308, PITCH: 0.016278, YAW: 0.042198, X: -0.064366, Y: 0.137795, ALTITUDE: -1.058330, VX: -0.053251, VY: -0.082415, VZ: 0.086202 
TIME: 16.245810, ROLL: -0.023308, PITCH: 0.016278, YAW: 0.042198, X: -0.064366, Y: 0.137795, ALTITUDE: -1.058330, VX: -0.053251, VY: -0.082415, VZ: 0.086202 
TIME: 16.348310, ROLL: -0.023308, PITCH: 0.016278, YAW: 0.042198, X: -0.064366, Y: 0.137795, ALTITUDE: -1.058330, VX: -0.053251, VY: -0.082415, VZ: 0.086202 
TIME: 16.450878, ROLL: -0.018969, PITCH: 0.017413, YAW: 0.039460, X: -0.086437, Y: 0.096828, ALTITUDE: -1.058330, VX: -0.048705, VY: -0.090402, VZ: -0.010275 
TIME: 16.553473, ROLL: -0.018969, PITCH: 0.017413, YAW: 0.039460, X: -0.086437, Y: 0.096828, ALTITUDE: -1.033904, VX: -0.048705, VY: -0.090402, VZ: -0.010275 
TIME: 16.656452, ROLL: -0.018969, PITCH: 0.017413, YAW: 0.039460, X: -0.086437, Y: 0.096828, ALTITUDE: -1.033904, VX: -0.048705, VY: -0.090402, VZ: -0.010275 
TIME: 16.759321, ROLL: -0.015917, PITCH: 0.016461, YAW: 0.034286, X: -0.086437, Y: 0.096828, ALTITUDE: -1.033904, VX: -0.048705, VY: -0.090402, VZ: -0.010275 
TIME: 16.861946, ROLL: -0.015917, PITCH: 0.016461, YAW: 0.034286, X: -0.110129, Y: 0.069663, ALTITUDE: -1.041906, VX: -0.063875, VY: -0.073239, VZ: -0.074771 
TIME: 16.964462, ROLL: -0.015917, PITCH: 0.016461, YAW: 0.034286, X: -0.110129, Y: 0.069663, ALTITUDE: -1.041906, VX: -0.063875, VY: -0.073239, VZ: -0.074771 
TIME: 17.067116, ROLL: -0.015917, PITCH: 0.016461, YAW: 0.034286, X: -0.110129, Y: 0.069663, ALTITUDE: -1.041906, VX: -0.063875, VY: -0.073239, VZ: -0.074771 
TIME: 17.169666, ROLL: -0.011556, PITCH: 0.010900, YAW: 0.027967, X: -0.110129, Y: 0.069663, ALTITUDE: -1.041906, VX: -0.063875, VY: -0.073239, VZ: -0.074771 
TIME: 17.272308, ROLL: -0.011556, PITCH: 0.010900, YAW: 0.027967, X: -0.134084, Y: 0.028221, ALTITUDE: -1.030613, VX: -0.058460, VY: -0.101137, VZ: 0.062648 
TIME: 17.374884, ROLL: -0.011556, PITCH: 0.010900, YAW: 0.027967, X: -0.134084, Y: 0.028221, ALTITUDE: -1.030613, VX: -0.058460, VY: -0.101137, VZ: 0.062648 
TIME: 17.474319, ROLL: -0.011556, PITCH: 0.010900, YAW: 0.027967, X: -0.134084, Y: 0.028221, ALTITUDE: -1.030613, VX: -0.058460, VY: -0.101137, VZ: 0.062648 
TIME: 17.526869, ROLL: 0.007813, PITCH: 0.010275, YAW: 0.022880, X: -0.134084, Y: 0.028221, ALTITUDE: -1.030613, VX: -0.058460, VY: -0.101137, VZ: 0.062648 
TIME: 17.579678, ROLL: 0.007813, PITCH: 0.010275, YAW: 0.022880, X: -0.148887, Y: -0.002409, ALTITUDE: -1.035709, VX: -0.043979, VY: -0.091002, VZ: -0.180128 
TIME: 17.632156, ROLL: 0.007813, PITCH: 0.010275, YAW: 0.022880, X: -0.148887, Y: -0.002409, ALTITUDE: -1.035709, VX: -0.043979, VY: -0.091002, VZ: -0.180128 
TIME: 17.684940, ROLL: 0.007813, PITCH: 0.010275, YAW: 0.022880, X: -0.148887, Y: -0.002409, ALTITUDE: -1.035709, VX: -0.043979, VY: -0.091002, VZ: -0.180128 
TIME: 17.737669, ROLL: 0.019642, PITCH: 0.011942, YAW: 0.020629, X: -0.148887, Y: -0.002409, ALTITUDE: -1.035709, VX: -0.043979, VY: -0.091002, VZ: -0.180128 
TIME: 17.791475, ROLL: 0.019642, PITCH: 0.011942, YAW: 0.020629, X: -0.161150, Y: -0.006717, ALTITUDE: -1.069931, VX: -0.055328, VY: -0.019435, VZ: -0.142828 
TIME: 17.845055, ROLL: 0.019642, PITCH: 0.011942, YAW: 0.020629, X: -0.161150, Y: -0.006717, ALTITUDE: -1.069931, VX: -0.055328, VY: -0.019435, VZ: -0.142828 
TIME: 17.898792, ROLL: 0.019642, PITCH: 0.011942, YAW: 0.020629, X: -0.161150, Y: -0.006717, ALTITUDE: -1.069931, VX: -0.055328, VY: -0.019435, VZ: -0.142828 
TIME: 17.951868, ROLL: 0.019642, PITCH: 0.011942, YAW: 0.020629, X: -0.161150, Y: -0.006717, ALTITUDE: -1.069931, VX: -0.055328, VY: -0.019435, VZ: -0.142828 
TIME: 18.004965, ROLL: -0.002531, PITCH: 0.012403, YAW: 0.019346, X: -0.186986, Y: -0.013535, ALTITUDE: -1.069931, VX: -0.113520, VY: -0.029956, VZ: -0.048428 
TIME: 18.058022, ROLL: -0.002531, PITCH: 0.012403, YAW: 0.019346, X: -0.186986, Y: -0.013535, ALTITUDE: -1.082716, VX: -0.113520, VY: -0.029956, VZ: -0.048428 
TIME: 18.111179, ROLL: -0.002531, PITCH: 0.012403, YAW: 0.019346, X: -0.186986, Y: -0.013535, ALTITUDE: -1.082716, VX: -0.113520, VY: -0.029956, VZ: -0.048428 
TIME: 18.164145, ROLL: 0.000155, PITCH: -0.004911, YAW: 0.021332, X: -0.186986, Y: -0.013535, ALTITUDE: -1.082716, VX: -0.113520, VY: -0.029956, VZ: -0.048428 
TIME: 18.216999, ROLL: 0.000155, PITCH: -0.004911, YAW: 0.021332, X: -0.211333, Y: -0.024583, ALTITUDE: -1.082716, VX: -0.122287, VY: -0.055493, VZ: -0.027437 
TIME: 18.270367, ROLL: 0.000155, PITCH: -0.004911, YAW: 0.021332, X: -0.211333, Y: -0.024583, ALTITUDE: -1.092203, VX: -0.122287, VY: -0.055493, VZ: -0.027437 
TIME: 18.323921, ROLL: 0.000155, PITCH: -0.004911, YAW: 0.021332, X: -0.211333, Y: -0.024583, ALTITUDE: -1.092203, VX: -0.122287, VY: -0.055493, VZ: -0.027437 
TIME: 18.376848, ROLL: 0.006323, PITCH: -0.012300, YAW: 0.029092, X: -0.211333, Y: -0.024583, ALTITUDE: -1.092203, VX: -0.122287, VY: -0.055493, VZ: -0.027437 
TIME: 18.430204, ROLL: 0.006323, PITCH: -0.012300, YAW: 0.029092, X: -0.224151, Y: -0.038716, ALTITUDE: -1.106911, VX: -0.061328, VY: -0.067616, VZ: -0.035313 
TIME: 18.483566, ROLL: 0.006323, PITCH: -0.012300, YAW: 0.029092, X: -0.224151, Y: -0.038716, ALTITUDE: -1.106911, VX: -0.061328, VY: -0.067616, VZ: -0.035313 
TIME: 18.536636, ROLL: 0.006323, PITCH: -0.012300, YAW: 0.029092, X: -0.224151, Y: -0.038716, ALTITUDE: -1.106911, VX: -0.061328, VY: -0.067616, VZ: -0.035313 
TIME: 18.590096, ROLL: 0.003676, PITCH: -0.010811, YAW: 0.035452, X: -0.224151, Y: -0.038716, ALTITUDE: -1.106911, VX: -0.061328, VY: -0.067616, VZ: -0.035313 
TIME: 18.643520, ROLL: 0.003676, PITCH: -0.010811, YAW: 0.035452, X: -0.227585, Y: -0.053471, ALTITUDE: -1.109516, VX: -0.015895, VY: -0.068306, VZ: -0.025847 
TIME: 18.696579, ROLL: 0.003676, PITCH: -0.010811, YAW: 0.035452, X: -0.227585, Y: -0.053471, ALTITUDE: -1.109516, VX: -0.015895, VY: -0.068306, VZ: -0.025847 
TIME: 18.749258, ROLL: 0.003676, PITCH: -0.010811, YAW: 0.035452, X: -0.227585, Y: -0.053471, ALTITUDE: -1.109516, VX: -0.015895, VY: -0.068306, VZ: -0.025847 
TIME: 18.801859, ROLL: 0.017073, PITCH: -0.000928, YAW: 0.036344, X: -0.227585, Y: -0.053471, ALTITUDE: -1.109516, VX: -0.015895, VY: -0.068306, VZ: -0.025847 
TIME: 18.855219, ROLL: 0.017073, PITCH: -0.000928, YAW: 0.036344, X: -0.226793, Y: -0.068348, ALTITUDE: -1.117054, VX: 0.003916, VY: -0.073557, VZ: -0.026210 
TIME: 18.908375, ROLL: 0.017073, PITCH: -0.000928, YAW: 0.036344, X: -0.226793, Y: -0.068348, ALTITUDE: -1.117054, VX: 0.003916, VY: -0.073557, VZ: -0.026210 
TIME: 18.961294, ROLL: 0.017073, PITCH: -0.000928, YAW: 0.036344, X: -0.226793, Y: -0.068348, ALTITUDE: -1.117054, VX: 0.003916, VY: -0.073557, VZ: -0.026210 
TIME: 19.014368, ROLL: 0.017073, PITCH: -0.000928, YAW: 0.036344, X: -0.226793, Y: -0.068348, ALTITUDE: -1.117054, VX: 0.003916, VY: -0.073557, VZ: -0.026210 
TIME: 19.067238, ROLL: 0.034523, PITCH: 0.001120, YAW: 0.030797, X: -0.225674, Y: -0.076305, ALTITUDE: -1.117054, VX: 0.004814, VY: -0.034239, VZ: -0.014842 
TIME: 19.119909, ROLL: 0.034523, PITCH: 0.001120, YAW: 0.030797, X: -0.225674, Y: -0.076305, ALTITUDE: -1.118067, VX: 0.004814, VY: -0.034239, VZ: -0.014842 
TIME: 19.172777, ROLL: 0.034523, PITCH: 0.001120, YAW: 0.030797, X: -0.225674, Y: -0.076305, ALTITUDE: -1.118067, VX: 0.004814, VY: -0.034239, VZ: -0.014842 
TIME: 19.226593, ROLL: 0.028991, PITCH: -0.003732, YAW: 0.023876, X: -0.225674, Y: -0.076305, ALTITUDE: -1.118067, VX: 0.004814, VY: -0.034239, VZ: -0.014842 
TIME: 19.279402, ROLL: 0.028991, PITCH: -0.003732, YAW: 0.023876, X: -0.222568, Y: -0.073446, ALTITUDE: -1.125445, VX: 0.015973, VY: 0.014703, VZ: -0.025474 
TIME: 19.332033, ROLL: 0.028991, PITCH: -0.003732, YAW: 0.023876, X: -0.222568, Y: -0.073446, ALTITUDE: -1.125445, VX: 0.015973, VY: 0.014703, VZ: -0.025474 
TIME: 19.384808, ROLL: 0.028991, PITCH: -0.003732, YAW: 0.023876, X: -0.222568, Y: -0.073446, ALTITUDE: -1.125445, VX: 0.015973, VY: 0.014703, VZ: -0.025474 
TIME: 19.437874, ROLL: 0.028991, PITCH: -0.003732, YAW: 0.023876, X: -0.222568, Y: -0.073446, ALTITUDE: -1.125445, VX: 0.015973, VY: 0.014703, VZ: -0.025474 
TIME: 19.469833, ROLL: 0.018140, PITCH: -0.001139, YAW: 0.020688, X: -0.216655, Y: -0.068713, ALTITUDE: -1.120983, VX: 0.027833, VY: 0.022278, VZ: -0.010578 
TIME: 19.480257, ROLL: 0.018140, PITCH: -0.001139, YAW: 0.020688, X: -0.216655, Y: -0.068713, ALTITUDE: -1.120983, VX: 0.027833, VY: 0.022278, VZ: -0.010578 
TIME: 19.493410, ROLL: 0.018140, PITCH: -0.001139, YAW: 0.020688, X: -0.216655, Y: -0.068713, ALTITUDE: -1.120983, VX: 0.027833, VY: 0.022278, VZ: -0.010578 
TIME: 19.546284, ROLL: 0.018140, PITCH: -0.001139, YAW: 0.020688, X: -0.216655, Y: -0.068713, ALTITUDE: -1.120983, VX: 0.027833, VY: 0.022278, VZ: -0.010578 
TIME: 19.599258, ROLL: 0.023908, PITCH: -0.000361, YAW: 0.020245, X: -0.212514, Y: -0.065209, ALTITUDE: -1.117599, VX: 0.037873, VY: 0.032039, VZ: -0.010171 
TIME: 19.652657, ROLL: 0.023908, PITCH: -0.000361, YAW: 0.020245, X: -0.212514, Y: -0.065209, ALTITUDE: -1.117599, VX: 0.037873, VY: 0.032039, VZ: -0.010171 
TIME: 19.667936, ROLL: 0.023908, PITCH: -0.000361, YAW: 0.020245, X: -0.212514, Y: -0.065209, ALTITUDE: -1.117599, VX: 0.037873, VY: 0.032039, VZ: -0.010171 
TIME: 19.693813, ROLL: 0.023908, PITCH: -0.000361, YAW: 0.020245, X: -0.212514, Y: -0.065209, ALTITUDE: -1.117599, VX: 0.037873, VY: 0.032039, VZ: -0.010171 
TIME: 19.747221, ROLL: 0.020162, PITCH: -0.001219, YAW: 0.024063, X: -0.204953, Y: -0.057542, ALTITUDE: -1.117599, VX: 0.051488, VY: 0.052211, VZ: -0.006359 
TIME: 19.799520, ROLL: 0.020162, PITCH: -0.001219, YAW: 0.024063, X: -0.204953, Y: -0.057542, ALTITUDE: -1.114331, VX: 0.051488, VY: 0.052211, VZ: -0.006359 
TIME: 19.852724, ROLL: 0.020162, PITCH: -0.001219, YAW: 0.024063, X: -0.204953, Y: -0.057542, ALTITUDE: -1.114331, VX: 0.051488, VY: 0.052211, VZ: -0.006359 
TIME: 19.905771, ROLL: 0.020162, PITCH: -0.001219, YAW: 0.024063, X: -0.204953, Y: -0.057542, ALTITUDE: -1.114331, VX: 0.051488, VY: 0.052211, VZ: -0.006359 
TIME: 19.958675, ROLL: 0.026724, PITCH: 0.002687, YAW: 0.029282, X: -0.189850, Y: -0.042429, ALTITUDE: -1.114331, VX: 0.064373, VY: 0.064417, VZ: -0.019563 
TIME: 20.011425, ROLL: 0.026724, PITCH: 0.002687, YAW: 0.029282, X: -0.189850, Y: -0.042429, ALTITUDE: -1.113192, VX: 0.064373, VY: 0.064417, VZ: -0.019563 
TIME: 20.064335, ROLL: 0.026724, PITCH: 0.002687, YAW: 0.029282, X: -0.189850, Y: -0.042429, ALTITUDE: -1.113192, VX: 0.064373, VY: 0.064417, VZ: -0.019563 
TIME: 20.116970, ROLL: 0.026724, PITCH: 0.002687, YAW: 0.029282, X: -0.189850, Y: -0.042429, ALTITUDE: -1.113192, VX: 0.064373, VY: 0.064417, VZ: -0.019563 
TIME: 20.150585, ROLL: 0.016230, PITCH: 0.008008, YAW: 0.030801, X: -0.175434, Y: -0.023191, ALTITUDE: -1.113192, VX: 0.074262, VY: 0.099101, VZ: -0.009768 
TIME: 20.164602, ROLL: 0.016230, PITCH: 0.008008, YAW: 0.030801, X: -0.175434, Y: -0.023191, ALTITUDE: -1.116405, VX: 0.074262, VY: 0.099101, VZ: -0.009768 
TIME: 20.176985, ROLL: 0.016230, PITCH: 0.008008, YAW: 0.030801, X: -0.175434, Y: -0.023191, ALTITUDE: -1.116405, VX: 0.074262, VY: 0.099101, VZ: -0.009768 
TIME: 20.187090, ROLL: -0.006392, PITCH: 0.014324, YAW: 0.028497, X: -0.175434, Y: -0.023191, ALTITUDE: -1.116405, VX: 0.074262, VY: 0.099101, VZ: -0.009768 
TIME: 20.201855, ROLL: -0.006392, PITCH: 0.014324, YAW: 0.028497, X: -0.171286, Y: -0.018361, ALTITUDE: -1.109407, VX: 0.081773, VY: 0.095209, VZ: -0.011084 
TIME: 20.216084, ROLL: -0.006392, PITCH: 0.014324, YAW: 0.028497, X: -0.171286, Y: -0.018361, ALTITUDE: -1.109407, VX: 0.081773, VY: 0.095209, VZ: -0.011084 
TIME: 20.230646, ROLL: -0.006392, PITCH: 0.014324, YAW: 0.028497, X: -0.171286, Y: -0.018361, ALTITUDE: -1.109407, VX: 0.081773, VY: 0.095209, VZ: -0.011084 
TIME: 20.250027, ROLL: -0.008680, PITCH: 0.020690, YAW: 0.026731, X: -0.171286, Y: -0.018361, ALTITUDE: -1.109407, VX: 0.081773, VY: 0.095209, VZ: -0.011084 
TIME: 20.261292, ROLL: -0.008680, PITCH: 0.020690, YAW: 0.026731, X: -0.166605, Y: -0.014806, ALTITUDE: -1.108946, VX: 0.076881, VY: 0.058392, VZ: -0.016446 
TIME: 20.269875, ROLL: -0.008680, PITCH: 0.020690, YAW: 0.026731, X: -0.166605, Y: -0.014806, ALTITUDE: -1.108946, VX: 0.076881, VY: 0.058392, VZ: -0.016446 
TIME: 20.284319, ROLL: -0.008680, PITCH: 0.020690, YAW: 0.026731, X: -0.166605, Y: -0.014806, ALTITUDE: -1.108946, VX: 0.076881, VY: 0.058392, VZ: -0.016446 
TIME: 20.295122, ROLL: 0.004153, PITCH: 0.020146, YAW: 0.026355, X: -0.166605, Y: -0.014806, ALTITUDE: -1.108946, VX: 0.076881, VY: 0.058392, VZ: -0.016446 
TIME: 20.336441, ROLL: 0.004153, PITCH: 0.020146, YAW: 0.026355, X: -0.164198, Y: -0.012868, ALTITUDE: -1.110805, VX: 0.048376, VY: 0.038959, VZ: -0.022983 
TIME: 20.389593, ROLL: 0.004153, PITCH: 0.020146, YAW: 0.026355, X: -0.164198, Y: -0.012868, ALTITUDE: -1.110805, VX: 0.048376, VY: 0.038959, VZ: -0.022983 
TIME: 20.442572, ROLL: 0.004153, PITCH: 0.020146, YAW: 0.026355, X: -0.164198, Y: -0.012868, ALTITUDE: -1.110805, VX: 0.048376, VY: 0.038959, VZ: -0.022983 
TIME: 20.495497, ROLL: 0.004153, PITCH: 0.020146, YAW: 0.026355, X: -0.164198, Y: -0.012868, ALTITUDE: -1.110805, VX: 0.048376, VY: 0.038959, VZ: -0.022983 
TIME: 20.548500, ROLL: -0.007640, PITCH: 0.021447, YAW: 0.028398, X: -0.156856, Y: -0.001141, ALTITUDE: -1.110805, VX: 0.031797, VY: 0.050784, VZ: -0.017497 
TIME: 20.601797, ROLL: -0.007640, PITCH: 0.021447, YAW: 0.028398, X: -0.156856, Y: -0.001141, ALTITUDE: -1.107513, VX: 0.031797, VY: 0.050784, VZ: -0.017497 
TIME: 20.654312, ROLL: -0.007640, PITCH: 0.021447, YAW: 0.028398, X: -0.156856, Y: -0.001141, ALTITUDE: -1.107513, VX: 0.031797, VY: 0.050784, VZ: -0.017497 
TIME: 20.706991, ROLL: -0.020133, PITCH: 0.024271, YAW: 0.032522, X: -0.156856, Y: -0.001141, ALTITUDE: -1.107513, VX: 0.031797, VY: 0.050784, VZ: -0.017497 
TIME: 20.759848, ROLL: -0.020133, PITCH: 0.024271, YAW: 0.032522, X: -0.152927, Y: 0.003863, ALTITUDE: -1.105799, VX: 0.020742, VY: 0.026421, VZ: -0.020399 
TIME: 20.812614, ROLL: -0.020133, PITCH: 0.024271, YAW: 0.032522, X: -0.152927, Y: 0.003863, ALTITUDE: -1.105799, VX: 0.020742, VY: 0.026421, VZ: -0.020399 
TIME: 20.839815, ROLL: -0.020133, PITCH: 0.024271, YAW: 0.032522, X: -0.152927, Y: 0.003863, ALTITUDE: -1.105799, VX: 0.020742, VY: 0.026421, VZ: -0.020399 
TIME: 20.849859, ROLL: -0.007815, PITCH: 0.024757, YAW: 0.039456, X: -0.152927, Y: 0.003863, ALTITUDE: -1.105799, VX: 0.020742, VY: 0.026421, VZ: -0.020399 
TIME: 20.864376, ROLL: -0.007815, PITCH: 0.024757, YAW: 0.039456, X: -0.151564, Y: 0.004919, ALTITUDE: -1.105793, VX: 0.010530, VY: 0.008161, VZ: -0.025899 
TIME: 20.891150, ROLL: -0.007815, PITCH: 0.024757, YAW: 0.039456, X: -0.151564, Y: 0.004919, ALTITUDE: -1.105793, VX: 0.010530, VY: 0.008161, VZ: -0.025899 
TIME: 20.943771, ROLL: -0.007815, PITCH: 0.024757, YAW: 0.039456, X: -0.151564, Y: 0.004919, ALTITUDE: -1.105793, VX: 0.010530, VY: 0.008161, VZ: -0.025899 
TIME: 20.997368, ROLL: -0.002924, PITCH: 0.026993, YAW: 0.044958, X: -0.151564, Y: 0.004919, ALTITUDE: -1.105793, VX: 0.010530, VY: 0.008161, VZ: -0.025899 
TIME: 21.050179, ROLL: -0.002924, PITCH: 0.026993, YAW: 0.044958, X: -0.149816, Y: 0.005423, ALTITUDE: -1.106684, VX: 0.010820, VY: 0.003120, VZ: -0.020222 
TIME: 21.102695, ROLL: -0.002924, PITCH: 0.026993, YAW: 0.044958, X: -0.149816, Y: 0.005423, ALTITUDE: -1.106684, VX: 0.010820, VY: 0.003120, VZ: -0.020222 
TIME: 21.155363, ROLL: -0.002924, PITCH: 0.026993, YAW: 0.044958, X: -0.149816, Y: 0.005423, ALTITUDE: -1.106684, VX: 0.010820, VY: 0.003120, VZ: -0.020222 
TIME: 21.208569, ROLL: -0.002924, PITCH: 0.026993, YAW: 0.044958, X: -0.149816, Y: 0.005423, ALTITUDE: -1.106684, VX: 0.010820, VY: 0.003120, VZ: -0.020222 
TIME: 21.261330, ROLL: -0.009166, PITCH: 0.023330, YAW: 0.047458, X: -0.147440, Y: 0.005853, ALTITUDE: -1.109699, VX: 0.010834, VY: 0.001960, VZ: -0.022625 
TIME: 21.313873, ROLL: -0.009166, PITCH: 0.023330, YAW: 0.047458, X: -0.147440, Y: 0.005853, ALTITUDE: -1.109699, VX: 0.010834, VY: 0.001960, VZ: -0.022625 
TIME: 21.366863, ROLL: -0.009166, PITCH: 0.023330, YAW: 0.047458, X: -0.147440, Y: 0.005853, ALTITUDE: -1.109699, VX: 0.010834, VY: 0.001960, VZ: -0.022625 
TIME: 21.419542, ROLL: -0.009166, PITCH: 0.023330, YAW: 0.047458, X: -0.147440, Y: 0.005853, ALTITUDE: -1.109699, VX: 0.010834, VY: 0.001960, VZ: -0.022625 
TIME: 21.472387, ROLL: -0.003962, PITCH: 0.021873, YAW: 0.049723, X: -0.145426, Y: 0.004528, ALTITUDE: -1.109699, VX: 0.009050, VY: -0.005957, VZ: -0.024683 
TIME: 21.525089, ROLL: -0.003962, PITCH: 0.021873, YAW: 0.049723, X: -0.145426, Y: 0.004528, ALTITUDE: -1.112924, VX: 0.009050, VY: -0.005957, VZ: -0.024683 
TIME: 21.557425, ROLL: -0.003962, PITCH: 0.021873, YAW: 0.049723, X: -0.145426, Y: 0.004528, ALTITUDE: -1.112924, VX: 0.009050, VY: -0.005957, VZ: -0.024683 
TIME: 21.606474, ROLL: -0.009399, PITCH: 0.022485, YAW: 0.050611, X: -0.145426, Y: 0.004528, ALTITUDE: -1.112924, VX: 0.009050, VY: -0.005957, VZ: -0.024683 
TIME: 21.659414, ROLL: -0.009399, PITCH: 0.022485, YAW: 0.050611, X: -0.143453, Y: 0.002796, ALTITUDE: -1.115486, VX: 0.011947, VY: -0.010483, VZ: -0.024754 
TIME: 21.712154, ROLL: -0.009399, PITCH: 0.022485, YAW: 0.050611, X: -0.143453, Y: 0.002796, ALTITUDE: -1.115486, VX: 0.011947, VY: -0.010483, VZ: -0.024754 
TIME: 21.766418, ROLL: -0.009399, PITCH: 0.022485, YAW: 0.050611, X: -0.143453, Y: 0.002796, ALTITUDE: -1.115486, VX: 0.011947, VY: -0.010483, VZ: -0.024754 
TIME: 21.822277, ROLL: -0.006716, PITCH: 0.027102, YAW: 0.048143, X: -0.143453, Y: 0.002796, ALTITUDE: -1.115486, VX: 0.011947, VY: -0.010483, VZ: -0.024754 
TIME: 21.874977, ROLL: -0.006716, PITCH: 0.027102, YAW: 0.048143, X: -0.143098, Y: -0.003156, ALTITUDE: -1.117510, VX: 0.001682, VY: -0.028227, VZ: -0.019588 
TIME: 21.927740, ROLL: -0.006716, PITCH: 0.027102, YAW: 0.048143, X: -0.143098, Y: -0.003156, ALTITUDE: -1.117510, VX: 0.001682, VY: -0.028227, VZ: -0.019588 
TIME: 21.980347, ROLL: -0.006716, PITCH: 0.027102, YAW: 0.048143, X: -0.143098, Y: -0.003156, ALTITUDE: -1.117510, VX: 0.001682, VY: -0.028227, VZ: -0.019588 
TIME: 22.016747, ROLL: -0.001071, PITCH: 0.029703, YAW: 0.042744, X: -0.143098, Y: -0.003156, ALTITUDE: -1.117510, VX: 0.001682, VY: -0.028227, VZ: -0.019588 
TIME: 22.064989, ROLL: -0.001071, PITCH: 0.029703, YAW: 0.042744, X: -0.143539, Y: -0.008347, ALTITUDE: -1.119458, VX: -0.002342, VY: -0.027570, VZ: -0.015685 
TIME: 22.122898, ROLL: -0.001071, PITCH: 0.029703, YAW: 0.042744, X: -0.143539, Y: -0.008347, ALTITUDE: -1.119458, VX: -0.002342, VY: -0.027570, VZ: -0.015685 
TIME: 22.183548, ROLL: -0.001071, PITCH: 0.029703, YAW: 0.042744, X: -0.143539, Y: -0.008347, ALTITUDE: -1.119458, VX: -0.002342, VY: -0.027570, VZ: -0.015685 
TIME: 22.239899, ROLL: -0.002994, PITCH: 0.013471, YAW: 0.034304, X: -0.143539, Y: -0.008347, ALTITUDE: -1.119458, VX: -0.002342, VY: -0.027570, VZ: -0.015685 
TIME: 22.299232, ROLL: -0.002994, PITCH: 0.013471, YAW: 0.034304, X: -0.142168, Y: -0.014626, ALTITUDE: -1.113202, VX: 0.005832, VY: -0.026712, VZ: 0.070922 
TIME: 22.356379, ROLL: -0.002994, PITCH: 0.013471, YAW: 0.034304, X: -0.142168, Y: -0.014626, ALTITUDE: -1.113202, VX: 0.005832, VY: -0.026712, VZ: 0.070922 
TIME: 22.455593, ROLL: -0.002994, PITCH: 0.013471, YAW: 0.034304, X: -0.142168, Y: -0.014626, ALTITUDE: -1.113202, VX: 0.005832, VY: -0.026712, VZ: 0.070922 
TIME: 22.558128, ROLL: -0.002994, PITCH: 0.013471, YAW: 0.034304, X: -0.142168, Y: -0.014626, ALTITUDE: -1.113202, VX: 0.005832, VY: -0.026712, VZ: 0.070922 
TIME: 22.660744, ROLL: -0.000686, PITCH: 0.009773, YAW: 0.023339, X: -0.134959, Y: -0.031261, ALTITUDE: -1.113202, VX: 0.019418, VY: -0.044805, VZ: 0.190087 
TIME: 22.763416, ROLL: -0.000686, PITCH: 0.009773, YAW: 0.023339, X: -0.134959, Y: -0.031261, ALTITUDE: -1.079890, VX: 0.019418, VY: -0.044805, VZ: 0.190087 
TIME: 22.866644, ROLL: -0.000686, PITCH: 0.009773, YAW: 0.023339, X: -0.134959, Y: -0.031261, ALTITUDE: -1.079890, VX: 0.019418, VY: -0.044805, VZ: 0.190087 
