TIME: 1430250475, ROLL: 0.000000, PITCH: 0.000000, YAW: 0.000000, ALTITUDE: 0.000000, DES_GAZ: 0.000000
TIME: 1430250475, ROLL: 0.025994, PITCH: 0.007654, YAW: 0.014107, ALTITUDE: 0.000000, DES_GAZ: 0.014107
TIME: 1430250475, ROLL: 0.025994, PITCH: 0.007654, YAW: 0.014107, ALTITUDE: 0.000000, DES_GAZ: 0.014107
TIME: 1430250476, ROLL: 0.025994, PITCH: 0.007654, YAW: 0.014107, ALTITUDE: 0.000000, DES_GAZ: 0.014107
TIME: 1430250476, ROLL: 0.025785, PITCH: 0.007760, YAW: 0.013963, ALTITUDE: 0.000000, DES_GAZ: 0.013963
TIME: 1430250476, ROLL: 0.025785, PITCH: 0.007760, YAW: 0.013963, ALTITUDE: 0.000000, DES_GAZ: 0.013963
TIME: 1430250476, ROLL: 0.025785, PITCH: 0.007760, YAW: 0.013963, ALTITUDE: 0.000000, DES_GAZ: 0.013963
TIME: 1430250476, ROLL: 0.025785, PITCH: 0.007760, YAW: 0.013963, ALTITUDE: 0.000000, DES_GAZ: 0.013963
TIME: 1430250476, ROLL: 0.025796, PITCH: 0.008003, YAW: 0.014025, ALTITUDE: 0.000000, DES_GAZ: 0.014025
TIME: 1430250476, ROLL: 0.025796, PITCH: 0.008003, YAW: 0.014025, ALTITUDE: 0.000000, DES_GAZ: 0.014025
TIME: 1430250476, ROLL: 0.025796, PITCH: 0.008003, YAW: 0.014025, ALTITUDE: 0.000000, DES_GAZ: 0.014025
TIME: 1430250476, ROLL: 0.025796, PITCH: 0.008003, YAW: 0.014025, ALTITUDE: 0.000000, DES_GAZ: 0.014025
TIME: 1430250476, ROLL: 0.025710, PITCH: 0.007490, YAW: 0.013992, ALTITUDE: 0.000000, DES_GAZ: 0.013992
TIME: 1430250476, ROLL: 0.025710, PITCH: 0.007490, YAW: 0.013992, ALTITUDE: 0.000000, DES_GAZ: 0.013992
TIME: 1430250476, ROLL: 0.025710, PITCH: 0.007490, YAW: 0.013992, ALTITUDE: 0.000000, DES_GAZ: 0.013992
TIME: 1430250476, ROLL: 0.025710, PITCH: 0.007490, YAW: 0.013992, ALTITUDE: 0.000000, DES_GAZ: 0.013992
TIME: 1430250476, ROLL: 0.025710, PITCH: 0.007490, YAW: 0.013992, ALTITUDE: 0.000000, DES_GAZ: 0.013992
TIME: 1430250476, ROLL: 0.025427, PITCH: 0.007620, YAW: 0.014036, ALTITUDE: 0.000000, DES_GAZ: 0.014036
TIME: 1430250476, ROLL: 0.025427, PITCH: 0.007620, YAW: 0.014036, ALTITUDE: 0.000000, DES_GAZ: 0.014036
TIME: 1430250476, ROLL: 0.025427, PITCH: 0.007620, YAW: 0.014036, ALTITUDE: 0.000000, DES_GAZ: 0.014036
TIME: 1430250476, ROLL: 0.025427, PITCH: 0.007620, YAW: 0.014036, ALTITUDE: 0.000000, DES_GAZ: 0.014036
TIME: 1430250476, ROLL: 0.025274, PITCH: 0.007172, YAW: 0.014064, ALTITUDE: 0.000000, DES_GAZ: 0.014064
TIME: 1430250476, ROLL: 0.025274, PITCH: 0.007172, YAW: 0.014064, ALTITUDE: 0.000000, DES_GAZ: 0.014064
TIME: 1430250477, ROLL: 0.025274, PITCH: 0.007172, YAW: 0.014064, ALTITUDE: 0.000000, DES_GAZ: 0.014064
TIME: 1430250477, ROLL: 0.025274, PITCH: 0.007172, YAW: 0.014064, ALTITUDE: 0.000000, DES_GAZ: 0.014064
TIME: 1430250477, ROLL: 0.025276, PITCH: 0.006843, YAW: 0.014068, ALTITUDE: 0.000000, DES_GAZ: 0.014068
TIME: 1430250477, ROLL: 0.025276, PITCH: 0.006843, YAW: 0.014068, ALTITUDE: 0.000000, DES_GAZ: 0.014068
TIME: 1430250477, ROLL: 0.025276, PITCH: 0.006843, YAW: 0.014068, ALTITUDE: 0.000000, DES_GAZ: 0.014068
TIME: 1430250477, ROLL: 0.025110, PITCH: 0.006547, YAW: 0.014069, ALTITUDE: 0.000000, DES_GAZ: 0.014069
TIME: 1430250477, ROLL: 0.025110, PITCH: 0.006547, YAW: 0.014069, ALTITUDE: 0.000000, DES_GAZ: 0.014069
TIME: 1430250477, ROLL: 0.025110, PITCH: 0.006547, YAW: 0.014069, ALTITUDE: 0.000000, DES_GAZ: 0.014069
TIME: 1430250477, ROLL: 0.025110, PITCH: 0.006547, YAW: 0.014069, ALTITUDE: 0.000000, DES_GAZ: 0.014069
TIME: 1430250477, ROLL: 0.025085, PITCH: 0.006399, YAW: 0.014140, ALTITUDE: 0.000000, DES_GAZ: 0.014140
TIME: 1430250477, ROLL: 0.025085, PITCH: 0.006399, YAW: 0.014140, ALTITUDE: 0.000000, DES_GAZ: 0.014140
TIME: 1430250477, ROLL: 0.025085, PITCH: 0.006399, YAW: 0.014140, ALTITUDE: 0.000000, DES_GAZ: 0.014140
TIME: 1430250477, ROLL: 0.025085, PITCH: 0.006399, YAW: 0.014140, ALTITUDE: 0.000000, DES_GAZ: 0.014140
TIME: 1430250477, ROLL: 0.025364, PITCH: 0.006248, YAW: 0.014012, ALTITUDE: 0.000000, DES_GAZ: 0.014012
TIME: 1430250477, ROLL: 0.025364, PITCH: 0.006248, YAW: 0.014012, ALTITUDE: 0.000000, DES_GAZ: 0.014012
TIME: 1430250477, ROLL: 0.025364, PITCH: 0.006248, YAW: 0.014012, ALTITUDE: 0.000000, DES_GAZ: 0.014012
TIME: 1430250477, ROLL: 0.025364, PITCH: 0.006248, YAW: 0.014012, ALTITUDE: 0.000000, DES_GAZ: 0.014012
TIME: 1430250477, ROLL: 0.025364, PITCH: 0.006248, YAW: 0.014012, ALTITUDE: 0.000000, DES_GAZ: 0.014012
TIME: 1430250477, ROLL: 0.025061, PITCH: 0.006069, YAW: 0.014039, ALTITUDE: 0.000000, DES_GAZ: 0.014039
TIME: 1430250477, ROLL: 0.025061, PITCH: 0.006069, YAW: 0.014039, ALTITUDE: 0.000000, DES_GAZ: 0.014039
TIME: 1430250478, ROLL: 0.025061, PITCH: 0.006069, YAW: 0.014039, ALTITUDE: 0.000000, DES_GAZ: 0.014039
TIME: 1430250478, ROLL: 0.024904, PITCH: 0.006166, YAW: 0.014027, ALTITUDE: 0.000000, DES_GAZ: 0.014027
TIME: 1430250478, ROLL: 0.024904, PITCH: 0.006166, YAW: 0.014027, ALTITUDE: 0.000000, DES_GAZ: 0.014027
TIME: 1430250478, ROLL: 0.024904, PITCH: 0.006166, YAW: 0.014027, ALTITUDE: 0.000000, DES_GAZ: 0.014027
TIME: 1430250478, ROLL: 0.024904, PITCH: 0.006166, YAW: 0.014027, ALTITUDE: 0.000000, DES_GAZ: 0.014027
TIME: 1430250478, ROLL: 0.024904, PITCH: 0.006166, YAW: 0.014027, ALTITUDE: 0.000000, DES_GAZ: 0.014027
TIME: 1430250478, ROLL: 0.025119, PITCH: 0.006480, YAW: 0.014034, ALTITUDE: 0.000000, DES_GAZ: 0.014034
TIME: 1430250478, ROLL: 0.025119, PITCH: 0.006480, YAW: 0.014034, ALTITUDE: 0.000000, DES_GAZ: 0.014034
TIME: 1430250478, ROLL: 0.025119, PITCH: 0.006480, YAW: 0.014034, ALTITUDE: 0.000000, DES_GAZ: 0.014034
TIME: 1430250478, ROLL: 0.025119, PITCH: 0.006480, YAW: 0.014034, ALTITUDE: 0.000000, DES_GAZ: 0.014034
TIME: 1430250478, ROLL: 0.025306, PITCH: 0.006704, YAW: 0.014036, ALTITUDE: 0.000000, DES_GAZ: 0.014036
TIME: 1430250478, ROLL: 0.025306, PITCH: 0.006704, YAW: 0.014036, ALTITUDE: 0.000000, DES_GAZ: 0.014036
TIME: 1430250478, ROLL: 0.025306, PITCH: 0.006704, YAW: 0.014036, ALTITUDE: 0.000000, DES_GAZ: 0.014036
TIME: 1430250478, ROLL: 0.025372, PITCH: 0.006968, YAW: 0.014098, ALTITUDE: 0.000000, DES_GAZ: 0.014098
TIME: 1430250478, ROLL: 0.025372, PITCH: 0.006968, YAW: 0.014098, ALTITUDE: 0.000000, DES_GAZ: 0.014098
TIME: 1430250478, ROLL: 0.025372, PITCH: 0.006968, YAW: 0.014098, ALTITUDE: 0.000000, DES_GAZ: 0.014098
TIME: 1430250478, ROLL: 0.025372, PITCH: 0.006968, YAW: 0.014098, ALTITUDE: 0.000000, DES_GAZ: 0.014098
TIME: 1430250478, ROLL: 0.025372, PITCH: 0.006968, YAW: 0.014098, ALTITUDE: 0.000000, DES_GAZ: 0.014098
TIME: 1430250478, ROLL: 0.025442, PITCH: 0.007183, YAW: 0.014052, ALTITUDE: 0.000000, DES_GAZ: 0.014052
TIME: 1430250478, ROLL: 0.025442, PITCH: 0.007183, YAW: 0.014052, ALTITUDE: 0.000000, DES_GAZ: 0.014052
TIME: 1430250479, ROLL: 0.025442, PITCH: 0.007183, YAW: 0.014052, ALTITUDE: 0.000000, DES_GAZ: 0.014052
TIME: 1430250479, ROLL: 0.025442, PITCH: 0.007183, YAW: 0.014052, ALTITUDE: 0.000000, DES_GAZ: 0.014052
TIME: 1430250479, ROLL: 0.025151, PITCH: 0.007761, YAW: 0.014076, ALTITUDE: 0.000000, DES_GAZ: 0.014076
TIME: 1430250479, ROLL: 0.025151, PITCH: 0.007761, YAW: 0.014076, ALTITUDE: 0.000000, DES_GAZ: 0.014076
TIME: 1430250479, ROLL: 0.025151, PITCH: 0.007761, YAW: 0.014076, ALTITUDE: 0.000000, DES_GAZ: 0.014076
TIME: 1430250479, ROLL: 0.025274, PITCH: 0.007799, YAW: 0.014003, ALTITUDE: 0.000000, DES_GAZ: 0.014003
TIME: 1430250479, ROLL: 0.025274, PITCH: 0.007799, YAW: 0.014003, ALTITUDE: 0.000000, DES_GAZ: 0.014003
TIME: 1430250479, ROLL: 0.025274, PITCH: 0.007799, YAW: 0.014003, ALTITUDE: 0.000000, DES_GAZ: 0.014003
TIME: 1430250479, ROLL: 0.025274, PITCH: 0.007799, YAW: 0.014003, ALTITUDE: 0.000000, DES_GAZ: 0.014003
TIME: 1430250479, ROLL: 0.025131, PITCH: 0.007663, YAW: 0.013995, ALTITUDE: 0.000000, DES_GAZ: 0.013995
TIME: 1430250479, ROLL: 0.025131, PITCH: 0.007663, YAW: 0.013995, ALTITUDE: 0.000000, DES_GAZ: 0.013995
TIME: 1430250479, ROLL: 0.025131, PITCH: 0.007663, YAW: 0.013995, ALTITUDE: 0.000000, DES_GAZ: 0.013995
TIME: 1430250479, ROLL: 0.025131, PITCH: 0.007663, YAW: 0.013995, ALTITUDE: 0.000000, DES_GAZ: 0.013995
TIME: 1430250479, ROLL: 0.025186, PITCH: 0.007829, YAW: 0.013977, ALTITUDE: 0.000000, DES_GAZ: 0.013977
TIME: 1430250479, ROLL: 0.025186, PITCH: 0.007829, YAW: 0.013977, ALTITUDE: 0.000000, DES_GAZ: 0.013977
TIME: 1430250479, ROLL: 0.025186, PITCH: 0.007829, YAW: 0.013977, ALTITUDE: 0.000000, DES_GAZ: 0.013977
TIME: 1430250479, ROLL: 0.025186, PITCH: 0.007829, YAW: 0.013977, ALTITUDE: 0.000000, DES_GAZ: 0.013977
TIME: 1430250479, ROLL: 0.025186, PITCH: 0.007829, YAW: 0.013977, ALTITUDE: 0.000000, DES_GAZ: 0.013977
TIME: 1430250479, ROLL: 0.025417, PITCH: 0.007754, YAW: 0.013959, ALTITUDE: 0.000000, DES_GAZ: 0.013959
TIME: 1430250479, ROLL: 0.025417, PITCH: 0.007754, YAW: 0.013959, ALTITUDE: 0.000000, DES_GAZ: 0.013959
TIME: 1430250480, ROLL: 0.025417, PITCH: 0.007754, YAW: 0.013959, ALTITUDE: 0.000000, DES_GAZ: 0.013959
TIME: 1430250480, ROLL: 0.025483, PITCH: 0.007641, YAW: 0.013953, ALTITUDE: 0.000000, DES_GAZ: 0.013953
TIME: 1430250480, ROLL: 0.025483, PITCH: 0.007641, YAW: 0.013953, ALTITUDE: 0.000000, DES_GAZ: 0.013953
TIME: 1430250480, ROLL: 0.025483, PITCH: 0.007641, YAW: 0.013953, ALTITUDE: 0.000000, DES_GAZ: 0.013953
TIME: 1430250480, ROLL: 0.025483, PITCH: 0.007641, YAW: 0.013953, ALTITUDE: 0.000000, DES_GAZ: 0.013953
TIME: 1430250480, ROLL: 0.025378, PITCH: 0.007185, YAW: 0.013991, ALTITUDE: 0.000000, DES_GAZ: 0.013991
TIME: 1430250480, ROLL: 0.025378, PITCH: 0.007185, YAW: 0.013991, ALTITUDE: 0.000000, DES_GAZ: 0.013991
TIME: 1430250480, ROLL: 0.025378, PITCH: 0.007185, YAW: 0.013991, ALTITUDE: 0.000000, DES_GAZ: 0.013991
TIME: 1430250480, ROLL: 0.025378, PITCH: 0.007185, YAW: 0.013991, ALTITUDE: 0.000000, DES_GAZ: 0.013991
TIME: 1430250480, ROLL: 0.025378, PITCH: 0.007185, YAW: 0.013991, ALTITUDE: 0.000000, DES_GAZ: 0.013991
TIME: 1430250480, ROLL: 0.025289, PITCH: 0.006757, YAW: 0.013998, ALTITUDE: 0.000000, DES_GAZ: 0.013998
TIME: 1430250480, ROLL: 0.025289, PITCH: 0.006757, YAW: 0.013998, ALTITUDE: 0.000000, DES_GAZ: 0.013998
TIME: 1430250480, ROLL: 0.025289, PITCH: 0.006757, YAW: 0.013998, ALTITUDE: 0.000000, DES_GAZ: 0.013998
TIME: 1430250480, ROLL: 0.025289, PITCH: 0.006757, YAW: 0.013998, ALTITUDE: 0.000000, DES_GAZ: 0.013998
TIME: 1430250480, ROLL: 0.025212, PITCH: 0.006402, YAW: 0.014012, ALTITUDE: 0.000000, DES_GAZ: 0.014012
TIME: 1430250480, ROLL: 0.025212, PITCH: 0.006402, YAW: 0.014012, ALTITUDE: 0.000000, DES_GAZ: 0.014012
TIME: 1430250480, ROLL: 0.025212, PITCH: 0.006402, YAW: 0.014012, ALTITUDE: 0.000000, DES_GAZ: 0.014012
TIME: 1430250480, ROLL: 0.025212, PITCH: 0.006402, YAW: 0.014012, ALTITUDE: 0.000000, DES_GAZ: 0.014012
TIME: 1430250480, ROLL: 0.025068, PITCH: 0.006189, YAW: 0.014035, ALTITUDE: 0.000000, DES_GAZ: 0.014035
TIME: 1430250480, ROLL: 0.025068, PITCH: 0.006189, YAW: 0.014035, ALTITUDE: 0.000000, DES_GAZ: 0.014035
TIME: 1430250481, ROLL: 0.025068, PITCH: 0.006189, YAW: 0.014035, ALTITUDE: 0.000000, DES_GAZ: 0.014035
TIME: 1430250481, ROLL: 0.025068, PITCH: 0.006189, YAW: 0.014035, ALTITUDE: 0.000000, DES_GAZ: 0.014035
TIME: 1430250481, ROLL: 0.025011, PITCH: 0.006223, YAW: 0.013994, ALTITUDE: 0.000000, DES_GAZ: 0.013994
TIME: 1430250481, ROLL: 0.025011, PITCH: 0.006223, YAW: 0.013994, ALTITUDE: 0.000000, DES_GAZ: 0.013994
TIME: 1430250481, ROLL: 0.025011, PITCH: 0.006223, YAW: 0.013994, ALTITUDE: 0.000000, DES_GAZ: 0.013994
TIME: 1430250481, ROLL: 0.025011, PITCH: 0.006223, YAW: 0.013994, ALTITUDE: 0.000000, DES_GAZ: 0.013994
TIME: 1430250481, ROLL: 0.025165, PITCH: 0.006034, YAW: 0.014006, ALTITUDE: 0.000000, DES_GAZ: 0.014006
TIME: 1430250481, ROLL: 0.025165, PITCH: 0.006034, YAW: 0.014006, ALTITUDE: 0.000000, DES_GAZ: 0.014006
TIME: 1430250481, ROLL: 0.025165, PITCH: 0.006034, YAW: 0.014006, ALTITUDE: 0.000000, DES_GAZ: 0.014006
TIME: 1430250481, ROLL: 0.025165, PITCH: 0.006034, YAW: 0.014006, ALTITUDE: 0.000000, DES_GAZ: 0.014006
TIME: 1430250481, ROLL: 0.025154, PITCH: 0.006616, YAW: 0.014009, ALTITUDE: 0.000000, DES_GAZ: 0.014009
TIME: 1430250481, ROLL: 0.025154, PITCH: 0.006616, YAW: 0.014009, ALTITUDE: 0.000000, DES_GAZ: 0.014009
TIME: 1430250481, ROLL: 0.025154, PITCH: 0.006616, YAW: 0.014009, ALTITUDE: 0.000000, DES_GAZ: 0.014009
TIME: 1430250481, ROLL: 0.025154, PITCH: 0.006616, YAW: 0.014009, ALTITUDE: 0.000000, DES_GAZ: 0.014009
TIME: 1430250481, ROLL: 0.025264, PITCH: 0.006788, YAW: 0.014047, ALTITUDE: 0.000000, DES_GAZ: 0.014047
TIME: 1430250481, ROLL: 0.025264, PITCH: 0.006788, YAW: 0.014047, ALTITUDE: 0.000000, DES_GAZ: 0.014047
TIME: 1430250481, ROLL: 0.025264, PITCH: 0.006788, YAW: 0.014047, ALTITUDE: 0.000000, DES_GAZ: 0.014047
TIME: 1430250481, ROLL: 0.025264, PITCH: 0.006788, YAW: 0.014047, ALTITUDE: 0.000000, DES_GAZ: 0.014047
TIME: 1430250481, ROLL: 0.025469, PITCH: 0.007166, YAW: 0.014027, ALTITUDE: 0.000000, DES_GAZ: 0.014027
TIME: 1430250481, ROLL: 0.025469, PITCH: 0.007166, YAW: 0.014027, ALTITUDE: 0.000000, DES_GAZ: 0.014027
TIME: 1430250482, ROLL: 0.025469, PITCH: 0.007166, YAW: 0.014027, ALTITUDE: 0.000000, DES_GAZ: 0.014027
TIME: 1430250482, ROLL: 0.025469, PITCH: 0.007166, YAW: 0.014027, ALTITUDE: 0.000000, DES_GAZ: 0.014027
TIME: 1430250482, ROLL: 0.025575, PITCH: 0.007424, YAW: 0.014084, ALTITUDE: 0.000000, DES_GAZ: 0.014084
TIME: 1430250482, ROLL: 0.025575, PITCH: 0.007424, YAW: 0.014084, ALTITUDE: 0.000000, DES_GAZ: 0.014084
TIME: 1430250482, ROLL: 0.025575, PITCH: 0.007424, YAW: 0.014084, ALTITUDE: 0.000000, DES_GAZ: 0.014084
TIME: 1430250482, ROLL: 0.025575, PITCH: 0.007424, YAW: 0.014084, ALTITUDE: 0.000000, DES_GAZ: 0.014084
TIME: 1430250482, ROLL: 0.025522, PITCH: 0.007652, YAW: 0.014048, ALTITUDE: 0.000000, DES_GAZ: 0.014048
TIME: 1430250482, ROLL: 0.025522, PITCH: 0.007652, YAW: 0.014048, ALTITUDE: 0.000000, DES_GAZ: 0.014048
TIME: 1430250482, ROLL: 0.025522, PITCH: 0.007652, YAW: 0.014048, ALTITUDE: 0.000000, DES_GAZ: 0.014048
TIME: 1430250482, ROLL: 0.025522, PITCH: 0.007652, YAW: 0.014048, ALTITUDE: 0.000000, DES_GAZ: 0.014048
TIME: 1430250482, ROLL: 0.025358, PITCH: 0.007850, YAW: 0.014036, ALTITUDE: 0.000000, DES_GAZ: 0.014036
TIME: 1430250482, ROLL: 0.025358, PITCH: 0.007850, YAW: 0.014036, ALTITUDE: 0.000000, DES_GAZ: 0.014036
TIME: 1430250482, ROLL: 0.025358, PITCH: 0.007850, YAW: 0.014036, ALTITUDE: 0.000000, DES_GAZ: 0.014036
TIME: 1430250482, ROLL: 0.025358, PITCH: 0.007850, YAW: 0.014036, ALTITUDE: 0.000000, DES_GAZ: 0.014036
TIME: 1430250482, ROLL: 0.025367, PITCH: 0.007919, YAW: 0.014037, ALTITUDE: 0.000000, DES_GAZ: 0.014037
TIME: 1430250482, ROLL: 0.025367, PITCH: 0.007919, YAW: 0.014037, ALTITUDE: 0.000000, DES_GAZ: 0.014037
TIME: 1430250482, ROLL: 0.025367, PITCH: 0.007919, YAW: 0.014037, ALTITUDE: 0.000000, DES_GAZ: 0.014037
TIME: 1430250482, ROLL: 0.025367, PITCH: 0.007919, YAW: 0.014037, ALTITUDE: 0.000000, DES_GAZ: 0.014037
TIME: 1430250482, ROLL: 0.025265, PITCH: 0.007861, YAW: 0.013981, ALTITUDE: 0.000000, DES_GAZ: 0.013981
TIME: 1430250482, ROLL: 0.025265, PITCH: 0.007861, YAW: 0.013981, ALTITUDE: 0.000000, DES_GAZ: 0.013981
TIME: 1430250483, ROLL: 0.025265, PITCH: 0.007861, YAW: 0.013981, ALTITUDE: 0.000000, DES_GAZ: 0.013981
TIME: 1430250483, ROLL: 0.025265, PITCH: 0.007861, YAW: 0.013981, ALTITUDE: 0.000000, DES_GAZ: 0.013981
TIME: 1430250483, ROLL: 0.025417, PITCH: 0.007710, YAW: 0.014040, ALTITUDE: 0.000000, DES_GAZ: 0.014040
TIME: 1430250483, ROLL: 0.025417, PITCH: 0.007710, YAW: 0.014040, ALTITUDE: 0.000000, DES_GAZ: 0.014040
TIME: 1430250483, ROLL: 0.025417, PITCH: 0.007710, YAW: 0.014040, ALTITUDE: 0.000000, DES_GAZ: 0.014040
TIME: 1430250483, ROLL: 0.025417, PITCH: 0.007710, YAW: 0.014040, ALTITUDE: 0.000000, DES_GAZ: 0.014040
TIME: 1430250483, ROLL: 0.025722, PITCH: 0.007621, YAW: 0.014194, ALTITUDE: 0.000000, DES_GAZ: 0.014194
TIME: 1430250483, ROLL: 0.025722, PITCH: 0.007621, YAW: 0.014194, ALTITUDE: 0.000000, DES_GAZ: 0.014194
TIME: 1430250483, ROLL: 0.025722, PITCH: 0.007621, YAW: 0.014194, ALTITUDE: 0.000000, DES_GAZ: 0.014194
TIME: 1430250483, ROLL: 0.025722, PITCH: 0.007621, YAW: 0.014194, ALTITUDE: 0.000000, DES_GAZ: 0.014194
TIME: 1430250483, ROLL: -0.010194, PITCH: 0.079233, YAW: 0.021617, ALTITUDE: 0.000000, DES_GAZ: 0.021617
TIME: 1430250483, ROLL: -0.010194, PITCH: 0.079233, YAW: 0.021617, ALTITUDE: 0.000000, DES_GAZ: 0.021617
TIME: 1430250483, ROLL: -0.010194, PITCH: 0.079233, YAW: 0.021617, ALTITUDE: 0.000000, DES_GAZ: 0.021617
TIME: 1430250483, ROLL: -0.010194, PITCH: 0.079233, YAW: 0.021617, ALTITUDE: 0.000000, DES_GAZ: 0.021617
TIME: 1430250483, ROLL: -0.130827, PITCH: -0.145861, YAW: 0.055740, ALTITUDE: 0.000000, DES_GAZ: 0.055740
TIME: 1430250483, ROLL: -0.130827, PITCH: -0.145861, YAW: 0.055740, ALTITUDE: 0.000000, DES_GAZ: 0.055740
TIME: 1430250483, ROLL: -0.130827, PITCH: -0.145861, YAW: 0.055740, ALTITUDE: 0.000000, DES_GAZ: 0.055740
TIME: 1430250483, ROLL: -0.130827, PITCH: -0.145861, YAW: 0.055740, ALTITUDE: 0.000000, DES_GAZ: 0.055740
TIME: 1430250483, ROLL: -0.315552, PITCH: -0.590045, YAW: 0.062962, ALTITUDE: 0.000000, DES_GAZ: 0.062962
TIME: 1430250483, ROLL: -0.315552, PITCH: -0.590045, YAW: 0.062962, ALTITUDE: 0.000000, DES_GAZ: 0.062962
TIME: 1430250484, ROLL: -0.315552, PITCH: -0.590045, YAW: 0.062962, ALTITUDE: 0.000000, DES_GAZ: 0.062962
TIME: 1430250484, ROLL: -0.315552, PITCH: -0.590045, YAW: 0.062962, ALTITUDE: 0.000000, DES_GAZ: 0.062962
TIME: 1430250484, ROLL: 0.899494, PITCH: -1.327323, YAW: -1.363685, ALTITUDE: 0.000000, DES_GAZ: -1.363685
TIME: 1430250484, ROLL: 0.899494, PITCH: -1.327323, YAW: -1.363685, ALTITUDE: 0.000000, DES_GAZ: -1.363685
TIME: 1430250484, ROLL: 0.899494, PITCH: -1.327323, YAW: -1.363685, ALTITUDE: 0.000000, DES_GAZ: -1.363685
TIME: 1430250484, ROLL: 0.899494, PITCH: -1.327323, YAW: -1.363685, ALTITUDE: 0.000000, DES_GAZ: -1.363685
TIME: 1430250484, ROLL: 2.126091, PITCH: -0.831349, YAW: -2.511339, ALTITUDE: 0.000000, DES_GAZ: -2.511339
TIME: 1430250484, ROLL: 2.126091, PITCH: -0.831349, YAW: -2.511339, ALTITUDE: 0.000000, DES_GAZ: -2.511339
TIME: 1430250484, ROLL: 2.126091, PITCH: -0.831349, YAW: -2.511339, ALTITUDE: 0.000000, DES_GAZ: -2.511339
TIME: 1430250484, ROLL: 2.126091, PITCH: -0.831349, YAW: -2.511339, ALTITUDE: 0.000000, DES_GAZ: -2.511339
TIME: 1430250484, ROLL: 2.167654, PITCH: -0.902386, YAW: -2.710892, ALTITUDE: 0.000000, DES_GAZ: -2.710892
TIME: 1430250484, ROLL: 2.167654, PITCH: -0.902386, YAW: -2.710892, ALTITUDE: 0.000000, DES_GAZ: -2.710892
TIME: 1430250484, ROLL: 2.167654, PITCH: -0.902386, YAW: -2.710892, ALTITUDE: 0.000000, DES_GAZ: -2.710892
TIME: 1430250484, ROLL: 2.167654, PITCH: -0.902386, YAW: -2.710892, ALTITUDE: 0.000000, DES_GAZ: -2.710892
TIME: 1430250484, ROLL: 2.137108, PITCH: -0.852148, YAW: -3.032972, ALTITUDE: 0.000000, DES_GAZ: -3.032972
TIME: 1430250484, ROLL: 2.137108, PITCH: -0.852148, YAW: -3.032972, ALTITUDE: 0.000000, DES_GAZ: -3.032972
TIME: 1430250484, ROLL: 2.137108, PITCH: -0.852148, YAW: -3.032972, ALTITUDE: 0.000000, DES_GAZ: -3.032972
TIME: 1430250484, ROLL: 2.137108, PITCH: -0.852148, YAW: -3.032972, ALTITUDE: 0.000000, DES_GAZ: -3.032972
TIME: 1430250484, ROLL: 2.064229, PITCH: -0.750868, YAW: 3.042426, ALTITUDE: 0.000000, DES_GAZ: 3.042426
TIME: 1430250484, ROLL: 2.064229, PITCH: -0.750868, YAW: 3.042426, ALTITUDE: 0.000000, DES_GAZ: 3.042426
TIME: 1430250485, ROLL: 2.064229, PITCH: -0.750868, YAW: 3.042426, ALTITUDE: 0.000000, DES_GAZ: 3.042426
TIME: 1430250485, ROLL: 2.064229, PITCH: -0.750868, YAW: 3.042426, ALTITUDE: 0.000000, DES_GAZ: 3.042426
TIME: 1430250485, ROLL: 2.119550, PITCH: -0.717109, YAW: 2.878576, ALTITUDE: 0.000000, DES_GAZ: 2.878576
TIME: 1430250485, ROLL: 2.119550, PITCH: -0.717109, YAW: 2.878576, ALTITUDE: 0.000000, DES_GAZ: 2.878576
TIME: 1430250485, ROLL: 2.119550, PITCH: -0.717109, YAW: 2.878576, ALTITUDE: 0.000000, DES_GAZ: 2.878576
TIME: 1430250485, ROLL: 2.063710, PITCH: -0.943894, YAW: 2.778635, ALTITUDE: 0.000000, DES_GAZ: 2.778635
TIME: 1430250485, ROLL: 2.063710, PITCH: -0.943894, YAW: 2.778635, ALTITUDE: 0.000000, DES_GAZ: 2.778635
TIME: 1430250485, ROLL: 2.063710, PITCH: -0.943894, YAW: 2.778635, ALTITUDE: 0.000000, DES_GAZ: 2.778635
TIME: 1430250485, ROLL: 2.063710, PITCH: -0.943894, YAW: 2.778635, ALTITUDE: 0.000000, DES_GAZ: 2.778635
TIME: 1430250485, ROLL: 2.063710, PITCH: -0.943894, YAW: 2.778635, ALTITUDE: 0.000000, DES_GAZ: 2.778635
TIME: 1430250485, ROLL: 0.741658, PITCH: -1.234317, YAW: -2.380250, ALTITUDE: 0.000000, DES_GAZ: -2.380250
TIME: 1430250485, ROLL: 0.741658, PITCH: -1.234317, YAW: -2.380250, ALTITUDE: 0.000000, DES_GAZ: -2.380250
TIME: 1430250485, ROLL: 0.741658, PITCH: -1.234317, YAW: -2.380250, ALTITUDE: 0.000000, DES_GAZ: -2.380250
TIME: 1430250485, ROLL: 0.741658, PITCH: -1.234317, YAW: -2.380250, ALTITUDE: 0.000000, DES_GAZ: -2.380250
TIME: 1430250485, ROLL: -0.216508, PITCH: -0.723507, YAW: -1.631932, ALTITUDE: 0.000000, DES_GAZ: -1.631932
TIME: 1430250485, ROLL: -0.216508, PITCH: -0.723507, YAW: -1.631932, ALTITUDE: 0.000000, DES_GAZ: -1.631932
TIME: 1430250485, ROLL: -0.216508, PITCH: -0.723507, YAW: -1.631932, ALTITUDE: 0.000000, DES_GAZ: -1.631932
TIME: 1430250485, ROLL: -0.216508, PITCH: -0.723507, YAW: -1.631932, ALTITUDE: 0.000000, DES_GAZ: -1.631932
TIME: 1430250485, ROLL: -0.188670, PITCH: -0.520034, YAW: -1.557926, ALTITUDE: 0.000000, DES_GAZ: -1.557926
TIME: 1430250485, ROLL: -0.188670, PITCH: -0.520034, YAW: -1.557926, ALTITUDE: 0.000000, DES_GAZ: -1.557926
TIME: 1430250486, ROLL: -0.188670, PITCH: -0.520034, YAW: -1.557926, ALTITUDE: 0.000000, DES_GAZ: -1.557926
TIME: 1430250486, ROLL: -0.188670, PITCH: -0.520034, YAW: -1.557926, ALTITUDE: 0.000000, DES_GAZ: -1.557926
TIME: 1430250486, ROLL: 0.297995, PITCH: -1.043890, YAW: -1.733570, ALTITUDE: 0.000000, DES_GAZ: -1.733570
TIME: 1430250486, ROLL: 0.297995, PITCH: -1.043890, YAW: -1.733570, ALTITUDE: 0.000000, DES_GAZ: -1.733570
TIME: 1430250486, ROLL: 0.297995, PITCH: -1.043890, YAW: -1.733570, ALTITUDE: 0.000000, DES_GAZ: -1.733570
TIME: 1430250486, ROLL: 0.297995, PITCH: -1.043890, YAW: -1.733570, ALTITUDE: 0.000000, DES_GAZ: -1.733570
TIME: 1430250486, ROLL: 2.060825, PITCH: -0.772568, YAW: -3.125594, ALTITUDE: 0.000000, DES_GAZ: -3.125594
TIME: 1430250486, ROLL: 2.060825, PITCH: -0.772568, YAW: -3.125594, ALTITUDE: 0.000000, DES_GAZ: -3.125594
TIME: 1430250486, ROLL: 2.060825, PITCH: -0.772568, YAW: -3.125594, ALTITUDE: 0.000000, DES_GAZ: -3.125594
TIME: 1430250486, ROLL: 2.060825, PITCH: -0.772568, YAW: -3.125594, ALTITUDE: 0.000000, DES_GAZ: -3.125594
TIME: 1430250486, ROLL: 2.385397, PITCH: -0.449555, YAW: -2.952052, ALTITUDE: 0.000000, DES_GAZ: -2.952052
TIME: 1430250486, ROLL: 2.385397, PITCH: -0.449555, YAW: -2.952052, ALTITUDE: 0.000000, DES_GAZ: -2.952052
TIME: 1430250486, ROLL: 2.385397, PITCH: -0.449555, YAW: -2.952052, ALTITUDE: 0.000000, DES_GAZ: -2.952052
TIME: 1430250486, ROLL: 2.385397, PITCH: -0.449555, YAW: -2.952052, ALTITUDE: 0.000000, DES_GAZ: -2.952052
TIME: 1430250486, ROLL: 2.509353, PITCH: -0.456635, YAW: -2.789045, ALTITUDE: 0.000000, DES_GAZ: -2.789045
TIME: 1430250486, ROLL: 2.509353, PITCH: -0.456635, YAW: -2.789045, ALTITUDE: 0.000000, DES_GAZ: -2.789045
TIME: 1430250486, ROLL: 2.509353, PITCH: -0.456635, YAW: -2.789045, ALTITUDE: 0.000000, DES_GAZ: -2.789045
TIME: 1430250486, ROLL: 2.509353, PITCH: -0.456635, YAW: -2.789045, ALTITUDE: 0.000000, DES_GAZ: -2.789045
TIME: 1430250486, ROLL: 2.548102, PITCH: -0.462076, YAW: -2.587176, ALTITUDE: 0.000000, DES_GAZ: -2.587176
TIME: 1430250486, ROLL: 2.548102, PITCH: -0.462076, YAW: -2.587176, ALTITUDE: 0.000000, DES_GAZ: -2.587176
TIME: 1430250487, ROLL: 2.548102, PITCH: -0.462076, YAW: -2.587176, ALTITUDE: 0.000000, DES_GAZ: -2.587176
TIME: 1430250487, ROLL: 2.548102, PITCH: -0.462076, YAW: -2.587176, ALTITUDE: 0.000000, DES_GAZ: -2.587176
TIME: 1430250487, ROLL: 2.581400, PITCH: -0.432011, YAW: -2.387431, ALTITUDE: 0.000000, DES_GAZ: -2.387431
TIME: 1430250487, ROLL: 2.581400, PITCH: -0.432011, YAW: -2.387431, ALTITUDE: 0.000000, DES_GAZ: -2.387431
TIME: 1430250487, ROLL: 2.581400, PITCH: -0.432011, YAW: -2.387431, ALTITUDE: 0.000000, DES_GAZ: -2.387431
TIME: 1430250487, ROLL: 2.581400, PITCH: -0.432011, YAW: -2.387431, ALTITUDE: 0.000000, DES_GAZ: -2.387431
TIME: 1430250487, ROLL: 2.558116, PITCH: -0.431749, YAW: -2.247815, ALTITUDE: 0.000000, DES_GAZ: -2.247815
TIME: 1430250487, ROLL: 2.558116, PITCH: -0.431749, YAW: -2.247815, ALTITUDE: 0.000000, DES_GAZ: -2.247815
TIME: 1430250487, ROLL: 2.558116, PITCH: -0.431749, YAW: -2.247815, ALTITUDE: 0.000000, DES_GAZ: -2.247815
TIME: 1430250487, ROLL: 2.558116, PITCH: -0.431749, YAW: -2.247815, ALTITUDE: 0.000000, DES_GAZ: -2.247815
TIME: 1430250487, ROLL: 2.520621, PITCH: -0.449726, YAW: -2.164679, ALTITUDE: 0.000000, DES_GAZ: -2.164679
TIME: 1430250487, ROLL: 2.520621, PITCH: -0.449726, YAW: -2.164679, ALTITUDE: 0.000000, DES_GAZ: -2.164679
TIME: 1430250487, ROLL: 2.520621, PITCH: -0.449726, YAW: -2.164679, ALTITUDE: 0.000000, DES_GAZ: -2.164679
TIME: 1430250487, ROLL: 2.520621, PITCH: -0.449726, YAW: -2.164679, ALTITUDE: 0.000000, DES_GAZ: -2.164679
TIME: 1430250487, ROLL: 2.324969, PITCH: -0.494047, YAW: -2.022087, ALTITUDE: 0.000000, DES_GAZ: -2.022087
TIME: 1430250487, ROLL: 2.324969, PITCH: -0.494047, YAW: -2.022087, ALTITUDE: 0.000000, DES_GAZ: -2.022087
TIME: 1430250487, ROLL: 2.324969, PITCH: -0.494047, YAW: -2.022087, ALTITUDE: 0.000000, DES_GAZ: -2.022087
TIME: 1430250487, ROLL: 2.324969, PITCH: -0.494047, YAW: -2.022087, ALTITUDE: 0.000000, DES_GAZ: -2.022087
TIME: 1430250487, ROLL: 2.256374, PITCH: -0.395782, YAW: -1.982204, ALTITUDE: 0.000000, DES_GAZ: -1.982204
TIME: 1430250487, ROLL: 2.256374, PITCH: -0.395782, YAW: -1.982204, ALTITUDE: 0.000000, DES_GAZ: -1.982204
TIME: 1430250488, ROLL: 2.256374, PITCH: -0.395782, YAW: -1.982204, ALTITUDE: 0.000000, DES_GAZ: -1.982204
TIME: 1430250488, ROLL: 2.256374, PITCH: -0.395782, YAW: -1.982204, ALTITUDE: 0.000000, DES_GAZ: -1.982204
TIME: 1430250488, ROLL: 2.272780, PITCH: -0.353519, YAW: -1.905310, ALTITUDE: 0.000000, DES_GAZ: -1.905310
TIME: 1430250488, ROLL: 2.272780, PITCH: -0.353519, YAW: -1.905310, ALTITUDE: 0.000000, DES_GAZ: -1.905310
TIME: 1430250488, ROLL: 2.272780, PITCH: -0.353519, YAW: -1.905310, ALTITUDE: 0.000000, DES_GAZ: -1.905310
TIME: 1430250488, ROLL: 2.272780, PITCH: -0.353519, YAW: -1.905310, ALTITUDE: 0.000000, DES_GAZ: -1.905310
TIME: 1430250488, ROLL: 2.293516, PITCH: -0.358237, YAW: -1.833115, ALTITUDE: 0.000000, DES_GAZ: -1.833115
TIME: 1430250488, ROLL: 2.293516, PITCH: -0.358237, YAW: -1.833115, ALTITUDE: 0.000000, DES_GAZ: -1.833115
TIME: 1430250488, ROLL: 2.293516, PITCH: -0.358237, YAW: -1.833115, ALTITUDE: 0.000000, DES_GAZ: -1.833115
TIME: 1430250488, ROLL: 2.293516, PITCH: -0.358237, YAW: -1.833115, ALTITUDE: 0.000000, DES_GAZ: -1.833115
TIME: 1430250488, ROLL: 2.207343, PITCH: -0.253011, YAW: -1.725734, ALTITUDE: 0.000000, DES_GAZ: -1.725734
TIME: 1430250488, ROLL: 2.207343, PITCH: -0.253011, YAW: -1.725734, ALTITUDE: 0.000000, DES_GAZ: -1.725734
TIME: 1430250488, ROLL: 2.207343, PITCH: -0.253011, YAW: -1.725734, ALTITUDE: 0.000000, DES_GAZ: -1.725734
TIME: 1430250488, ROLL: 2.207343, PITCH: -0.253011, YAW: -1.725734, ALTITUDE: 0.000000, DES_GAZ: -1.725734
TIME: 1430250488, ROLL: 2.179610, PITCH: -0.103596, YAW: -1.604954, ALTITUDE: 0.000000, DES_GAZ: -1.604954
TIME: 1430250488, ROLL: 2.179610, PITCH: -0.103596, YAW: -1.604954, ALTITUDE: 0.000000, DES_GAZ: -1.604954
TIME: 1430250488, ROLL: 2.179610, PITCH: -0.103596, YAW: -1.604954, ALTITUDE: 0.000000, DES_GAZ: -1.604954
TIME: 1430250488, ROLL: 2.179610, PITCH: -0.103596, YAW: -1.604954, ALTITUDE: 0.000000, DES_GAZ: -1.604954
TIME: 1430250488, ROLL: 2.242391, PITCH: -0.033285, YAW: -1.546377, ALTITUDE: 0.000000, DES_GAZ: -1.546377
TIME: 1430250489, ROLL: 2.242391, PITCH: -0.033285, YAW: -1.546377, ALTITUDE: 0.000000, DES_GAZ: -1.546377
TIME: 1430250489, ROLL: 2.242391, PITCH: -0.033285, YAW: -1.546377, ALTITUDE: 0.000000, DES_GAZ: -1.546377
TIME: 1430250489, ROLL: 2.242391, PITCH: -0.033285, YAW: -1.546377, ALTITUDE: 0.000000, DES_GAZ: -1.546377
TIME: 1430250489, ROLL: 2.357815, PITCH: -0.149794, YAW: -1.569815, ALTITUDE: 0.000000, DES_GAZ: -1.569815
TIME: 1430250489, ROLL: 2.357815, PITCH: -0.149794, YAW: -1.569815, ALTITUDE: 0.000000, DES_GAZ: -1.569815
TIME: 1430250489, ROLL: 2.357815, PITCH: -0.149794, YAW: -1.569815, ALTITUDE: 0.000000, DES_GAZ: -1.569815
TIME: 1430250489, ROLL: 2.357815, PITCH: -0.149794, YAW: -1.569815, ALTITUDE: 0.000000, DES_GAZ: -1.569815
TIME: 1430250489, ROLL: 2.514565, PITCH: -0.235239, YAW: -1.769462, ALTITUDE: 0.000000, DES_GAZ: -1.769462
TIME: 1430250489, ROLL: 2.514565, PITCH: -0.235239, YAW: -1.769462, ALTITUDE: 0.000000, DES_GAZ: -1.769462
TIME: 1430250489, ROLL: 2.514565, PITCH: -0.235239, YAW: -1.769462, ALTITUDE: 0.000000, DES_GAZ: -1.769462
TIME: 1430250489, ROLL: 2.514565, PITCH: -0.235239, YAW: -1.769462, ALTITUDE: 0.000000, DES_GAZ: -1.769462
TIME: 1430250489, ROLL: 2.596208, PITCH: -0.264276, YAW: -1.787009, ALTITUDE: 0.000000, DES_GAZ: -1.787009
TIME: 1430250489, ROLL: 2.596208, PITCH: -0.264276, YAW: -1.787009, ALTITUDE: 0.000000, DES_GAZ: -1.787009
TIME: 1430250489, ROLL: 2.596208, PITCH: -0.264276, YAW: -1.787009, ALTITUDE: 0.000000, DES_GAZ: -1.787009
TIME: 1430250489, ROLL: 2.596208, PITCH: -0.264276, YAW: -1.787009, ALTITUDE: 0.000000, DES_GAZ: -1.787009
TIME: 1430250489, ROLL: 2.555929, PITCH: -0.277859, YAW: -1.717422, ALTITUDE: 0.000000, DES_GAZ: -1.717422
TIME: 1430250489, ROLL: 2.555929, PITCH: -0.277859, YAW: -1.717422, ALTITUDE: 0.000000, DES_GAZ: -1.717422
TIME: 1430250489, ROLL: 2.555929, PITCH: -0.277859, YAW: -1.717422, ALTITUDE: 0.000000, DES_GAZ: -1.717422
TIME: 1430250489, ROLL: 2.555929, PITCH: -0.277859, YAW: -1.717422, ALTITUDE: 0.000000, DES_GAZ: -1.717422
TIME: 1430250489, ROLL: 2.432903, PITCH: -0.308292, YAW: -1.606130, ALTITUDE: 0.000000, DES_GAZ: -1.606130
TIME: 1430250490, ROLL: 2.432903, PITCH: -0.308292, YAW: -1.606130, ALTITUDE: 0.000000, DES_GAZ: -1.606130
TIME: 1430250490, ROLL: 2.432903, PITCH: -0.308292, YAW: -1.606130, ALTITUDE: 0.000000, DES_GAZ: -1.606130
TIME: 1430250490, ROLL: 2.432903, PITCH: -0.308292, YAW: -1.606130, ALTITUDE: 0.000000, DES_GAZ: -1.606130
TIME: 1430250490, ROLL: 2.352544, PITCH: -0.309723, YAW: -1.416992, ALTITUDE: 0.000000, DES_GAZ: -1.416992
TIME: 1430250490, ROLL: 2.352544, PITCH: -0.309723, YAW: -1.416992, ALTITUDE: 0.000000, DES_GAZ: -1.416992
TIME: 1430250490, ROLL: 2.352544, PITCH: -0.309723, YAW: -1.416992, ALTITUDE: 0.000000, DES_GAZ: -1.416992
TIME: 1430250490, ROLL: 2.352544, PITCH: -0.309723, YAW: -1.416992, ALTITUDE: 0.000000, DES_GAZ: -1.416992
TIME: 1430250490, ROLL: 2.275020, PITCH: -0.321942, YAW: -1.254344, ALTITUDE: 0.000000, DES_GAZ: -1.254344
TIME: 1430250490, ROLL: 2.275020, PITCH: -0.321942, YAW: -1.254344, ALTITUDE: 0.000000, DES_GAZ: -1.254344
TIME: 1430250490, ROLL: 2.275020, PITCH: -0.321942, YAW: -1.254344, ALTITUDE: 0.000000, DES_GAZ: -1.254344
TIME: 1430250490, ROLL: 2.275020, PITCH: -0.321942, YAW: -1.254344, ALTITUDE: 0.000000, DES_GAZ: -1.254344
TIME: 1430250490, ROLL: 2.211623, PITCH: -0.427160, YAW: -1.145124, ALTITUDE: 0.000000, DES_GAZ: -1.145124
TIME: 1430250490, ROLL: 2.211623, PITCH: -0.427160, YAW: -1.145124, ALTITUDE: 0.000000, DES_GAZ: -1.145124
TIME: 1430250490, ROLL: 2.211623, PITCH: -0.427160, YAW: -1.145124, ALTITUDE: 0.000000, DES_GAZ: -1.145124
TIME: 1430250490, ROLL: 2.211623, PITCH: -0.427160, YAW: -1.145124, ALTITUDE: 0.000000, DES_GAZ: -1.145124
TIME: 1430250490, ROLL: 2.190600, PITCH: -0.422044, YAW: -1.069117, ALTITUDE: 0.000000, DES_GAZ: -1.069117
TIME: 1430250490, ROLL: 2.190600, PITCH: -0.422044, YAW: -1.069117, ALTITUDE: 0.000000, DES_GAZ: -1.069117
TIME: 1430250490, ROLL: 2.190600, PITCH: -0.422044, YAW: -1.069117, ALTITUDE: 0.000000, DES_GAZ: -1.069117
TIME: 1430250490, ROLL: 2.190600, PITCH: -0.422044, YAW: -1.069117, ALTITUDE: 0.000000, DES_GAZ: -1.069117
TIME: 1430250490, ROLL: 2.190600, PITCH: -0.422044, YAW: -1.069117, ALTITUDE: 0.000000, DES_GAZ: -1.069117
TIME: 1430250491, ROLL: 2.177091, PITCH: -0.410944, YAW: -1.002914, ALTITUDE: 0.000000, DES_GAZ: -1.002914
TIME: 1430250491, ROLL: 2.177091, PITCH: -0.410944, YAW: -1.002914, ALTITUDE: 0.000000, DES_GAZ: -1.002914
TIME: 1430250491, ROLL: 2.177091, PITCH: -0.410944, YAW: -1.002914, ALTITUDE: 0.000000, DES_GAZ: -1.002914
TIME: 1430250491, ROLL: 2.177091, PITCH: -0.410944, YAW: -1.002914, ALTITUDE: 0.000000, DES_GAZ: -1.002914
TIME: 1430250491, ROLL: 2.137349, PITCH: -0.425514, YAW: -0.894827, ALTITUDE: 0.000000, DES_GAZ: -0.894827
TIME: 1430250491, ROLL: 2.137349, PITCH: -0.425514, YAW: -0.894827, ALTITUDE: 0.000000, DES_GAZ: -0.894827
TIME: 1430250491, ROLL: 2.137349, PITCH: -0.425514, YAW: -0.894827, ALTITUDE: 0.000000, DES_GAZ: -0.894827
TIME: 1430250491, ROLL: 2.137349, PITCH: -0.425514, YAW: -0.894827, ALTITUDE: 0.000000, DES_GAZ: -0.894827
TIME: 1430250491, ROLL: 2.137349, PITCH: -0.425514, YAW: -0.894827, ALTITUDE: 0.000000, DES_GAZ: -0.894827
TIME: 1430250491, ROLL: 2.035949, PITCH: -0.464699, YAW: -0.778337, ALTITUDE: 0.000000, DES_GAZ: -0.778337
TIME: 1430250491, ROLL: 2.035949, PITCH: -0.464699, YAW: -0.778337, ALTITUDE: 0.000000, DES_GAZ: -0.778337
TIME: 1430250491, ROLL: 1.886130, PITCH: -0.618795, YAW: -0.618836, ALTITUDE: 0.000000, DES_GAZ: -0.618836
TIME: 1430250491, ROLL: 1.886130, PITCH: -0.618795, YAW: -0.618836, ALTITUDE: 0.000000, DES_GAZ: -0.618836
TIME: 1430250491, ROLL: 1.886130, PITCH: -0.618795, YAW: -0.618836, ALTITUDE: 0.000000, DES_GAZ: -0.618836
TIME: 1430250491, ROLL: 1.886130, PITCH: -0.618795, YAW: -0.618836, ALTITUDE: 0.000000, DES_GAZ: -0.618836
TIME: 1430250491, ROLL: 1.886130, PITCH: -0.618795, YAW: -0.618836, ALTITUDE: 0.000000, DES_GAZ: -0.618836
TIME: 1430250491, ROLL: 1.523450, PITCH: -0.897764, YAW: -0.144480, ALTITUDE: 0.000000, DES_GAZ: -0.144480
TIME: 1430250491, ROLL: 1.523450, PITCH: -0.897764, YAW: -0.144480, ALTITUDE: 0.000000, DES_GAZ: -0.144480
TIME: 1430250491, ROLL: 1.523450, PITCH: -0.897764, YAW: -0.144480, ALTITUDE: 0.000000, DES_GAZ: -0.144480
TIME: 1430250491, ROLL: 1.523450, PITCH: -0.897764, YAW: -0.144480, ALTITUDE: 0.000000, DES_GAZ: -0.144480
TIME: 1430250492, ROLL: 1.523450, PITCH: -0.897764, YAW: -0.144480, ALTITUDE: 0.000000, DES_GAZ: -0.144480
TIME: 1430250492, ROLL: 1.015524, PITCH: -1.074323, YAW: 0.552343, ALTITUDE: 0.000000, DES_GAZ: 0.552343
TIME: 1430250492, ROLL: 1.015524, PITCH: -1.074323, YAW: 0.552343, ALTITUDE: 0.000000, DES_GAZ: 0.552343
TIME: 1430250492, ROLL: 1.015524, PITCH: -1.074323, YAW: 0.552343, ALTITUDE: 0.000000, DES_GAZ: 0.552343
TIME: 1430250492, ROLL: 1.015524, PITCH: -1.074323, YAW: 0.552343, ALTITUDE: 0.000000, DES_GAZ: 0.552343
TIME: 1430250492, ROLL: 1.015524, PITCH: -1.074323, YAW: 0.552343, ALTITUDE: 0.000000, DES_GAZ: 0.552343
TIME: 1430250492, ROLL: 0.055239, PITCH: -0.950537, YAW: 1.825907, ALTITUDE: 0.000000, DES_GAZ: 1.825907
TIME: 1430250492, ROLL: 0.055239, PITCH: -0.950537, YAW: 1.825907, ALTITUDE: 0.000000, DES_GAZ: 1.825907
TIME: 1430250492, ROLL: 0.055239, PITCH: -0.950537, YAW: 1.825907, ALTITUDE: 0.000000, DES_GAZ: 1.825907
TIME: 1430250492, ROLL: 0.055239, PITCH: -0.950537, YAW: 1.825907, ALTITUDE: 0.000000, DES_GAZ: 1.825907
TIME: 1430250492, ROLL: 0.055239, PITCH: -0.950537, YAW: 1.825907, ALTITUDE: 0.000000, DES_GAZ: 1.825907
TIME: 1430250492, ROLL: 0.055239, PITCH: -0.950537, YAW: 1.825907, ALTITUDE: 0.000000, DES_GAZ: 1.825907
TIME: 1430250492, ROLL: -0.186144, PITCH: -0.934013, YAW: 2.216676, ALTITUDE: 0.000000, DES_GAZ: 2.216676
TIME: 1430250492, ROLL: -0.186144, PITCH: -0.934013, YAW: 2.216676, ALTITUDE: 0.000000, DES_GAZ: 2.216676
TIME: 1430250492, ROLL: -0.186144, PITCH: -0.934013, YAW: 2.216676, ALTITUDE: 0.000000, DES_GAZ: 2.216676
TIME: 1430250492, ROLL: -0.186144, PITCH: -0.934013, YAW: 2.216676, ALTITUDE: 0.000000, DES_GAZ: 2.216676
TIME: 1430250492, ROLL: -0.186144, PITCH: -0.934013, YAW: 2.216676, ALTITUDE: 0.000000, DES_GAZ: 2.216676
TIME: 1430250492, ROLL: -0.232219, PITCH: -0.899935, YAW: 2.330053, ALTITUDE: 0.000000, DES_GAZ: 2.330053
TIME: 1430250492, ROLL: -0.232219, PITCH: -0.899935, YAW: 2.330053, ALTITUDE: 0.000000, DES_GAZ: 2.330053
TIME: 1430250492, ROLL: -0.232219, PITCH: -0.899935, YAW: 2.330053, ALTITUDE: 0.000000, DES_GAZ: 2.330053
TIME: 1430250493, ROLL: -0.232219, PITCH: -0.899935, YAW: 2.330053, ALTITUDE: 0.000000, DES_GAZ: 2.330053
TIME: 1430250493, ROLL: -0.232219, PITCH: -0.899935, YAW: 2.330053, ALTITUDE: 0.000000, DES_GAZ: 2.330053
TIME: 1430250493, ROLL: -0.095007, PITCH: -0.778044, YAW: 2.248426, ALTITUDE: 0.000000, DES_GAZ: 2.248426
TIME: 1430250493, ROLL: -0.095007, PITCH: -0.778044, YAW: 2.248426, ALTITUDE: 0.000000, DES_GAZ: 2.248426
TIME: 1430250493, ROLL: -0.095007, PITCH: -0.778044, YAW: 2.248426, ALTITUDE: 0.000000, DES_GAZ: 2.248426
TIME: 1430250493, ROLL: -0.095007, PITCH: -0.778044, YAW: 2.248426, ALTITUDE: 0.000000, DES_GAZ: 2.248426
TIME: 1430250493, ROLL: -0.095007, PITCH: -0.778044, YAW: 2.248426, ALTITUDE: 0.000000, DES_GAZ: 2.248426
TIME: 1430250493, ROLL: -0.104695, PITCH: -0.711258, YAW: 2.310252, ALTITUDE: 0.000000, DES_GAZ: 2.310252
TIME: 1430250493, ROLL: -0.104695, PITCH: -0.711258, YAW: 2.310252, ALTITUDE: 0.000000, DES_GAZ: 2.310252
TIME: 1430250493, ROLL: -0.104695, PITCH: -0.711258, YAW: 2.310252, ALTITUDE: 0.000000, DES_GAZ: 2.310252
TIME: 1430250493, ROLL: -0.104695, PITCH: -0.711258, YAW: 2.310252, ALTITUDE: 0.000000, DES_GAZ: 2.310252
TIME: 1430250493, ROLL: -0.104695, PITCH: -0.711258, YAW: 2.310252, ALTITUDE: 0.000000, DES_GAZ: 2.310252
TIME: 1430250493, ROLL: 0.045720, PITCH: -0.895997, YAW: 2.136793, ALTITUDE: 0.000000, DES_GAZ: 2.136793
TIME: 1430250493, ROLL: 0.045720, PITCH: -0.895997, YAW: 2.136793, ALTITUDE: 0.000000, DES_GAZ: 2.136793
TIME: 1430250493, ROLL: 0.045720, PITCH: -0.895997, YAW: 2.136793, ALTITUDE: 0.000000, DES_GAZ: 2.136793
TIME: 1430250493, ROLL: 0.045720, PITCH: -0.895997, YAW: 2.136793, ALTITUDE: 0.000000, DES_GAZ: 2.136793
TIME: 1430250493, ROLL: 0.045720, PITCH: -0.895997, YAW: 2.136793, ALTITUDE: 0.000000, DES_GAZ: 2.136793
TIME: 1430250493, ROLL: 0.354747, PITCH: -1.098214, YAW: 1.789778, ALTITUDE: 0.000000, DES_GAZ: 1.789778
TIME: 1430250493, ROLL: 0.354747, PITCH: -1.098214, YAW: 1.789778, ALTITUDE: 0.000000, DES_GAZ: 1.789778
TIME: 1430250493, ROLL: 0.354747, PITCH: -1.098214, YAW: 1.789778, ALTITUDE: 0.000000, DES_GAZ: 1.789778
TIME: 1430250494, ROLL: 0.354747, PITCH: -1.098214, YAW: 1.789778, ALTITUDE: 0.000000, DES_GAZ: 1.789778
TIME: 1430250494, ROLL: 0.354747, PITCH: -1.098214, YAW: 1.789778, ALTITUDE: 0.000000, DES_GAZ: 1.789778
TIME: 1430250494, ROLL: 1.041038, PITCH: -1.181668, YAW: 1.099859, ALTITUDE: 0.000000, DES_GAZ: 1.099859
TIME: 1430250494, ROLL: 1.553457, PITCH: -1.008951, YAW: 0.627256, ALTITUDE: 0.000000, DES_GAZ: 0.627256
TIME: 1430250494, ROLL: 1.553457, PITCH: -1.008951, YAW: 0.627256, ALTITUDE: 0.000000, DES_GAZ: 0.627256
TIME: 1430250494, ROLL: 1.553457, PITCH: -1.008951, YAW: 0.627256, ALTITUDE: 0.000000, DES_GAZ: 0.627256
TIME: 1430250494, ROLL: 1.553457, PITCH: -1.008951, YAW: 0.627256, ALTITUDE: 0.000000, DES_GAZ: 0.627256
TIME: 1430250494, ROLL: 1.153910, PITCH: -1.000158, YAW: 0.999867, ALTITUDE: 0.000000, DES_GAZ: 0.999867
TIME: 1430250494, ROLL: 1.153910, PITCH: -1.000158, YAW: 0.999867, ALTITUDE: 0.000000, DES_GAZ: 0.999867
TIME: 1430250494, ROLL: 1.153910, PITCH: -1.000158, YAW: 0.999867, ALTITUDE: 0.000000, DES_GAZ: 0.999867
TIME: 1430250494, ROLL: 1.153910, PITCH: -1.000158, YAW: 0.999867, ALTITUDE: 0.000000, DES_GAZ: 0.999867
TIME: 1430250494, ROLL: 0.537571, PITCH: -0.852872, YAW: 1.598219, ALTITUDE: 0.000000, DES_GAZ: 1.598219
TIME: 1430250494, ROLL: 0.537571, PITCH: -0.852872, YAW: 1.598219, ALTITUDE: 0.000000, DES_GAZ: 1.598219
TIME: 1430250494, ROLL: 0.537571, PITCH: -0.852872, YAW: 1.598219, ALTITUDE: 0.000000, DES_GAZ: 1.598219
TIME: 1430250494, ROLL: 0.537571, PITCH: -0.852872, YAW: 1.598219, ALTITUDE: 0.000000, DES_GAZ: 1.598219
TIME: 1430250494, ROLL: 0.244092, PITCH: -0.752184, YAW: 1.946927, ALTITUDE: 0.000000, DES_GAZ: 1.946927
TIME: 1430250494, ROLL: 0.244092, PITCH: -0.752184, YAW: 1.946927, ALTITUDE: 0.000000, DES_GAZ: 1.946927
TIME: 1430250494, ROLL: 0.244092, PITCH: -0.752184, YAW: 1.946927, ALTITUDE: 0.000000, DES_GAZ: 1.946927
TIME: 1430250494, ROLL: 0.244092, PITCH: -0.752184, YAW: 1.946927, ALTITUDE: 0.000000, DES_GAZ: 1.946927
TIME: 1430250494, ROLL: 0.244092, PITCH: -0.752184, YAW: 1.946927, ALTITUDE: 0.000000, DES_GAZ: 1.946927
TIME: 1430250495, ROLL: 0.095116, PITCH: -0.622017, YAW: 2.144572, ALTITUDE: 0.000000, DES_GAZ: 2.144572
TIME: 1430250495, ROLL: 0.095116, PITCH: -0.622017, YAW: 2.144572, ALTITUDE: 0.000000, DES_GAZ: 2.144572
TIME: 1430250495, ROLL: 0.095116, PITCH: -0.622017, YAW: 2.144572, ALTITUDE: 0.000000, DES_GAZ: 2.144572
TIME: 1430250495, ROLL: 0.095116, PITCH: -0.622017, YAW: 2.144572, ALTITUDE: 0.000000, DES_GAZ: 2.144572
TIME: 1430250495, ROLL: 0.095116, PITCH: -0.622017, YAW: 2.144572, ALTITUDE: 0.000000, DES_GAZ: 2.144572
TIME: 1430250495, ROLL: 0.016658, PITCH: -0.494375, YAW: 2.282175, ALTITUDE: 0.000000, DES_GAZ: 2.282175
TIME: 1430250495, ROLL: 0.016658, PITCH: -0.494375, YAW: 2.282175, ALTITUDE: 0.000000, DES_GAZ: 2.282175
TIME: 1430250495, ROLL: 0.016658, PITCH: -0.494375, YAW: 2.282175, ALTITUDE: 0.000000, DES_GAZ: 2.282175
TIME: 1430250495, ROLL: 0.016658, PITCH: -0.494375, YAW: 2.282175, ALTITUDE: 0.000000, DES_GAZ: 2.282175
TIME: 1430250495, ROLL: 0.016658, PITCH: -0.494375, YAW: 2.282175, ALTITUDE: 0.000000, DES_GAZ: 2.282175
TIME: 1430250495, ROLL: -0.017426, PITCH: -0.395700, YAW: 2.353050, ALTITUDE: 0.000000, DES_GAZ: 2.353050
TIME: 1430250495, ROLL: -0.005663, PITCH: -0.350189, YAW: 2.360653, ALTITUDE: 0.000000, DES_GAZ: 2.360653
TIME: 1430250495, ROLL: -0.005663, PITCH: -0.350189, YAW: 2.360653, ALTITUDE: 0.000000, DES_GAZ: 2.360653
TIME: 1430250495, ROLL: -0.005663, PITCH: -0.350189, YAW: 2.360653, ALTITUDE: 0.000000, DES_GAZ: 2.360653
TIME: 1430250495, ROLL: -0.005663, PITCH: -0.350189, YAW: 2.360653, ALTITUDE: 0.000000, DES_GAZ: 2.360653
TIME: 1430250495, ROLL: 0.009833, PITCH: -0.328963, YAW: 2.332373, ALTITUDE: 0.000000, DES_GAZ: 2.332373
TIME: 1430250495, ROLL: 0.009833, PITCH: -0.328963, YAW: 2.332373, ALTITUDE: 0.000000, DES_GAZ: 2.332373
TIME: 1430250495, ROLL: 0.009833, PITCH: -0.328963, YAW: 2.332373, ALTITUDE: 0.000000, DES_GAZ: 2.332373
TIME: 1430250495, ROLL: 0.009833, PITCH: -0.328963, YAW: 2.332373, ALTITUDE: 0.000000, DES_GAZ: 2.332373
TIME: 1430250495, ROLL: 0.009833, PITCH: -0.328963, YAW: 2.332373, ALTITUDE: 0.000000, DES_GAZ: 2.332373
TIME: 1430250496, ROLL: 0.027051, PITCH: -0.326871, YAW: 2.296180, ALTITUDE: 0.000000, DES_GAZ: 2.296180
TIME: 1430250496, ROLL: 0.027051, PITCH: -0.326871, YAW: 2.296180, ALTITUDE: 0.000000, DES_GAZ: 2.296180
TIME: 1430250496, ROLL: 0.027051, PITCH: -0.326871, YAW: 2.296180, ALTITUDE: 0.000000, DES_GAZ: 2.296180
TIME: 1430250496, ROLL: 0.027051, PITCH: -0.326871, YAW: 2.296180, ALTITUDE: 0.000000, DES_GAZ: 2.296180
TIME: 1430250496, ROLL: 0.027051, PITCH: -0.326871, YAW: 2.296180, ALTITUDE: 0.000000, DES_GAZ: 2.296180
TIME: 1430250496, ROLL: 0.027051, PITCH: -0.326871, YAW: 2.296180, ALTITUDE: 0.000000, DES_GAZ: 2.296180
TIME: 1430250496, ROLL: 0.030170, PITCH: -0.317841, YAW: 2.326853, ALTITUDE: 0.000000, DES_GAZ: 2.326853
TIME: 1430250496, ROLL: 0.030170, PITCH: -0.317841, YAW: 2.326853, ALTITUDE: 0.000000, DES_GAZ: 2.326853
TIME: 1430250496, ROLL: 0.030170, PITCH: -0.317841, YAW: 2.326853, ALTITUDE: 0.000000, DES_GAZ: 2.326853
TIME: 1430250496, ROLL: 0.030170, PITCH: -0.317841, YAW: 2.326853, ALTITUDE: 0.000000, DES_GAZ: 2.326853
TIME: 1430250496, ROLL: 0.030170, PITCH: -0.317841, YAW: 2.326853, ALTITUDE: 0.000000, DES_GAZ: 2.326853
TIME: 1430250496, ROLL: 0.017755, PITCH: -0.316885, YAW: 2.367941, ALTITUDE: 0.000000, DES_GAZ: 2.367941
TIME: 1430250496, ROLL: 0.017755, PITCH: -0.316885, YAW: 2.367941, ALTITUDE: 0.000000, DES_GAZ: 2.367941
TIME: 1430250496, ROLL: 0.017755, PITCH: -0.316885, YAW: 2.367941, ALTITUDE: 0.000000, DES_GAZ: 2.367941
TIME: 1430250496, ROLL: 0.017755, PITCH: -0.316885, YAW: 2.367941, ALTITUDE: 0.000000, DES_GAZ: 2.367941
TIME: 1430250496, ROLL: 0.020465, PITCH: -0.327803, YAW: 2.388933, ALTITUDE: 0.000000, DES_GAZ: 2.388933
TIME: 1430250496, ROLL: 0.020465, PITCH: -0.327803, YAW: 2.388933, ALTITUDE: 0.000000, DES_GAZ: 2.388933
TIME: 1430250496, ROLL: 0.020465, PITCH: -0.327803, YAW: 2.388933, ALTITUDE: 0.000000, DES_GAZ: 2.388933
TIME: 1430250496, ROLL: 0.020465, PITCH: -0.327803, YAW: 2.388933, ALTITUDE: 0.000000, DES_GAZ: 2.388933
TIME: 1430250496, ROLL: 0.024684, PITCH: -0.316748, YAW: 2.381272, ALTITUDE: 0.000000, DES_GAZ: 2.381272
TIME: 1430250497, ROLL: 0.024684, PITCH: -0.316748, YAW: 2.381272, ALTITUDE: 0.000000, DES_GAZ: 2.381272
TIME: 1430250497, ROLL: 0.024684, PITCH: -0.316748, YAW: 2.381272, ALTITUDE: 0.000000, DES_GAZ: 2.381272
TIME: 1430250497, ROLL: 0.024684, PITCH: -0.316748, YAW: 2.381272, ALTITUDE: 0.000000, DES_GAZ: 2.381272
TIME: 1430250497, ROLL: 0.026333, PITCH: -0.303667, YAW: 2.368670, ALTITUDE: 0.000000, DES_GAZ: 2.368670
TIME: 1430250497, ROLL: 0.026333, PITCH: -0.303667, YAW: 2.368670, ALTITUDE: 0.000000, DES_GAZ: 2.368670
TIME: 1430250497, ROLL: 0.026333, PITCH: -0.303667, YAW: 2.368670, ALTITUDE: 0.000000, DES_GAZ: 2.368670
TIME: 1430250497, ROLL: 0.026333, PITCH: -0.303667, YAW: 2.368670, ALTITUDE: 0.000000, DES_GAZ: 2.368670
TIME: 1430250497, ROLL: 0.030015, PITCH: -0.296409, YAW: 2.358875, ALTITUDE: 0.000000, DES_GAZ: 2.358875
TIME: 1430250497, ROLL: 0.030015, PITCH: -0.296409, YAW: 2.358875, ALTITUDE: 0.000000, DES_GAZ: 2.358875
TIME: 1430250497, ROLL: 0.030015, PITCH: -0.296409, YAW: 2.358875, ALTITUDE: 0.000000, DES_GAZ: 2.358875
TIME: 1430250497, ROLL: 0.030015, PITCH: -0.296409, YAW: 2.358875, ALTITUDE: 0.000000, DES_GAZ: 2.358875
TIME: 1430250497, ROLL: 0.031215, PITCH: -0.297873, YAW: 2.365931, ALTITUDE: 0.000000, DES_GAZ: 2.365931
TIME: 1430250497, ROLL: 0.031215, PITCH: -0.297873, YAW: 2.365931, ALTITUDE: 0.000000, DES_GAZ: 2.365931
TIME: 1430250497, ROLL: 0.031215, PITCH: -0.297873, YAW: 2.365931, ALTITUDE: 0.000000, DES_GAZ: 2.365931
TIME: 1430250497, ROLL: 0.031215, PITCH: -0.297873, YAW: 2.365931, ALTITUDE: 0.000000, DES_GAZ: 2.365931
TIME: 1430250497, ROLL: 0.032995, PITCH: -0.294590, YAW: 2.368285, ALTITUDE: 0.000000, DES_GAZ: 2.368285
TIME: 1430250497, ROLL: 0.032995, PITCH: -0.294590, YAW: 2.368285, ALTITUDE: 0.000000, DES_GAZ: 2.368285
TIME: 1430250497, ROLL: 0.032995, PITCH: -0.294590, YAW: 2.368285, ALTITUDE: 0.000000, DES_GAZ: 2.368285
TIME: 1430250497, ROLL: 0.032995, PITCH: -0.294590, YAW: 2.368285, ALTITUDE: 0.000000, DES_GAZ: 2.368285
TIME: 1430250497, ROLL: 0.040944, PITCH: -0.294464, YAW: 2.373859, ALTITUDE: 0.000000, DES_GAZ: 2.373859
TIME: 1430250498, ROLL: 0.040944, PITCH: -0.294464, YAW: 2.373859, ALTITUDE: 0.000000, DES_GAZ: 2.373859
TIME: 1430250498, ROLL: 0.040944, PITCH: -0.294464, YAW: 2.373859, ALTITUDE: 0.000000, DES_GAZ: 2.373859
TIME: 1430250498, ROLL: 0.040944, PITCH: -0.294464, YAW: 2.373859, ALTITUDE: 0.000000, DES_GAZ: 2.373859
TIME: 1430250498, ROLL: 0.037694, PITCH: -0.290967, YAW: 2.374258, ALTITUDE: 0.000000, DES_GAZ: 2.374258
TIME: 1430250498, ROLL: 0.037694, PITCH: -0.290967, YAW: 2.374258, ALTITUDE: 0.000000, DES_GAZ: 2.374258
TIME: 1430250498, ROLL: 0.037694, PITCH: -0.290967, YAW: 2.374258, ALTITUDE: 0.000000, DES_GAZ: 2.374258
TIME: 1430250498, ROLL: 0.037694, PITCH: -0.290967, YAW: 2.374258, ALTITUDE: 0.000000, DES_GAZ: 2.374258
TIME: 1430250498, ROLL: 0.032686, PITCH: -0.280134, YAW: 2.373491, ALTITUDE: 0.000000, DES_GAZ: 2.373491
TIME: 1430250498, ROLL: 0.032686, PITCH: -0.280134, YAW: 2.373491, ALTITUDE: 0.000000, DES_GAZ: 2.373491
TIME: 1430250498, ROLL: 0.032686, PITCH: -0.280134, YAW: 2.373491, ALTITUDE: 0.000000, DES_GAZ: 2.373491
TIME: 1430250498, ROLL: 0.032686, PITCH: -0.280134, YAW: 2.373491, ALTITUDE: 0.000000, DES_GAZ: 2.373491
TIME: 1430250498, ROLL: 0.032134, PITCH: -0.264185, YAW: 2.350922, ALTITUDE: 0.000000, DES_GAZ: 2.350922
TIME: 1430250498, ROLL: 0.032134, PITCH: -0.264185, YAW: 2.350922, ALTITUDE: 0.000000, DES_GAZ: 2.350922
TIME: 1430250498, ROLL: 0.032134, PITCH: -0.264185, YAW: 2.350922, ALTITUDE: 0.000000, DES_GAZ: 2.350922
TIME: 1430250498, ROLL: 0.032134, PITCH: -0.264185, YAW: 2.350922, ALTITUDE: 0.000000, DES_GAZ: 2.350922
TIME: 1430250498, ROLL: 0.028119, PITCH: -0.257258, YAW: 2.313310, ALTITUDE: 0.000000, DES_GAZ: 2.313310
TIME: 1430250498, ROLL: 0.028119, PITCH: -0.257258, YAW: 2.313310, ALTITUDE: 0.000000, DES_GAZ: 2.313310
TIME: 1430250498, ROLL: 0.028119, PITCH: -0.257258, YAW: 2.313310, ALTITUDE: 0.000000, DES_GAZ: 2.313310
TIME: 1430250498, ROLL: 0.028119, PITCH: -0.257258, YAW: 2.313310, ALTITUDE: 0.000000, DES_GAZ: 2.313310
TIME: 1430250498, ROLL: 0.029077, PITCH: -0.242074, YAW: 2.277233, ALTITUDE: 0.000000, DES_GAZ: 2.277233
TIME: 1430250499, ROLL: 0.029077, PITCH: -0.242074, YAW: 2.277233, ALTITUDE: 0.000000, DES_GAZ: 2.277233
TIME: 1430250499, ROLL: 0.029077, PITCH: -0.242074, YAW: 2.277233, ALTITUDE: 0.000000, DES_GAZ: 2.277233
TIME: 1430250499, ROLL: 0.029077, PITCH: -0.242074, YAW: 2.277233, ALTITUDE: 0.000000, DES_GAZ: 2.277233
TIME: 1430250499, ROLL: 0.034209, PITCH: -0.219515, YAW: 2.266263, ALTITUDE: 0.000000, DES_GAZ: 2.266263
TIME: 1430250499, ROLL: 0.034209, PITCH: -0.219515, YAW: 2.266263, ALTITUDE: 0.000000, DES_GAZ: 2.266263
TIME: 1430250499, ROLL: 0.034209, PITCH: -0.219515, YAW: 2.266263, ALTITUDE: 0.000000, DES_GAZ: 2.266263
TIME: 1430250499, ROLL: 0.034209, PITCH: -0.219515, YAW: 2.266263, ALTITUDE: 0.000000, DES_GAZ: 2.266263
TIME: 1430250499, ROLL: 0.041897, PITCH: -0.160142, YAW: 2.195397, ALTITUDE: 0.000000, DES_GAZ: 2.195397
TIME: 1430250499, ROLL: 0.041897, PITCH: -0.160142, YAW: 2.195397, ALTITUDE: 0.000000, DES_GAZ: 2.195397
TIME: 1430250499, ROLL: 0.041897, PITCH: -0.160142, YAW: 2.195397, ALTITUDE: 0.000000, DES_GAZ: 2.195397
TIME: 1430250499, ROLL: 0.041897, PITCH: -0.160142, YAW: 2.195397, ALTITUDE: 0.000000, DES_GAZ: 2.195397
TIME: 1430250499, ROLL: 0.016168, PITCH: -0.077880, YAW: 2.046791, ALTITUDE: 0.000000, DES_GAZ: 2.046791
TIME: 1430250499, ROLL: 0.016168, PITCH: -0.077880, YAW: 2.046791, ALTITUDE: 0.000000, DES_GAZ: 2.046791
TIME: 1430250499, ROLL: 0.016168, PITCH: -0.077880, YAW: 2.046791, ALTITUDE: 0.000000, DES_GAZ: 2.046791
TIME: 1430250499, ROLL: 0.016168, PITCH: -0.077880, YAW: 2.046791, ALTITUDE: 0.000000, DES_GAZ: 2.046791
TIME: 1430250499, ROLL: 0.095703, PITCH: -0.038464, YAW: 1.860068, ALTITUDE: 0.000000, DES_GAZ: 1.860068
TIME: 1430250499, ROLL: 0.095703, PITCH: -0.038464, YAW: 1.860068, ALTITUDE: 0.000000, DES_GAZ: 1.860068
TIME: 1430250499, ROLL: 0.095703, PITCH: -0.038464, YAW: 1.860068, ALTITUDE: 0.000000, DES_GAZ: 1.860068
TIME: 1430250499, ROLL: 0.095703, PITCH: -0.038464, YAW: 1.860068, ALTITUDE: 0.000000, DES_GAZ: 1.860068
TIME: 1430250499, ROLL: 0.063515, PITCH: -0.037240, YAW: 1.889754, ALTITUDE: 0.000000, DES_GAZ: 1.889754
TIME: 1430250500, ROLL: 0.063515, PITCH: -0.037240, YAW: 1.889754, ALTITUDE: 0.000000, DES_GAZ: 1.889754
TIME: 1430250500, ROLL: 0.063515, PITCH: -0.037240, YAW: 1.889754, ALTITUDE: 0.000000, DES_GAZ: 1.889754
TIME: 1430250500, ROLL: 0.063515, PITCH: -0.037240, YAW: 1.889754, ALTITUDE: 0.000000, DES_GAZ: 1.889754
TIME: 1430250500, ROLL: -0.005890, PITCH: -0.039719, YAW: 2.038666, ALTITUDE: 0.000000, DES_GAZ: 2.038666
TIME: 1430250500, ROLL: -0.005890, PITCH: -0.039719, YAW: 2.038666, ALTITUDE: 0.000000, DES_GAZ: 2.038666
TIME: 1430250500, ROLL: -0.005890, PITCH: -0.039719, YAW: 2.038666, ALTITUDE: 0.000000, DES_GAZ: 2.038666
TIME: 1430250500, ROLL: -0.005890, PITCH: -0.039719, YAW: 2.038666, ALTITUDE: 0.000000, DES_GAZ: 2.038666
TIME: 1430250500, ROLL: -0.050382, PITCH: -0.106409, YAW: 2.332959, ALTITUDE: 0.000000, DES_GAZ: 2.332959
TIME: 1430250500, ROLL: -0.050382, PITCH: -0.106409, YAW: 2.332959, ALTITUDE: 0.000000, DES_GAZ: 2.332959
TIME: 1430250500, ROLL: -0.050382, PITCH: -0.106409, YAW: 2.332959, ALTITUDE: 0.000000, DES_GAZ: 2.332959
TIME: 1430250500, ROLL: -0.050382, PITCH: -0.106409, YAW: 2.332959, ALTITUDE: 0.000000, DES_GAZ: 2.332959
TIME: 1430250500, ROLL: -0.141540, PITCH: -0.038413, YAW: 2.675891, ALTITUDE: 0.000000, DES_GAZ: 2.675891
TIME: 1430250500, ROLL: -0.141540, PITCH: -0.038413, YAW: 2.675891, ALTITUDE: 0.000000, DES_GAZ: 2.675891
TIME: 1430250500, ROLL: -0.141540, PITCH: -0.038413, YAW: 2.675891, ALTITUDE: 0.000000, DES_GAZ: 2.675891
TIME: 1430250500, ROLL: -0.141540, PITCH: -0.038413, YAW: 2.675891, ALTITUDE: 0.000000, DES_GAZ: 2.675891
TIME: 1430250500, ROLL: -0.171056, PITCH: -0.032495, YAW: 2.863361, ALTITUDE: 0.000000, DES_GAZ: 2.863361
TIME: 1430250500, ROLL: -0.171056, PITCH: -0.032495, YAW: 2.863361, ALTITUDE: 0.000000, DES_GAZ: 2.863361
TIME: 1430250500, ROLL: -0.171056, PITCH: -0.032495, YAW: 2.863361, ALTITUDE: 0.000000, DES_GAZ: 2.863361
TIME: 1430250500, ROLL: -0.171056, PITCH: -0.032495, YAW: 2.863361, ALTITUDE: 0.000000, DES_GAZ: 2.863361
TIME: 1430250500, ROLL: -0.366041, PITCH: -0.040211, YAW: 2.983732, ALTITUDE: 0.000000, DES_GAZ: 2.983732
TIME: 1430250501, ROLL: -0.366041, PITCH: -0.040211, YAW: 2.983732, ALTITUDE: 0.000000, DES_GAZ: 2.983732
TIME: 1430250501, ROLL: -0.366041, PITCH: -0.040211, YAW: 2.983732, ALTITUDE: 0.000000, DES_GAZ: 2.983732
TIME: 1430250501, ROLL: -0.366041, PITCH: -0.040211, YAW: 2.983732, ALTITUDE: 0.000000, DES_GAZ: 2.983732
TIME: 1430250501, ROLL: -0.539898, PITCH: 0.066956, YAW: 2.974155, ALTITUDE: 0.000000, DES_GAZ: 2.974155
TIME: 1430250501, ROLL: -0.539898, PITCH: 0.066956, YAW: 2.974155, ALTITUDE: 0.000000, DES_GAZ: 2.974155
TIME: 1430250501, ROLL: -0.539898, PITCH: 0.066956, YAW: 2.974155, ALTITUDE: 0.000000, DES_GAZ: 2.974155
TIME: 1430250501, ROLL: -0.539898, PITCH: 0.066956, YAW: 2.974155, ALTITUDE: 0.000000, DES_GAZ: 2.974155
TIME: 1430250501, ROLL: -0.726041, PITCH: 0.083074, YAW: 2.942567, ALTITUDE: 0.000000, DES_GAZ: 2.942567
TIME: 1430250501, ROLL: -0.726041, PITCH: 0.083074, YAW: 2.942567, ALTITUDE: 0.000000, DES_GAZ: 2.942567
TIME: 1430250501, ROLL: -0.726041, PITCH: 0.083074, YAW: 2.942567, ALTITUDE: 0.000000, DES_GAZ: 2.942567
TIME: 1430250501, ROLL: -0.726041, PITCH: 0.083074, YAW: 2.942567, ALTITUDE: 0.000000, DES_GAZ: 2.942567
TIME: 1430250501, ROLL: -0.854464, PITCH: -0.071539, YAW: 2.940659, ALTITUDE: 0.000000, DES_GAZ: 2.940659
TIME: 1430250501, ROLL: -0.854464, PITCH: -0.071539, YAW: 2.940659, ALTITUDE: 0.000000, DES_GAZ: 2.940659
TIME: 1430250501, ROLL: -0.854464, PITCH: -0.071539, YAW: 2.940659, ALTITUDE: 0.000000, DES_GAZ: 2.940659
TIME: 1430250501, ROLL: -0.854464, PITCH: -0.071539, YAW: 2.940659, ALTITUDE: 0.000000, DES_GAZ: 2.940659
TIME: 1430250501, ROLL: -0.841328, PITCH: -0.462114, YAW: 2.878631, ALTITUDE: 0.000000, DES_GAZ: 2.878631
TIME: 1430250501, ROLL: -0.841328, PITCH: -0.462114, YAW: 2.878631, ALTITUDE: 0.000000, DES_GAZ: 2.878631
TIME: 1430250501, ROLL: -0.841328, PITCH: -0.462114, YAW: 2.878631, ALTITUDE: 0.000000, DES_GAZ: 2.878631
TIME: 1430250501, ROLL: -0.841328, PITCH: -0.462114, YAW: 2.878631, ALTITUDE: 0.000000, DES_GAZ: 2.878631
TIME: 1430250501, ROLL: -0.589790, PITCH: -0.780375, YAW: 2.720015, ALTITUDE: 0.000000, DES_GAZ: 2.720015
TIME: 1430250502, ROLL: -0.589790, PITCH: -0.780375, YAW: 2.720015, ALTITUDE: 0.000000, DES_GAZ: 2.720015
TIME: 1430250502, ROLL: -0.589790, PITCH: -0.780375, YAW: 2.720015, ALTITUDE: 0.000000, DES_GAZ: 2.720015
TIME: 1430250502, ROLL: -0.589790, PITCH: -0.780375, YAW: 2.720015, ALTITUDE: 0.000000, DES_GAZ: 2.720015
TIME: 1430250502, ROLL: -0.265997, PITCH: -0.866626, YAW: 2.531998, ALTITUDE: 0.000000, DES_GAZ: 2.531998
TIME: 1430250502, ROLL: -0.265997, PITCH: -0.866626, YAW: 2.531998, ALTITUDE: 0.000000, DES_GAZ: 2.531998
TIME: 1430250502, ROLL: -0.265997, PITCH: -0.866626, YAW: 2.531998, ALTITUDE: 0.000000, DES_GAZ: 2.531998
TIME: 1430250502, ROLL: -0.265997, PITCH: -0.866626, YAW: 2.531998, ALTITUDE: 0.000000, DES_GAZ: 2.531998
TIME: 1430250502, ROLL: 0.148203, PITCH: -0.982038, YAW: 2.151167, ALTITUDE: 0.000000, DES_GAZ: 2.151167
TIME: 1430250502, ROLL: 0.148203, PITCH: -0.982038, YAW: 2.151167, ALTITUDE: 0.000000, DES_GAZ: 2.151167
TIME: 1430250502, ROLL: 0.148203, PITCH: -0.982038, YAW: 2.151167, ALTITUDE: 0.000000, DES_GAZ: 2.151167
TIME: 1430250502, ROLL: 0.148203, PITCH: -0.982038, YAW: 2.151167, ALTITUDE: 0.000000, DES_GAZ: 2.151167
TIME: 1430250502, ROLL: 0.469113, PITCH: -1.016222, YAW: 1.792227, ALTITUDE: 0.000000, DES_GAZ: 1.792227
TIME: 1430250502, ROLL: 0.469113, PITCH: -1.016222, YAW: 1.792227, ALTITUDE: 0.000000, DES_GAZ: 1.792227
TIME: 1430250502, ROLL: 0.469113, PITCH: -1.016222, YAW: 1.792227, ALTITUDE: 0.000000, DES_GAZ: 1.792227
TIME: 1430250502, ROLL: 0.469113, PITCH: -1.016222, YAW: 1.792227, ALTITUDE: 0.000000, DES_GAZ: 1.792227
TIME: 1430250502, ROLL: 0.075815, PITCH: -0.908425, YAW: 1.986277, ALTITUDE: 0.000000, DES_GAZ: 1.986277
TIME: 1430250502, ROLL: 0.075815, PITCH: -0.908425, YAW: 1.986277, ALTITUDE: 0.000000, DES_GAZ: 1.986277
TIME: 1430250502, ROLL: 0.075815, PITCH: -0.908425, YAW: 1.986277, ALTITUDE: 0.000000, DES_GAZ: 1.986277
TIME: 1430250502, ROLL: 0.075815, PITCH: -0.908425, YAW: 1.986277, ALTITUDE: 0.000000, DES_GAZ: 1.986277
TIME: 1430250502, ROLL: 0.010674, PITCH: -0.689100, YAW: 1.937107, ALTITUDE: 0.000000, DES_GAZ: 1.937107
TIME: 1430250503, ROLL: 0.010674, PITCH: -0.689100, YAW: 1.937107, ALTITUDE: 0.000000, DES_GAZ: 1.937107
TIME: 1430250503, ROLL: 0.010674, PITCH: -0.689100, YAW: 1.937107, ALTITUDE: 0.000000, DES_GAZ: 1.937107
TIME: 1430250503, ROLL: 0.010674, PITCH: -0.689100, YAW: 1.937107, ALTITUDE: 0.000000, DES_GAZ: 1.937107
TIME: 1430250503, ROLL: -0.051182, PITCH: -0.420442, YAW: 1.954721, ALTITUDE: 0.000000, DES_GAZ: 1.954721
TIME: 1430250503, ROLL: -0.051182, PITCH: -0.420442, YAW: 1.954721, ALTITUDE: 0.000000, DES_GAZ: 1.954721
TIME: 1430250503, ROLL: -0.051182, PITCH: -0.420442, YAW: 1.954721, ALTITUDE: 0.000000, DES_GAZ: 1.954721
TIME: 1430250503, ROLL: -0.051182, PITCH: -0.420442, YAW: 1.954721, ALTITUDE: 0.000000, DES_GAZ: 1.954721
TIME: 1430250503, ROLL: -0.031287, PITCH: -0.225666, YAW: 2.058570, ALTITUDE: 0.000000, DES_GAZ: 2.058570
TIME: 1430250503, ROLL: -0.031287, PITCH: -0.225666, YAW: 2.058570, ALTITUDE: 0.000000, DES_GAZ: 2.058570
TIME: 1430250503, ROLL: -0.031287, PITCH: -0.225666, YAW: 2.058570, ALTITUDE: 0.000000, DES_GAZ: 2.058570
TIME: 1430250503, ROLL: -0.031287, PITCH: -0.225666, YAW: 2.058570, ALTITUDE: 0.000000, DES_GAZ: 2.058570
TIME: 1430250503, ROLL: 0.015272, PITCH: -0.124290, YAW: 2.146847, ALTITUDE: 0.000000, DES_GAZ: 2.146847
TIME: 1430250503, ROLL: 0.015272, PITCH: -0.124290, YAW: 2.146847, ALTITUDE: 0.000000, DES_GAZ: 2.146847
TIME: 1430250503, ROLL: 0.015272, PITCH: -0.124290, YAW: 2.146847, ALTITUDE: 0.000000, DES_GAZ: 2.146847
TIME: 1430250503, ROLL: 0.015272, PITCH: -0.124290, YAW: 2.146847, ALTITUDE: 0.000000, DES_GAZ: 2.146847
TIME: 1430250503, ROLL: -0.001012, PITCH: -0.113199, YAW: 2.242541, ALTITUDE: 0.000000, DES_GAZ: 2.242541
TIME: 1430250503, ROLL: -0.001012, PITCH: -0.113199, YAW: 2.242541, ALTITUDE: 0.000000, DES_GAZ: 2.242541
TIME: 1430250503, ROLL: -0.001012, PITCH: -0.113199, YAW: 2.242541, ALTITUDE: 0.000000, DES_GAZ: 2.242541
TIME: 1430250503, ROLL: -0.001012, PITCH: -0.113199, YAW: 2.242541, ALTITUDE: 0.000000, DES_GAZ: 2.242541
TIME: 1430250503, ROLL: 0.016500, PITCH: -0.093779, YAW: 2.261945, ALTITUDE: 0.000000, DES_GAZ: 2.261945
TIME: 1430250504, ROLL: 0.016500, PITCH: -0.093779, YAW: 2.261945, ALTITUDE: 0.000000, DES_GAZ: 2.261945
TIME: 1430250504, ROLL: 0.016500, PITCH: -0.093779, YAW: 2.261945, ALTITUDE: 0.000000, DES_GAZ: 2.261945
TIME: 1430250504, ROLL: 0.016500, PITCH: -0.093779, YAW: 2.261945, ALTITUDE: 0.000000, DES_GAZ: 2.261945
TIME: 1430250504, ROLL: 0.062847, PITCH: -0.082428, YAW: 2.237341, ALTITUDE: 0.000000, DES_GAZ: 2.237341
TIME: 1430250504, ROLL: 0.062847, PITCH: -0.082428, YAW: 2.237341, ALTITUDE: 0.000000, DES_GAZ: 2.237341
TIME: 1430250504, ROLL: 0.062847, PITCH: -0.082428, YAW: 2.237341, ALTITUDE: 0.000000, DES_GAZ: 2.237341
TIME: 1430250504, ROLL: 0.062847, PITCH: -0.082428, YAW: 2.237341, ALTITUDE: 0.000000, DES_GAZ: 2.237341
